timestamp,gyro_rad[0],gyro_rad[1],gyro_rad[2],gyro_integral_dt,accelerometer_timestamp_relative,accelerometer_m_s2[0],accelerometer_m_s2[1],accelerometer_m_s2[2],accelerometer_integral_dt,accelerometer_clipping
264144558,-0.011567292,-0.0023535048,-0.0073499735,5001,0,0.023700856,-0.039530367,-9.843605,5001,0
264149551,-0.01023972,-0.0036051897,-0.0083827935,4993,0,0.0538769,0.012146466,-9.832686,4993,0
264164542,-0.01037529,-0.0025632815,-0.00956547,4997,0,0.069913566,-0.022424288,-9.846661,4997,0
264184531,-0.010745023,-0.0021186867,-0.008327698,4998,0,0.04585631,-0.028535407,-9.844599,4998,0
264204519,-0.01356014,-0.003316149,-0.015979646,4997,0,0.14648879,0.073069185,-9.833717,4997,0
264224507,-0.0054212767,-0.011057996,0.0015003339,4997,0,0.11113392,-0.18082912,-9.89523,4997,0
264244497,-0.012479187,-0.002001262,-0.018025508,4999,0,0.072110094,-0.08556803,-9.864389,4999,0
264264484,0.0026872219,-0.0056292373,-0.0049319556,4997,0,-0.037355762,-0.07021343,-9.820478,4997,0
264284474,-0.01563049,-0.002379264,-0.0071026734,5000,0,0.03486823,0.0068627903,-9.80812,5000,0
264304460,-0.0050070276,-0.0008017827,-0.014191414,4997,0,0.038193222,0.033289094,-9.679948,4997,0
264324449,-0.015808417,-0.00714082,-0.0050183735,4996,0,0.07225875,-0.07802319,-9.940315,4996,0
264344440,-0.01447198,0.0127516715,-0.011325122,5000,0,0.0983797,-0.17327264,-9.623144,5000,0
264364425,0.0039887223,-7.065713e-05,-0.008750289,4997,0,-0.040401455,-0.031690825,-9.672766,4997,0
264384415,0.0016953864,0.0002954329,-0.0024503644,4999,0,0.029627012,0.14552265,-9.687244,4999,0
264404402,-0.01034825,-0.006551491,-0.016219882,4997,0,0.090075895,-0.13508712,-9.899236,4997,0
264424390,-0.009110546,0.002848677,-0.00078757363,4996,0,0.07910766,0.06704885,-9.803335,4996,0
264444380,-0.01011128,-0.0031839018,-0.018331409,4999,0,0.054790404,-0.14232951,-9.81368,4999,0
264464367,-0.010998082,-9.244269e-05,-0.0027923554,4998,0,0.10851047,-0.065658055,-9.6986685,4998,0
264484356,-0.014243054,-0.0027189294,-0.0043400493,4998,0,-0.05791893,0.13206816,-9.838107,4998,0
264504345,-0.010856343,-0.0060713924,-0.022690166,4999,0,-0.060879555,-0.03371524,-9.924719,4999,0
264524332,-0.0029290896,-0.00486712,-0.011530881,4997,0,-0.12104737,0.034213934,-9.94222,4997,0
264544320,0.00023203365,-0.0032672624,-0.018648399,4997,0,-0.01702867,-0.27263874,-9.814394,4997,0
264564309,0.0048439554,0.009598153,-0.014147407,4997,0,-0.019966967,-0.2843228,-9.773086,4997,0
264584297,0.0044783987,0.0023174072,-0.010393108,4997,0,0.049917933,-0.41234294,-9.792951,4997,0
264604285,0.0126127135,0.008453461,-0.015680475,4998,0,0.19347712,-0.21351108,-9.800125,4998,0
264624274,-0.017647205,0.0049557956,-0.02649644,4997,0,-0.019387579,-0.3891626,-9.579381,4997,0
264644263,-0.027791087,-0.005352424,-0.017601736,4999,0,-0.39905325,0.3299202,-9.686339,4999,0
264664251,0.005832876,0.0058839074,-0.014775966,4998,0,-1.1285789,-0.8516847,-9.866333,4998,0
264684239,-0.009793192,-0.03345144,0.002257105,4998,0,0.77622837,-0.9148845,-10.061912,4998,0
264704228,-0.0471851,0.017312678,0.0010482385,4999,0,-0.08369556,0.64921856,-9.862775,4999,0
264724217,-0.014163847,-0.034636434,-0.030920899,4999,0,-0.009218629,-1.3215456,-10.000833,4999,0
264744203,-0.055306423,0.0025942542,0.028175808,4995,0,0.8195065,1.112349,-9.847274,4995,0
264764191,-0.021640122,-0.027023107,-0.045259163,4997,0,-0.42001474,-1.3797649,-9.828361,4997,0
264784179,-0.044374637,-0.00717524,0.05451234,4997,0,0.9273985,0.38839844,-10.11761,4997,0
264804168,-0.0040870737,-0.023872428,-0.03480901,4998,0,0.25269455,-0.97439635,-9.856745,4998,0
264824156,-0.047092095,0.012277908,-0.0025150643,4996,0,0.6785727,-0.46425834,-9.740907,4996,0
264844144,-0.0036072487,-0.027430892,0.03081289,4995,0,1.0251882,-0.8223265,-9.934184,4995,0
264864133,-0.035906564,0.011911511,-0.073503986,4997,0,0.18597616,-1.0464442,-9.7559185,4997,0
264884121,0.014971923,-0.0052806903,0.05673593,4997,0,1.1752834,-0.3396006,-9.596644,4997,0
264904109,-0.026631102,0.018365668,-0.02771245,4997,0,-0.51848686,-1.0753756,-9.734254,4997,0
264924097,0.0071892194,-0.007336924,-0.06880325,4995,0,1.3371608,0.9719633,-9.816632,4995,0
264944086,0.012814295,0.010088206,0.1192971,4998,0,-1.0022782,-1.3241045,-9.594847,4998,0
264964074,-0.021646826,0.015416065,-0.1943952,4995,0,1.5189098,1.5526444,-10.030007,4995,0
264984062,0.041691113,0.010530225,0.13669798,4997,0,-1.4030079,-1.5970143,-9.338884,4997,0
265004051,-0.018845469,0.030733855,-0.09102738,4997,0,1.2592926,1.864173,-9.815607,4997,0
265024039,0.01459578,0.014717496,-0.024296947,4997,0,-1.8736969,-1.362947,-9.824244,4997,0
265044027,0.0134278275,0.014350411,0.12646109,4997,0,0.73153543,2.3833547,-9.568224,4997,0
265064016,-0.010624204,0.014906286,-0.22413401,4997,0,-1.6535,-1.2117447,-10.090678,4997,0
265084004,0.0420907,-0.0061309473,0.21591057,4996,0,0.491068,2.0457888,-9.342147,4996,0
265103992,0.0013272761,0.013739353,-0.16140011,4993,0,-1.0891982,-0.733172,-9.723431,4993,0
265123980,0.0059141344,-0.0004448326,0.014604858,4994,0,0.18590528,2.9138923,-10.359686,4994,0
265143969,0.0014935816,-0.009626242,0.0796636,4997,0,-1.1495488,-1.2557733,-9.343369,4997,0
265163957,-0.04096156,0.0064354627,-0.20025173,4996,0,0.27659857,2.8417585,-10.641153,4996,0
265183946,0.028693812,-0.017640738,0.19345346,4991,0,-1.3636692,-1.3651077,-9.662443,4991,0
265203934,-0.052980583,0.0083852485,-0.1624095,4998,0,0.2637758,2.3118563,-10.194344,4998,0
265223923,0.011317776,-0.014172572,0.061813507,4996,0,-1.3262393,-0.75604254,-10.212234,4996,0
265243910,-0.034586154,-0.0066834134,0.026420701,4997,0,0.5723345,1.7127863,-9.696112,4997,0
265263898,-0.014052682,-0.013586678,-0.13117163,4992,0,-1.0280632,-0.57098955,-10.404192,4992,0
265283887,-0.011415669,-0.015884472,0.1670515,4996,0,0.48596895,1.0765367,-9.426926,4996,0
265303875,-0.04317242,-0.029592568,-0.14913023,4997,0,-0.08700457,-0.8248919,-10.17311,4997,0
265323864,-0.03488313,-0.021581812,0.078441665,4997,0,0.7732606,0.60586625,-10.136699,4997,0
265343852,-0.043021757,-0.034768656,0.022169605,4993,0,0.22671473,-1.7223759,-9.818807,4993,0
265363840,-0.052427843,0.0009920537,-0.12907852,4997,0,1.1146126,0.29951763,-10.351493,4997,0
265383828,0.03004475,-0.028211137,0.16220364,4995,0,0.63098,-2.1987436,-9.408279,4995,0
265403816,-0.04680632,0.033975665,-0.17271864,4996,0,0.61453986,0.08389563,-9.513653,4996,0
265423805,0.03646099,-0.020474542,0.104919,4997,0,0.46403307,-1.4154639,-9.943947,4997,0
265443793,-0.023402033,0.022857096,-0.0013529253,4994,0,-0.11113722,-0.05032758,-9.404217,4994,0
265463782,0.01351835,0.0019940243,-0.11896836,4996,0,0.4704254,0.06425504,-10.042549,4996,0
265483772,0.009720966,0.0026829587,0.16118659,4999,0,-0.39996964,-0.12747657,-9.304657,4999,0
265503759,-0.012337641,0.023854552,-0.1894203,4997,0,0.5875767,0.6093915,-10.007274,4997,0
265523748,0.013295893,0.018161511,0.098665774,4997,0,-0.9624257,-0.23630723,-9.685827,4997,0
265543735,0.020546842,0.023768807,-0.044414606,4997,0,0.32088178,1.3888743,-9.524442,4997,0
265563723,-0.007634444,0.017160278,-0.08476553,4992,0,-1.5057065,0.2003044,-10.120209,4992,0
265583712,0.0163635,-0.010453114,0.1426296,4997,0,0.027685698,1.3171606,-9.877289,4997,0
265603700,-0.0411083,0.014958003,-0.20147741,4996,0,-1.2000653,-0.43773898,-10.050822,4996,0
265623688,0.006893888,-0.03697912,0.1466803,4997,0,0.63216895,1.1194532,-10.054009,4997,0
265643677,-0.05272643,-0.016228916,-0.06399187,4998,0,-0.9148012,-0.8900615,-9.95979,4998,0
265663665,-0.035494313,-0.005038164,-0.054863725,4996,0,0.8968076,0.7334143,-10.092497,4996,0
265683655,-0.021529995,-0.031519145,0.15344512,4999,0,-0.28903565,-1.4451159,-9.608926,4999,0
265703641,-0.053332273,0.006869237,-0.19785371,4997,0,1.3805845,0.49713355,-10.071768,4997,0
265723629,0.01549736,-0.0064057186,0.1841561,4997,0,-0.17558593,-2.0139737,-9.455689,4997,0
265743618,-0.03630046,0.01915258,-0.12025692,4992,0,1.317594,0.7416545,-9.456358,4992,0
265763606,0.015426242,0.010622325,0.017218387,4996,0,-0.2647232,-1.4698002,-9.583017,4996,0
265783594,0.022777628,0.025125133,0.07060157,4994,0,0.48907986,1.1211891,-9.128619,4994,0
265803583,-0.017593853,0.007447437,-0.16631894,4997,0,-0.70471716,-0.46875262,-10.159812,4997,0
265823571,0.030469518,0.0012763942,0.16897045,4997,0,0.28184143,1.3165088,-9.599058,4997,0
265843560,-0.0008358368,0.01526832,-0.1708391,4998,0,-0.8665745,0.018141357,-9.738011,4998,0
265863548,-0.01048131,-0.0044896654,0.051241744,4996,0,-0.15994367,1.3743232,-10.299287,4996,0
265883536,-0.015726939,-0.026112683,0.022957336,4997,0,-0.419931,-0.2749682,-9.785896,4997,0
265903524,-0.066944264,0.0018105183,-0.1500415,4997,0,0.030355725,0.56840515,-10.60138,4997,0
265923512,0.008111795,-0.038404007,0.1990889,4997,0,0.017088244,-1.6599354,-9.512191,4997,0
265943503,-0.06754122,-0.00033227383,-0.20824687,4999,0,0.75730455,0.5047741,-10.297055,4999,0
265963491,0.043674413,-0.0267346,0.16535978,4996,0,0.48170787,-1.3609186,-9.851826,4996,0
265983477,-0.04421182,0.009411774,-0.0763518,4995,0,0.49941942,0.02686188,-9.600722,4995,0
266003466,0.030975075,-0.009115468,-0.037208628,4997,0,0.3909933,-0.5229154,-9.752071,4997,0
266028451,0.019277466,-0.043736417,0.2093644,4996,0,1.1853322,-0.53648096,-9.7255745,4996,0
266043442,0.0031341962,0.016631518,-0.18455964,4997,0,0.32039982,-0.05430621,-9.998917,4997,0
266063431,0.023145294,0.006488997,0.16933525,4996,0,-0.5275737,0.11477784,-9.691081,4996,0
266083419,0.0049617714,0.018182412,-0.1467158,4996,0,0.3132478,1.0455524,-9.846647,4996,0
266103407,-0.008429787,0.00093918183,0.010449119,4995,0,-1.0433207,0.584342,-10.394369,4995,0
266123396,-0.014199218,-0.015504434,0.0735,4996,0,0.4062657,-0.20169476,-9.709845,4996,0
266143384,-0.03951845,0.008831679,-0.18198818,4997,0,-1.0706234,0.3799993,-10.474978,4997,0
266163372,0.02836636,-0.05974092,0.2203147,4996,0,0.6032429,-0.8604237,-9.584443,4996,0
266183362,-0.0872574,0.003545091,-0.22953746,4999,0,-0.17524293,-0.16493718,-10.25664,4999,0
266203353,0.035135172,-0.03618328,0.17231995,5001,0,0.483915,-0.77981466,-9.692586,5001,0
266223336,-0.05468851,0.015531658,-0.062359367,4996,0,0.29931974,-0.7771626,-9.380908,4996,0
266243325,0.019343084,-0.0062800227,-0.04155696,4997,0,0.55544484,-0.1667362,-10.1559105,4997,0
266263313,0.006307476,0.0147890765,0.12932037,4997,0,0.15982422,0.22141854,-9.015441,4997,0
266283302,-0.002998739,0.015842672,-0.20496403,4997,0,0.20779239,0.3332897,-10.016144,4997,0
266303290,0.035408534,0.0074303946,0.19081634,4997,0,-0.90592676,0.6080989,-9.589318,4997,0
266323278,-0.028569143,0.0096197,-0.2008264,4997,0,0.3925212,0.67218727,-9.801991,4997,0
266343267,-0.0045374823,-0.011892946,0.08498041,4997,0,-1.3703113,0.44282675,-10.308996,4997,0
266363255,-0.032607246,-0.027404726,-0.026996937,4997,0,1.0450081,-0.0073797926,-9.863657,4997,0
266383243,-0.058408745,-0.005097194,-0.12107605,4997,0,-0.56661266,-0.6949553,-10.2524185,4997,0
266403232,0.01884431,-0.030235479,0.20739251,4997,0,1.1030889,-0.73100257,-9.5468235,4997,0
266423220,-0.06508739,0.006084981,-0.2601184,4996,0,0.016757857,-0.7979805,-10.134055,4996,0
266443208,0.056975666,-0.022289174,0.2514644,4997,0,0.8640956,-0.6305399,-9.428367,4997,0
266463196,-0.027914232,0.040654697,-0.19204503,4996,0,-0.41400966,-0.21840826,-9.7248125,4996,0
266483185,0.043020803,-0.0108271465,0.091506205,4997,0,0.5088265,0.03631955,-9.963426,4997,0
266503176,-0.001361293,0.03168759,-0.0077531617,5000,0,-1.0737026,0.21483587,-9.163735,5000,0
266523161,0.0012870701,0.016387783,-0.12946555,4995,0,-0.11323354,1.465642,-10.37557,4995,0
266543149,-0.010235016,-0.021261891,0.17782837,4995,0,-0.7971929,-0.044971522,-9.722986,4995,0
266563138,-0.037144665,0.0026215098,-0.22542168,4996,0,0.17171845,1.1135789,-10.277638,4996,0
266583126,-0.012863452,-0.02210852,0.19817935,4996,0,-0.69974375,-0.6311353,-9.6325,4996,0
266603114,-0.05447592,-0.021954603,-0.1401395,4995,0,1.2365685,-0.108431876,-10.012531,4995,0
266623102,-0.020707108,-0.01522887,0.03689899,4996,0,-0.5406632,-1.0767426,-9.991379,4996,0
266643091,-0.0077087497,-0.0032472208,0.051759887,4996,0,1.7510818,-0.64930296,-9.299861,4996,0
266663079,-0.022150323,0.02080424,-0.17437895,4996,0,-0.52353346,-0.5045188,-10.313581,4996,0
266683067,0.049916215,-0.009886974,0.20208204,4996,0,0.44296622,0.6142755,-9.3961935,4996,0
266703056,-0.026001692,0.041745003,-0.26596826,4997,0,-0.92212546,0.43647233,-10.095734,4997,0
266723044,0.031217143,-0.034510776,0.21462879,4995,0,0.48608083,0.3944302,-10.041808,4995,0
266743032,-0.051928934,0.006327306,-0.15967964,4996,0,-0.86298054,0.48449558,-9.9847355,4996,0
266763021,-0.013586471,-0.04165411,0.067251466,4997,0,0.40484905,-0.25777555,-10.309119,4997,0
266783009,-0.027703054,-0.007420757,0.059823096,4997,0,0.3824298,-0.9553912,-9.545693,4997,0
266802997,0.0017118183,-0.0002549018,-0.14504325,4996,0,1.0276058,0.3494229,-10.180622,4996,0
266822986,0.03298593,0.009315137,0.21352665,4996,0,-0.2533435,-0.207362,-9.182429,4996,0
266842974,-0.020547386,0.019213226,-0.25116068,4996,0,1.0567062,0.6101496,-9.993002,4996,0
266862962,0.049563147,0.009863576,0.17212687,4996,0,-1.4690012,0.7204335,-9.563979,4996,0
266882950,-0.025590854,-0.0071139038,-0.15501048,4996,0,0.7174536,0.44842818,-10.025017,4996,0
266902940,-0.005644135,0.011953926,0.03849326,4997,0,-1.2900403,0.57301825,-10.376981,4997,0
266922927,-0.034049165,-0.03550817,0.04120637,4995,0,0.8470699,-0.13457589,-9.963306,4995,0
266942915,-0.060179666,0.003064511,-0.16060856,4996,0,-0.42329594,-0.009615757,-10.554114,4996,0
266962905,0.012635721,-0.04221729,0.22361821,4998,0,0.85347867,-1.4140569,-9.425266,4998,0
266982892,-0.051179003,0.015877267,-0.2748816,4996,0,0.023386529,-0.43003872,-9.8078575,4996,0
267002880,0.073486164,-0.019189201,0.25689638,4995,0,0.6564477,-0.6604635,-9.471118,4995,0
267022869,-0.029453397,0.045547146,-0.22465573,4996,0,-0.38604134,0.6076631,-9.445071,4996,0
267042857,0.040043678,-0.0075751697,0.09225159,4997,0,-0.81573725,0.185402,-10.082625,4997,0
267062846,-0.048142947,-0.0013233447,-0.017780406,4996,0,-0.09955662,1.2626733,-9.800907,4996,0
267082834,-0.019769713,-0.0155701125,-0.09745343,4997,0,-0.41255862,-0.54504585,-10.109983,4997,0
267102822,-0.024326175,-0.039110593,0.19489112,4997,0,0.43417972,0.51616126,-9.74446,4997,0
267122812,-0.041576352,-0.016451795,-0.22791961,4997,0,0.32233223,-1.3322778,-9.986638,4997,0
267147796,0.031393014,-0.026643494,0.17662016,4996,0,-0.09871319,-0.90174377,-10.107022,4996,0
267162787,-0.017552497,0.002345936,-0.23168787,4996,0,0.3250195,-1.2017136,-9.629406,4996,0
267182776,0.049321406,0.0012832889,0.18405692,4995,0,0.20915976,1.7747458,-10.238584,4995,0
267202764,-0.07958942,-0.014650722,-0.08047294,4995,0,1.1700493,2.1428242,-10.226858,4995,0
267222752,-0.038500957,-0.058911588,0.09055243,4996,0,0.7372259,1.2723624,-8.904062,4996,0
267242742,-0.246219,0.039416097,-0.25425607,4999,0,-0.096331656,-1.9463204,-10.957453,4999,0
267262730,0.14304477,-0.14657441,0.049774773,4999,0,1.0304486,-1.7416112,-8.504266,4999,0
267287715,-0.19365385,0.14477077,0.025068227,4998,0,1.180224,-1.6520954,-9.40867,4998,0
267302705,0.11685735,-0.05564088,0.038332846,4997,0,0.16075307,0.4626304,-9.098524,4997,0
267322693,-0.21336965,0.06615021,0.012201264,4995,0,-0.97244084,-0.3364587,-10.975241,4995,0
267347679,0.07859767,-0.055123243,-0.03819518,4996,0,0.12960503,1.0931343,-9.2551365,4996,0
267362671,-0.11764613,0.008896744,0.009321217,4998,0,-0.9055311,-0.7485224,-10.259098,4998,0
267382658,0.0687291,-0.008208305,-0.006075133,4996,0,1.5353727,0.22874287,-8.628614,4996,0
267402646,-0.07137574,0.013355878,0.0041071605,4997,0,-0.62100935,-1.3265712,-10.010175,4997,0
267427632,0.040365342,-0.0065864082,0.0069444114,4996,0,1.2676809,0.5525854,-8.708897,4996,0
267442623,-0.08055584,-0.053129435,-0.021335207,4997,0,-0.8913768,-0.26373518,-10.376636,4997,0
267462613,-0.020139761,0.0017088508,0.00645512,4999,0,-0.19620055,0.47349435,-10.221555,4999,0
267487598,-0.02968903,0.027398039,-0.010790368,4998,0,-0.6129419,-0.44628194,-9.645001,4998,0
267502588,-0.08489099,0.015297401,-0.016644856,4998,0,-0.47927764,0.3325914,-10.600298,4998,0
267522576,0.09797632,-0.061047155,0.04181834,4995,0,0.7518462,0.32368052,-8.764554,4995,0
267542564,-0.1253066,-0.01666569,-0.005113249,4995,0,-0.27930942,-1.1452618,-10.376309,4995,0
267562553,0.05385431,-0.04546147,0.008825579,4998,0,1.1183958,0.60213834,-9.3592,4998,0
267582542,-0.034671243,-0.01156121,0.016013158,4998,0,-0.7466289,0.16008796,-10.600169,4998,0
267602530,-0.06954701,0.03678908,0.025059834,4996,0,0.25650635,0.24308677,-9.4912,4996,0
267622518,0.035459314,-0.022466173,0.014329465,4997,0,0.38576967,0.09979553,-9.83243,4997,0
267642506,-0.10001323,0.030167349,0.016061947,4997,0,-0.30463797,-0.4438274,-10.72795,4997,0
267662501,0.026565919,-0.019926406,0.028907852,5003,0,0.8206397,0.3735312,-8.957334,5003,0
267687480,-0.114546664,-0.012224654,0.014118256,4998,0,-0.2896846,-0.14830422,-10.745186,4998,0
267707470,0.1165956,-0.062444497,0.02693312,4995,0,0.34125352,0.21850336,-8.160111,4995,0
267722459,-0.06350693,-0.03965325,-0.0009180054,4997,0,-0.026621502,-0.26370427,-9.758231,4997,0
267742447,-0.036962148,-0.001057499,0.03884414,4996,0,-0.41492853,0.007813228,-9.979966,4996,0
267767433,0.040233668,-0.01826598,0.033569366,4995,0,-0.12680277,-0.24822618,-9.049632,4995,0
267782424,-0.18440764,0.049852107,0.009430998,4996,0,-0.5805516,-0.7583438,-10.635359,4996,0
267802414,-0.021581452,0.054906987,0.029305765,4996,0,0.53545004,0.7356643,-8.9576025,4996,0
267822401,-0.07777696,-0.02135487,0.0043515316,4995,0,-0.8786116,-0.68796164,-10.527654,4995,0
267847386,0.0022135573,0.028144784,0.050601434,4997,0,0.5562892,1.0744374,-9.11928,4997,0
267862377,-0.09736851,-0.028605986,0.009052666,4997,0,-0.8907248,-0.042817533,-10.089032,4997,0
267882365,-0.068296045,0.024139881,0.0345057,4995,0,-0.096462704,0.1530908,-9.894062,4995,0
267907351,-0.07330372,0.021227986,0.025881212,4997,0,-0.10309696,0.061719783,-10.346278,4997,0
267922344,-0.101935774,0.062126055,0.033985693,4998,0,0.3804619,0.023789542,-10.126888,4998,0
267942330,0.054047223,-0.06254952,0.051126227,4996,0,0.97376543,-0.9990992,-9.526932,4996,0
267967316,0.027116407,-0.11611319,0.09222465,4997,0,0.17693825,1.1630527,-10.752474,4997,0
267987304,-0.045740698,-0.15072824,0.05966298,4997,0,0.24444725,0.60696507,-10.386254,4997,0
268002295,-0.19861503,-0.0808706,0.046917893,4993,0,-0.8771504,-1.4345593,-10.342454,4993,0
268022285,-0.025449203,-0.117614344,0.089929745,4994,0,-0.08792391,0.6816338,-9.178032,4994,0
268047270,0.014915413,-0.20145981,0.041716445,4996,0,0.02620825,0.2030577,-9.823247,4996,0
268062262,-0.01823424,-0.086467035,0.05713731,4999,0,-0.5950724,0.08963782,-10.518912,4999,0
268082248,-0.20773238,-0.061276764,0.05686454,4995,0,-0.5275591,-0.3470841,-10.25764,4995,0
268102239,-0.18098928,-0.06044024,0.051977787,4999,0,0.2114524,0.431917,-9.548515,4999,0
268127224,-0.084695116,-0.06525758,0.04565632,4999,0,-0.6240734,0.6991406,-9.827369,4999,0
268142215,-0.054733038,-0.10087504,0.045780804,4996,0,-0.5751917,0.70756185,-10.112222,4996,0
268162202,-0.08231969,-0.16903575,0.054198135,4991,0,-0.27449813,0.69515175,-9.03191,4991,0
268187188,-0.04974997,-0.15788479,0.10245173,4998,0,-0.26852527,0.9080493,-10.062155,4998,0
268202178,-0.07435567,-0.21311513,0.06043415,4994,0,-0.52904,0.25416028,-10.65921,4994,0
268222166,-0.084549345,-0.099304155,0.047812406,4995,0,-0.04707755,0.47858927,-11.006709,4995,0
268247152,-0.051459014,-0.022105783,0.05435017,4997,0,-1.0011104,1.0874928,-9.388123,4997,0
268262144,-0.16714452,-0.04081344,0.022456868,4997,0,0.12414605,0.89537466,-9.825896,4997,0
268282134,-0.11907041,-0.19420153,0.055399295,4993,0,0.68144983,0.51300883,-10.337318,4993,0
268302119,-0.003287349,-0.23115693,0.019148912,4996,0,-0.089194424,0.8379503,-10.430431,4996,0
268327106,-0.053374782,-0.088884376,0.06978267,4998,0,-0.98914033,1.3808784,-9.778464,4998,0
268342097,-0.19534957,-0.041859098,0.031139217,4996,0,-0.30011767,0.4728242,-9.997982,4996,0
268362085,-0.23022187,-0.22401612,-0.016405936,4997,0,-0.6907626,0.6118447,-11.441642,4997,0
268387071,-0.0071342965,-0.021133535,0.0056385077,4997,0,-0.5073393,0.97470635,-10.266783,4997,0
268407060,0.08372985,0.0037853145,-0.037482757,4999,0,-0.48656416,1.5515995,-10.033937,4999,0
268422050,-0.092276335,-0.061994392,0.030363744,4998,0,0.06456651,0.30337688,-11.173334,4998,0
268442037,-0.23819833,-0.051149808,-0.0021704284,4994,0,-0.93024594,1.2680613,-10.061702,4994,0
268467025,-0.18391901,-0.006318994,-0.018836208,4997,0,-0.5413003,0.2950066,-10.261055,4997,0
268482015,-0.05560476,-0.0034029423,-0.014540138,4998,0,0.0779497,0.1848673,-11.015096,4998,0
268502003,0.036015235,0.05589766,-0.024775546,4997,0,-0.4157552,0.6914664,-10.623478,4997,0
268526989,-0.08294584,0.07281502,-0.00072330935,4996,0,-0.15280183,-0.12521355,-9.5054245,4996,0
268546977,-0.18197064,-0.08926829,-0.024649162,4996,0,-0.27655882,-0.13896771,-11.532784,4996,0
268561972,-0.17639752,0.027182894,-0.054144215,5001,0,-0.7912689,0.87826,-9.327701,5001,0
268581956,-0.03917969,0.13207029,-0.021535423,4997,0,0.009060966,0.5717534,-10.795282,4997,0
268601944,-0.014672069,0.021704962,-0.0022263615,4996,0,-0.3130355,0.3060294,-11.341917,4996,0
268621933,-0.12528954,0.06588295,-0.017665524,4996,0,-0.30745235,1.000021,-9.573633,4996,0
268641921,-0.1790478,-0.02713615,0.0038578762,4993,0,-0.20322767,0.42608112,-11.569464,4993,0
268666907,-0.025241213,0.123825654,-0.008281223,4997,0,-0.48391476,0.8441568,-10.387641,4997,0
268686896,0.073900074,0.07207877,-0.036780737,4998,0,-0.1944803,0.2604194,-11.171116,4998,0
268701886,0.072187886,0.11561822,-0.035382852,4995,0,-0.19759357,0.7223113,-9.218702,4995,0
268721874,-0.060124762,-0.07088769,-0.004871296,4997,0,-0.502626,0.3839687,-10.532725,4997,0
268746860,-0.1199708,-0.08189405,-0.04103914,4998,0,-0.10480154,0.5131641,-10.680777,4998,0
268761851,0.09933355,-0.08718582,-0.042973906,4997,0,-0.36979285,0.73281795,-10.734231,4997,0
268781841,0.23773633,0.11789,-0.060460795,4997,0,-0.66211987,0.5411333,-9.682907,4997,0
268806824,0.16012555,0.07868966,-0.060613737,4996,0,-0.16093738,0.15957975,-12.068596,4996,0
268826813,0.11749877,0.08595743,-0.03828276,4996,0,-0.24949777,0.91649264,-9.211601,4996,0
268841804,-0.18901163,0.0033589494,0.006024294,4997,0,0.2146529,-0.18730302,-10.63602,4997,0
268861792,-0.044185773,0.06902869,-0.0061342,4992,0,-1.1623975,1.113651,-9.529724,4992,0
268886779,0.12977663,0.009565927,-0.008674532,4999,0,-0.07393073,0.1426907,-11.864793,4999,0
268901769,0.26155323,0.07457092,-0.030267255,4997,0,-0.23659326,0.996624,-10.145052,4997,0
268921757,0.02219703,-0.021663962,-0.009178727,4996,0,0.28580514,-0.19676447,-10.813277,4996,0
268946744,-0.14495125,0.046841204,-0.018572738,4998,0,-0.8457116,0.1991698,-9.027044,4998,0
268966731,-0.051980276,-0.053558543,-0.010060314,4997,0,-0.6944548,0.76599485,-10.802633,4997,0
268981724,0.12465118,0.026955936,-0.03102715,4997,0,-0.683628,0.9849316,-9.601983,4997,0
269006707,0.20383234,-0.031955075,-0.015013962,4997,0,0.047165863,0.48860115,-11.091555,4997,0
269026698,0.14670117,0.040693007,-0.026253257,4999,0,-0.8195372,0.76505804,-8.509266,4999,0
269041690,-0.15193135,0.0076576965,-0.028658392,4996,0,-0.15153952,-0.35529298,-9.949755,4996,0
269061675,-0.12897085,0.06891655,-0.040494386,4991,0,-1.1382197,0.3843642,-9.074543,4991,0
269086661,0.07269687,-0.057421137,-0.02879345,4997,0,0.13278233,0.5867706,-11.555026,4997,0
269106649,0.26285434,0.008694525,-0.045738444,4996,0,-0.68312037,1.2568331,-9.3485365,4996,0
269121640,0.1121229,-0.040833127,-0.03840765,4997,0,0.15774505,0.19518751,-10.176762,4997,0
269146626,-0.08642158,0.086537756,-0.030261222,4997,0,-0.94495356,-0.07368022,-9.412894,4997,0
269166617,0.020920219,-0.11586591,-0.020597856,5000,0,-0.023136757,1.8534505,-11.342414,5000,0
269181605,0.07902633,-0.06902088,-0.021453295,4996,0,-0.19139774,0.7624082,-9.236704,4996,0
269201594,0.06243499,-0.0013506438,-0.015407118,4996,0,-0.97510964,0.2222794,-10.056735,4996,0
269226581,0.106394626,0.12658958,-0.014724611,4999,0,-0.47356758,0.63830197,-10.640837,4999,0
269246567,0.12259589,-0.07665857,-0.0039145835,4996,0,-0.32911885,1.2144431,-10.007312,4996,0
269261558,-0.12038684,-0.009363245,-0.014356832,4996,0,-0.82142556,0.011674449,-9.185632,4996,0
269286544,-0.035930566,-0.0019170048,-0.015276372,4998,0,-0.7330141,0.5928723,-9.3076515,4998,0
269306533,0.087838486,-0.021173548,0.0146822855,4997,0,0.39452007,0.7792497,-10.731888,4997,0
269321523,0.025714198,-0.021113206,-0.0013643543,4997,0,-0.5366481,0.63358706,-9.597531,4997,0
269341511,-0.12619264,0.0738049,-0.021746324,4997,0,-0.7021355,-0.32046673,-9.862329,4997,0
269366499,-0.0055626254,-0.065496914,-0.012024645,4999,0,-0.3955179,1.5820488,-9.499376,4999,0
269386486,-0.08953142,-0.10334338,-0.0073694065,4998,0,0.09277568,0.0514943,-10.012973,4998,0
269401476,0.030028054,-0.07262319,-0.009172705,4996,0,-0.92818636,1.1026669,-9.433981,4996,0
269426463,-0.06797909,-0.05880264,-0.013846019,4999,0,-0.26914567,-0.004768638,-11.523636,4999,0
269446452,0.08117048,-0.08896349,-0.024613932,4999,0,-0.51430476,1.3650358,-9.801524,4999,0
269461442,-0.041775495,-0.059862223,-0.02323599,4998,0,-0.38188997,0.25602642,-9.468087,4998,0
269481430,-0.11860323,0.024501832,-0.04022232,4997,0,-1.6021024,0.449931,-9.374075,4997,0
269506424,-0.016188484,-0.15071374,-0.013702877,5005,0,0.22949384,1.7281389,-12.266542,5005,0
269526405,-0.055814784,-0.09181823,-0.02509391,4999,0,-0.8575021,0.03493336,-9.39388,4999,0
269541394,-0.16253193,-0.04444252,-0.025764335,4996,0,-1.1580882,0.13360891,-10.244185,4996,0
269566380,-0.034873083,-0.11037287,0.010519527,4996,0,0.42929566,0.89381033,-11.489067,4996,0
269586370,-0.02808241,-0.07686188,-0.019273104,4999,0,-1.0796214,0.95333946,-8.574433,4999,0
269601359,-0.18317139,-0.0042700623,-0.0039038127,4996,0,-1.080309,-0.040207673,-9.559512,4996,0
269621347,-0.07539975,-0.071150884,0.009822224,4996,0,-0.8978053,0.76395535,-9.891538,4996,0
269646333,-0.11144379,-0.17317618,0.015835106,4997,0,0.1099272,0.4605598,-10.560281,4997,0
269666323,-0.106877886,-0.096745834,-0.0047282386,4999,0,-1.225346,0.76166475,-8.035251,4999,0
269681312,-0.22823259,-0.06991488,0.0013978552,4996,0,-0.66558135,0.027336845,-9.534478,4996,0
269706299,-0.07496396,-0.11470071,-0.008013145,4998,0,-0.7724255,0.88608354,-9.569915,4998,0
269726290,-0.02840608,-0.058100514,-0.012742537,5000,0,-0.15549478,1.0454729,-9.5860195,5000,0
269741278,-0.067910984,-0.09960409,-0.011879779,4998,0,-0.11204533,0.30225655,-9.863669,4998,0
269761266,-0.088340916,0.017924191,-0.03917733,4997,0,-1.4720038,0.48869792,-8.387549,4997,0
269786252,-0.10253666,-0.12948115,-0.025426066,4998,0,-0.6973641,1.37228,-10.885938,4998,0
269806241,-0.08093031,-0.14299114,-0.022569621,4998,0,-0.17707288,0.7762111,-9.854539,4998,0
269821231,-0.089489006,-0.19440672,-0.012719799,4998,0,-0.48056114,0.71143353,-9.871649,4998,0
269846218,-0.1482274,-0.035748586,-0.010268417,4999,0,-0.95308757,-0.26015306,-9.719245,4999,0
269866204,0.009704907,-0.12942438,-0.010346604,4997,0,-0.5303471,1.4133621,-10.762807,4997,0
269881196,0.01136595,-0.1431293,0.00832314,4997,0,-0.2567074,1.2012401,-9.142434,4997,0
269901184,-0.106693245,-0.16178218,0.0031215674,4996,0,-1.0130317,0.42298645,-9.483936,4996,0
269926170,-0.1320724,-0.014689128,0.007410485,4998,0,-1.0425988,0.59665006,-9.899652,4998,0
269946161,-0.048419334,-0.16570452,0.00992683,5001,0,-0.37689257,1.5473098,-10.304879,5001,0
269961149,-0.11614889,-0.09772888,0.011060417,4998,0,-0.8613834,1.0644933,-7.952274,4998,0
269986136,-0.14924109,-0.13308232,-0.010194546,4997,0,-1.1648395,0.45712894,-9.599054,4997,0
270006124,-0.043493282,-0.056614865,-0.011349939,4998,0,-0.77367324,1.3330449,-9.765357,4998,0
270021115,-0.04379462,-0.19030063,-0.0035598215,4997,0,-0.24923266,0.7311398,-10.596745,4997,0
270041102,-0.054397557,-0.0315387,-0.014753816,4996,0,-1.2371482,0.57309544,-7.5874925,4996,0
270066089,-0.1487298,-0.07881919,-0.02904269,4999,0,-1.1666502,0.77916235,-10.529956,4999,0
270086077,-0.09775308,-0.16176006,-0.01962324,4997,0,-0.016323341,0.92039114,-10.20809,4997,0
270101067,-0.05272487,-0.23287192,0.004895181,4997,0,-0.9036827,1.4207752,-9.574205,4997,0
270126057,-0.14329794,-0.04545197,-0.0173458,5002,0,-1.2082124,0.19396588,-9.644224,5002,0
270146043,0.014399468,-0.08178749,0.0049719084,4999,0,-0.92093784,1.6099333,-9.882791,4999,0
270161032,-0.06642859,-0.060912035,-0.008293734,4997,0,-0.3816602,0.6076706,-8.7310095,4997,0
270181023,-0.17754304,-0.14365159,-0.007312235,5000,0,-1.6796257,1.3279911,-9.192005,5000,0
270206006,-0.14658894,-0.20018563,-0.004741008,4998,0,-0.2459214,0.79907495,-11.092666,4998,0
270225994,0.063714385,-0.15370774,-0.024340956,4997,0,-1.0121256,1.5251509,-8.566481,4997,0
270240985,-0.026683604,-0.063941345,-0.036384802,4996,0,-0.8123507,0.37711793,-8.301304,4996,0
270265971,-0.10019137,-0.034055695,-0.059692167,4996,0,-1.2851135,1.4415113,-9.513082,4996,0
270285965,-0.13102208,-0.18315125,0.0065644314,5004,0,-0.1267841,1.1251339,-10.657723,5004,0
270300950,-0.1146602,-0.1411873,-0.01609701,4996,0,-1.3769504,1.1450436,-8.3575115,4996,0
270325935,-0.093458265,0.0009786807,-0.019571502,4997,0,-1.0670083,0.68568367,-9.694747,4997,0
270345925,0.052997727,-0.13965514,0.00055067835,4999,0,-0.3919874,1.7270358,-9.818365,4999,0
270365912,-0.17946063,-0.07655872,-0.02203304,4996,0,-1.1016759,0.5224705,-8.033174,4996,0
270380903,-0.22793995,-0.16084279,-0.02345582,4997,0,-1.2531509,0.6784999,-10.539728,4997,0
270405888,-0.058649734,-0.11512793,-0.018795252,4997,0,-0.48522583,1.4286795,-9.010256,4997,0
270425878,-0.06510099,-0.040154897,-0.014941532,4999,0,-1.5033884,0.75903064,-8.970679,4999,0
270440868,-0.028517058,0.09087399,-0.015691541,4996,0,-1.4599494,1.1887355,-8.46984,4996,0
270465853,-0.055111006,-0.16513062,0.02218792,4994,0,-0.5457666,1.1233937,-9.633343,4994,0
270485844,-0.21135037,-0.043623302,-0.032795317,4998,0,-1.715807,0.3918129,-7.5806885,4998,0
270505831,-0.08111702,-0.18123327,-0.019649545,4999,0,-0.7521619,1.2112038,-10.470589,4999,0
270520821,-0.055076987,-0.07333486,-0.017852025,4997,0,-1.4515419,1.5759277,-7.5677876,4997,0
270545808,-0.09491638,-0.00848195,-0.0052520656,4999,0,-1.1636755,1.5238873,-10.352153,4999,0
270565795,-0.042171195,-0.052992728,-0.0041036434,4996,0,-0.52292943,0.98314565,-9.006356,4996,0
270580786,-0.19122037,0.0016744174,-0.0010901853,4997,0,-1.8345933,0.5032068,-8.610925,4997,0
270605771,-0.061814234,-0.15683828,0.037976272,4997,0,-0.3085792,1.2508968,-10.974414,4997,0
270625762,-0.19070129,-0.006574365,-0.042709023,4999,0,-2.0671465,0.6093881,-7.8786173,4999,0
270645749,-0.008010235,-0.18012916,-0.009468069,4998,0,-0.774756,1.9468206,-10.310181,4998,0
270660743,-0.100101836,-0.03184113,-0.024140393,4998,0,-1.6457521,0.64617014,-7.5097356,4998,0
270685726,0.028561609,0.0055462564,-0.017804597,4996,0,-0.98709214,2.5425508,-9.711337,4996,0
270705712,-0.15093519,-0.05240903,0.0039798194,4995,0,-1.4483006,0.56585234,-9.547929,4995,0
270720705,-0.14465341,0.11168552,-0.018257929,4998,0,-1.6620685,1.4656502,-8.149598,4998,0
270745694,-0.043746017,-0.07986289,-0.016765738,5000,0,-1.7565466,1.6469045,-8.011529,5000,0
270765679,-0.1397483,-0.1694054,-0.002624937,4998,0,-0.5574112,1.4712638,-11.695736,4998,0
270785670,-0.14166085,-0.05280124,-0.051302087,5001,0,-1.9916378,0.35040006,-7.6014247,5001,0
270800659,-0.022838596,-0.09768491,-0.012007522,4997,0,-1.4489477,2.083038,-10.939674,4997,0
270825642,-0.1246537,-0.013288958,-0.012207039,4996,0,-1.6989413,-0.09582924,-9.166678,4996,0
270845631,0.029732717,0.0072072954,0.020291792,4997,0,-0.8428284,1.8977959,-9.797471,4997,0
270860622,-0.22932348,0.024988825,-0.011820698,4997,0,-2.1763446,1.2866926,-9.1029825,4997,0
270885610,-0.14641407,-0.1588859,-0.0048528356,5000,0,-1.6010997,1.2195457,-8.814745,5000,0
270905598,-0.08285755,-0.067693144,-0.0032598223,4999,0,-0.5913299,1.4709368,-10.592028,4999,0
270925589,-0.019394653,-0.030553738,-0.054670177,5002,0,-2.6490612,0.6198529,-7.625184,5002,0
270940575,-0.00081779406,-0.07663572,0.02148361,4997,0,-0.8159689,2.4937165,-11.338337,4997,0
270965560,-0.23845847,0.0989954,0.027719755,4995,0,-0.87339437,1.3963532,-10.412862,4995,0
270985549,-0.12651585,0.025917739,-0.013444114,4997,0,-1.5510082,0.63310134,-8.13407,4997,0
271000541,-0.08093976,-0.036371738,-0.028827503,4991,0,-1.4447477,1.8624532,-9.751466,4991,0
271025526,-0.07348614,-0.09812428,-0.037370414,4997,0,-2.3685436,1.2398616,-9.045885,4997,0
271045515,0.037288275,-0.1901556,0.026234664,4999,0,-0.4148183,1.780881,-10.692321,4999,0
271065502,-0.21543737,0.13513276,0.018133549,4997,0,-1.488243,1.2511474,-8.568146,4997,0
271080493,0.09642153,-0.04058753,0.018885868,4997,0,-1.7440196,1.895247,-9.520128,4997,0
271105479,0.062663674,-0.11660052,0.009900331,4998,0,-0.7579637,2.5252512,-9.981778,4998,0
271125467,-0.23197971,-0.04517247,-0.020957986,4996,0,-1.4723499,0.74948883,-9.872148,4996,0
271140460,0.09833267,-0.16629845,-0.011342046,4999,0,-0.5757588,2.3756716,-9.877301,4999,0
271165445,-0.053005673,0.023385016,0.013462841,4999,0,-1.3113798,2.0397537,-9.235787,4999,0
271185432,-0.05861895,0.11663463,-0.029397966,4998,0,-2.2789083,1.4039682,-7.9088306,4998,0
271205420,-0.022461042,-0.010875062,0.0012020495,4997,0,-2.2993486,0.9373142,-8.608119,4997,0
271225409,0.010727585,-0.072921865,0.046587035,4997,0,-0.71188986,3.2265773,-11.513031,4997,0
271245398,-0.2215278,-0.0923963,-0.034723695,4998,0,-1.6242898,1.2958469,-10.379133,4998,0
271265387,-0.21565391,-0.07787996,-0.011759917,5000,0,-2.465322,0.03477722,-9.142213,5000,0
271280376,0.19669408,-0.076373234,-0.009019764,4996,0,-0.69431937,2.92704,-10.20812,4996,0
271305361,0.0766865,0.08839964,0.0016553134,4996,0,-0.9762412,1.9597719,-9.179295,4996,0
271325350,0.0023733974,0.1154798,-0.02996936,4992,0,-1.6478981,2.3377097,-9.222029,4992,0
271345340,-0.20055296,0.03605999,-0.017518012,5000,0,-2.8577914,0.627855,-7.2942367,5000,0
271365327,0.043553345,-0.14887536,0.01839924,4998,0,-1.7601163,2.5219119,-9.829767,4998,0
271385316,0.049246587,-0.14697492,-0.03149788,4999,0,-0.75771976,3.5681515,-9.965256,4999,0
271405303,-0.00068533083,0.023552094,-0.017708203,4997,0,-1.8328035,3.1795025,-10.367252,4997,0
271420294,0.041637473,-0.061405145,0.010461122,4996,0,-1.4558824,0.41631657,-9.857445,4996,0
271445283,0.08289923,-0.11121656,0.0060570734,5000,0,-1.3527156,1.2593874,-11.287384,5000,0
271465269,-0.024922866,-0.19560505,-0.0015530984,4999,0,-1.0327704,1.6265423,-10.845449,4999,0
271485256,-0.10389648,-0.125596,-0.009681584,4996,0,-0.66333014,2.090162,-11.082546,4996,0
271505246,-0.21623316,-0.014215843,-0.017422352,4999,0,-1.7130834,0.11993724,-8.468323,4999,0
271525233,0.01014968,0.052517053,-0.021592226,4996,0,-2.2728727,0.73197216,-9.117661,4996,0
271545221,0.03074727,0.029703936,0.01422509,4996,0,-2.386375,0.7359293,-7.9409766,4996,0
271560213,0.014014081,0.012987526,-0.020113256,4995,0,-1.6292202,2.840089,-9.541298,4995,0
271585197,-0.14741819,-0.09434169,-0.049682107,4996,0,-1.1785438,2.0485656,-9.2827,4996,0
271605186,-0.101373285,0.040765945,-0.01925462,4995,0,-1.9216764,1.7407118,-8.745405,4995,0
271625176,0.02747698,0.024131384,-0.010617209,4999,0,-2.8042474,0.4547105,-7.0694757,4999,0
271645163,0.18370023,0.0206927,0.0048879483,4998,0,-2.7785952,1.7870818,-8.89906,4998,0
271665151,0.11292091,-0.10072283,0.003817094,4995,0,-1.879493,2.5313785,-9.499822,4995,0
271685139,-0.06578017,-0.053177148,0.0012642278,4997,0,-1.0337015,3.002955,-9.429711,4997,0
271705127,-0.029352942,-0.04158123,-0.05937018,4997,0,-1.6248538,2.5457027,-8.886062,4997,0
271725116,0.00032012057,0.07826138,-0.021252135,4996,0,-2.8638418,1.9873724,-8.036749,4996,0
271745104,0.071927555,-0.050868522,0.00024501275,4998,0,-2.6527004,1.0991164,-8.333601,4998,0
271765092,0.04905503,-0.052391194,0.00826327,4991,0,-2.291367,2.2321038,-9.508853,4991,0
271785080,0.014711702,-0.13963212,-0.027722672,4995,0,-1.5864995,2.2496269,-9.183527,4995,0
271805069,0.052640617,-0.057459168,-0.016647007,4997,0,-0.75502723,3.488867,-10.188919,4997,0
271825057,0.01547281,0.06155453,-0.00871905,4994,0,-1.9339334,2.245024,-7.7886806,4994,0
271840050,-0.037686568,0.016080776,-0.009707194,4995,0,-2.406231,1.0881546,-9.766589,4995,0
271865034,-0.18840817,0.05202199,-0.03931233,4995,0,-3.0542161,1.1929102,-7.178122,4995,0
271885022,-0.029263346,-0.07373014,-0.026550554,4997,0,-2.6569202,1.0743221,-9.0710125,4997,0
271900013,0.10630815,-0.12470332,0.019854117,4995,0,-1.568015,2.4353611,-8.919947,4995,0
271924999,0.2440425,-0.09691074,-0.022186963,4997,0,-1.8424355,2.0801802,-9.462927,4997,0
271944989,0.11140576,-0.026353132,-0.00463461,4999,0,-1.5315194,2.0801256,-9.019885,4999,0
271964977,0.13883974,-0.082313314,-0.03689575,4998,0,-0.9191728,2.8250842,-10.54483,4998,0
271984963,-0.10001172,0.05861436,0.013864969,4996,0,-1.1474644,2.2689602,-8.914562,4996,0
272004952,-0.036810286,-0.0013118504,-0.017526539,4995,0,-1.0004021,2.3822954,-9.620709,4995,0
272024942,-0.18845902,0.112226546,-0.04390227,4998,0,-2.138758,1.675551,-8.500331,4998,0
272044928,-0.23754811,-0.009261894,-0.053766202,4997,0,-2.2249255,0.0890029,-8.363487,4997,0
272064917,-0.19015948,0.040834088,0.013799848,4998,0,-2.575035,0.7624163,-9.726086,4998,0
272084905,-0.11273044,-0.03750416,0.0022556712,4997,0,-2.117311,0.020129628,-8.401605,4997,0
272104893,0.15185173,-0.15054928,-0.01277656,4997,0,-1.275019,2.1388733,-11.851905,4997,0
272124883,0.023353266,-0.13379356,0.018659204,4998,0,-1.6834949,2.2611914,-10.352947,4998,0
272144870,0.19647248,-0.1567828,0.008453026,4997,0,-1.1522355,3.2225122,-10.876007,4997,0
272164858,0.115543775,-0.013804284,0.003908283,4994,0,-1.3316458,3.7027528,-10.206516,4994,0
272184846,0.069238074,-0.041130368,-0.026182998,4997,0,-1.7490184,3.5448124,-9.512337,4997,0
272204836,0.009906195,-0.0007136231,-0.05447693,4997,0,-1.4033654,3.4758883,-9.870494,4997,0
272224823,-0.23705079,0.024088709,-0.035403337,4996,0,-2.1774504,1.0858029,-6.99964,4996,0
272244812,-0.06681564,0.04444251,-0.0097401915,4998,0,-2.2603781,2.1717248,-9.035596,4998,0
272264800,-0.26280344,0.10028114,-0.0066918787,4997,0,-2.3673654,0.6197865,-7.3253775,4997,0
272284789,-0.19867648,-0.008266666,-0.05874331,4995,0,-2.0590403,0.6332893,-9.150679,4995,0
272304776,-0.31392002,0.008081822,0.011488778,4996,0,-2.7927964,0.1737968,-8.718889,4996,0
272324765,-0.058773503,-0.07755112,0.02180134,4996,0,-2.870419,0.5815432,-9.306239,4996,0
272344754,0.045080587,-0.029007863,-0.006964798,4997,0,-2.0499377,1.2315094,-10.028276,4997,0
272364741,0.031002913,-0.047846828,-0.020621024,4997,0,-2.672915,1.6172761,-8.877532,4997,0
272384730,0.17602946,-0.058623973,0.013197677,4997,0,-1.7856458,2.675905,-10.283082,4997,0
272404718,0.103331484,-0.018600537,-0.008294932,4997,0,-1.6892227,2.1145823,-8.861388,4997,0
272424707,0.16547944,-0.107502654,-0.056687016,4998,0,-1.1115297,2.0104654,-9.910059,4998,0
272444694,0.03426295,-0.026619982,0.011119093,4997,0,-0.5845024,2.8320835,-10.69614,4997,0
272464684,0.0015702324,-0.021230021,-0.011090147,4998,0,-1.0720925,1.9831218,-9.414721,4998,0
272484672,0.07816607,-0.079449855,-0.043209206,4998,0,-0.8071354,3.4374027,-11.481143,4998,0
272504660,-0.059147194,-0.0055328254,0.0064883847,4998,0,-1.3477087,3.118157,-9.0544,4998,0
272524648,0.06008361,-0.0880077,-0.019676777,4997,0,-2.0675697,4.245346,-9.639653,4997,0
272544636,-0.016365469,0.0078876335,-0.04066342,4997,0,-1.310309,3.6817987,-9.20118,4997,0
272564624,-0.138179,0.033851836,-0.025950698,4997,0,-1.5560964,2.151274,-7.8811984,4997,0
272584613,-0.0047689127,0.07463666,0.025667537,4998,0,-1.069168,3.295497,-9.887616,4998,0
272604602,-0.25258538,0.06830039,-0.032672957,4998,0,-1.8687195,2.0467327,-8.676256,4998,0
272624589,-0.10049424,-0.05125981,-0.025509268,4996,0,-1.5075057,2.672388,-10.520758,4996,0
272644577,-0.14582714,0.063022345,0.023213077,4997,0,-2.0062304,2.6646917,-8.886841,4997,0
272664565,-0.17551838,0.072750375,-0.0572685,4997,0,-2.3164465,1.2415445,-7.016933,4997,0
272684554,-0.10725483,0.09805077,-0.06502006,4997,0,-2.1315348,2.0577023,-9.049792,4997,0
272704542,-0.28749457,0.08116307,-0.0030664934,4996,0,-2.1565416,0.12261163,-7.314718,4996,0
272724530,-0.15858035,-0.01312898,-0.012220689,4996,0,-2.579199,0.6590619,-8.919274,4996,0
272744520,-0.16428137,-0.011985834,-0.054447442,4998,0,-2.1732142,1.8398885,-9.596598,4998,0
272764507,-0.17561947,0.059133437,-6.475542e-05,4996,0,-3.1584668,1.0152986,-6.774563,4996,0
272784495,-0.048688006,0.036436472,-0.031611014,4997,0,-2.781082,1.1995224,-8.091468,4997,0
272804484,-0.24317437,0.103649296,-0.06286033,4997,0,-2.197776,0.50941104,-8.00172,4997,0
272824472,-0.29376128,0.004818093,0.013359299,4996,0,-2.9799383,0.26117876,-8.0558,4996,0
272844460,-0.15572108,0.0040622554,-0.021232234,4997,0,-1.734118,1.3740158,-9.564198,4997,0
272864450,-0.19320302,0.07485123,-0.046815947,4999,0,-3.0829053,1.4987892,-7.566104,4999,0
272884437,-0.10962625,0.033452243,-0.0021246192,4997,0,-2.4648366,1.113421,-7.193114,4997,0
272904426,-0.21020418,0.15910645,-0.04761567,4997,0,-2.280152,1.9823029,-8.296121,4997,0
272924415,-0.35363486,0.07046557,-0.02704304,4997,0,-1.9481012,0.43985188,-7.4795194,4997,0
272944402,-0.19650568,0.020344205,0.0063842875,4998,0,-1.649805,1.8951933,-10.126864,4998,0
272964390,-0.28330988,0.06105078,-0.048844595,4997,0,-3.0537078,1.3944894,-8.55001,4997,0
272984378,-0.13683863,0.050069626,-0.0207418,4996,0,-2.4901743,0.77821225,-7.0143023,4996,0
273004367,-0.06468426,0.09878373,-0.03588495,4998,0,-2.184149,2.0018275,-8.597601,4998,0
273024355,-0.30886358,0.10049373,-0.05086741,4997,0,-2.4208066,-0.13918225,-7.1728225,4997,0
273044343,-0.20275374,0.025070209,0.007732025,4997,0,-2.419365,0.2652029,-8.732389,4997,0
273064332,-0.14296356,0.022204397,-0.042781867,4997,0,-2.3725457,1.6094058,-9.830694,4997,0
273084320,-0.17634062,0.075646766,-0.039764013,4997,0,-3.1647727,1.1857347,-6.889677,4997,0
273104308,-0.13875677,-0.009104225,-0.0017536498,4997,0,-2.479011,1.3690137,-7.768135,4997,0
273124296,-0.2682628,0.06797209,-0.08083488,4997,0,-1.4228102,1.5497133,-8.746813,4997,0
273144288,-0.29651627,0.009024977,0.014448124,5001,0,-2.269678,1.2203044,-8.377176,5001,0
273164279,-0.054142624,-0.016977008,-0.0014014632,5003,0,-1.2939322,2.9965286,-10.48521,5003,0
273184262,-0.08560816,0.08056508,-0.059322517,4998,0,-2.1407452,2.994312,-8.5686,4998,0
273204249,-0.121063836,0.013675284,0.018526899,4997,0,-1.8338252,2.19344,-7.488098,4997,0
273224238,-0.026420882,0.012656161,-0.060980406,4997,0,-1.0508734,3.0363486,-10.249611,4997,0
273244226,-0.22688374,0.04322334,0.019137094,4997,0,-1.2003628,2.5082352,-8.936294,4997,0
273264214,0.01424272,-0.053702295,-0.0045028348,4995,0,-1.1313965,3.2175937,-10.487974,4995,0
273284202,0.14344256,-0.010866378,-0.060538407,4997,0,-1.3643394,4.697195,-10.651101,4997,0
273304191,-0.051406655,0.02338133,0.028380746,4997,0,-1.0959567,2.8838289,-8.381863,4997,0
273324179,0.030871823,-0.10847421,-0.036020443,4997,0,-1.1705024,2.412867,-10.097731,4997,0
273344168,0.107477814,-0.08886325,0.003975583,4998,0,-0.94004583,4.3610473,-11.795484,4998,0
273364156,0.12131032,-0.019154057,0.005306628,4997,0,-2.0584564,3.8087754,-10.0012045,4997,0
273384145,0.2606889,-0.06511676,-0.032039758,4998,0,-1.5896106,2.6327682,-9.617741,4998,0
273404133,0.23209041,-0.120086245,0.008178087,4998,0,-1.3692917,2.8644416,-12.076766,4998,0
273424121,0.054659616,-0.12138354,-0.0070963106,4997,0,-1.9911661,1.7679251,-10.490991,4997,0
273444109,0.18519157,-0.12924038,0.014624586,4997,0,-2.9253416,1.9994568,-10.132368,4997,0
273464097,0.11702859,-0.0029861615,-0.06570044,4996,0,-2.8394866,1.6316596,-9.625231,4996,0
273484087,-0.16042306,0.0903529,0.01950227,4999,0,-2.9140255,-0.48488992,-7.8044744,4999,0
273504073,-0.12295787,-0.008700428,-0.018016366,4996,0,-2.8060696,0.044414796,-9.36207,4996,0
273524061,-0.1612298,-0.0032262478,-0.05106021,4990,0,-2.6886294,1.4085841,-9.183498,4990,0
273544050,-0.21991912,0.07916925,0.02552077,4995,0,-3.3455136,0.7791172,-6.578055,4995,0
273564044,-0.13650739,0.038580514,-0.0840945,5002,0,-2.3505569,0.52889967,-8.032858,5002,0
273584029,-0.2282219,0.0839475,-0.00753774,4998,0,-2.222146,1.0607393,-9.072676,4998,0
273604020,-0.30591172,0.051209074,-0.009603077,5002,0,-2.2936766,0.9227092,-7.8945804,5002,0
273624006,-0.17072862,-0.0312806,-0.07319537,4999,0,-2.415746,1.3799876,-7.7064877,4999,0
273643992,-0.07686521,0.037986513,-0.008399509,4997,0,-1.6652629,2.4975603,-8.334503,4997,0
273663983,-0.24929912,0.05016112,-0.062062435,5000,0,-2.004474,1.3982635,-7.5342574,5000,0
273683968,-0.10233438,-0.059010763,-0.019247424,4997,0,-0.9780855,1.8097723,-10.069358,4997,0
273703956,0.061514445,-0.018893303,-0.0062235673,4996,0,-1.2238772,4.127559,-10.6416855,4996,0
273723945,0.0255508,-0.034983855,-0.05163333,4995,0,-1.955534,3.6099994,-9.017221,4995,0
273743934,0.16953938,-0.13005568,0.0050611976,4997,0,-0.76780885,2.9100356,-10.299745,4997,0
273763921,0.1623281,-0.072671875,0.009416869,4997,0,-1.4391845,3.556188,-11.999352,4997,0
273783910,0.087618075,-0.0820648,-0.019073455,4997,0,-2.5310266,2.7137175,-10.142106,4997,0
273803899,0.27039623,-0.056730162,0.01943115,4997,0,-2.299,2.9823263,-10.416273,4997,0
273823889,0.14925148,0.018756317,-0.0031694816,4998,0,-2.7931807,2.1929536,-9.851542,4998,0
273843875,-0.11753873,-0.034199186,-0.0139207775,4998,0,-2.4577944,-0.29086342,-8.5761795,4998,0
273863863,0.10371813,-0.08293511,0.031936403,4997,0,-2.6880002,1.0846353,-10.196241,4997,0
273883851,0.05318197,0.030836988,-0.021646487,4997,0,-3.3892527,2.0890398,-8.916802,4997,0
273903840,-0.17885281,0.059890278,-0.039915428,4997,0,-2.6503766,-0.35513955,-7.1083117,4997,0
273923828,-0.124703445,0.02663845,-0.0021490806,4997,0,-2.5332232,-0.21538955,-8.707831,4997,0
273943817,-0.1753778,0.024001792,-0.024275057,4997,0,-2.5092423,1.1218842,-9.652202,4997,0
273963805,-0.24664041,0.034141332,-0.035485048,4998,0,-3.1719062,0.924257,-6.540751,4998,0
273983794,-0.124248035,0.008576941,-0.014082544,4998,0,-1.6050303,0.9924909,-7.708751,4998,0
274003781,-0.15113649,0.019708483,-0.042437077,4996,0,-1.111959,2.3417206,-9.90716,4996,0
274023776,-0.14442752,0.013205025,0.0065180915,5003,0,-1.8072625,3.0173569,-8.887373,5003,0
274043758,0.19904548,-0.03761942,0.0051044994,4996,0,-1.4954679,4.5695157,-10.330781,4996,0
274063746,0.14908382,-0.02501937,-0.042870414,4997,0,-1.331162,3.9997094,-11.340722,4997,0
274083735,0.0263934,-0.06445047,0.05236274,4998,0,-1.6988264,2.0609899,-10.312205,4998,0
274103723,0.22849372,-0.118024185,-0.014382916,4998,0,-2.5293667,2.831565,-11.058138,4998,0
274123712,0.20080814,-0.015954204,-0.029098565,4999,0,-2.3483574,3.2510662,-10.396713,4999,0
274143700,-0.13674401,0.07255956,0.0336902,4998,0,-2.5921495,-0.08465653,-7.832948,4998,0
274163688,-0.097229026,-0.011963355,-0.043660525,4998,0,-3.0961173,0.025191618,-9.326019,4998,0
274183678,-0.015211918,-0.020455623,0.009843106,4999,0,-2.8506644,1.2776774,-10.040722,4999,0
274203664,-0.13084473,0.073962115,-0.010965529,4996,0,-3.171462,0.6105682,-7.056996,4996,0
274223653,-0.12860543,0.029211644,-0.060818285,4997,0,-2.5367491,-0.6004861,-7.37736,4997,0
274243641,-0.22413026,0.011812944,0.017601673,4998,0,-1.9004748,0.8763272,-9.887484,4998,0
274263629,-0.25030226,0.07909087,-0.05096435,4998,0,-1.8815442,2.8420086,-8.329993,4998,0
274283618,-0.06383189,0.028969755,-0.010087643,4996,0,-1.842037,3.0311515,-7.9797688,4996,0
274303605,0.11929612,-0.056622356,-0.0071578287,4997,0,-0.9671306,3.9461467,-11.193318,4997,0
274323593,-0.013049015,-0.034511816,-0.017320111,4996,0,-1.0999483,3.4684675,-10.524815,4996,0
274343582,0.170113,-0.0508282,0.02510991,4995,0,-2.7656004,3.7831628,-9.862245,4995,0
274363570,0.25218597,-0.057279658,-0.036117483,4997,0,-2.0435715,3.8433847,-10.995586,4997,0
274383558,-0.0020993655,0.0133896535,0.011754061,4997,0,-2.2165802,1.0905533,-9.649905,4997,0
274403546,-0.049834196,0.0070906114,0.012334478,4997,0,-2.7916565,0.32177308,-8.892299,4997,0
274423535,0.1030531,-0.06610607,-0.04601755,4996,0,-2.9973893,1.6194344,-10.624177,4996,0
274443523,-0.006754222,0.07199935,0.017577969,4995,0,-2.794397,0.89179003,-7.8251834,4995,0
274463511,-0.21594179,0.055022936,-0.03163021,4995,0,-2.7754395,-1.0032119,-7.0805697,4995,0
274483500,-0.2336031,-0.027642986,-0.04560743,4997,0,-2.7478817,-0.08461806,-8.979952,4997,0
274503488,-0.16218117,0.045165744,0.015608669,4997,0,-2.0065415,2.0212686,-8.812856,4997,0
274523476,-0.16190101,0.07917775,-0.076058656,4995,0,-2.1461337,2.485201,-6.8656135,4995,0
274543465,-0.04811063,-0.060778953,-0.01653869,4998,0,-0.76650196,2.4333239,-9.589425,4998,0
274563453,0.11137437,-0.09974169,0.011214216,4996,0,-1.1264495,4.2439857,-11.967697,4996,0
274583443,0.17447299,-0.038251683,-0.050667778,4999,0,-2.4763913,4.2521877,-10.131497,4999,0
274603429,0.1417887,-0.031825025,0.024253186,4996,0,-2.5795546,1.6729332,-9.213349,4996,0
274623417,0.06821686,-0.041593518,-0.006487643,4995,0,-2.592425,0.2880365,-10.67541,4995,0
274643406,-0.15877399,0.048705358,-0.039689187,4997,0,-3.1635058,0.64565134,-8.828416,4997,0
274663395,-0.20010507,0.06323701,0.023588104,4997,0,-3.291047,0.45502532,-6.937041,4997,0
274683382,-0.1715094,0.021612592,-0.046226963,4997,0,-1.8070858,0.43257025,-8.199119,4997,0
274708368,0.19041109,-0.11033913,-0.045816008,4997,0,-1.5435159,5.202152,-11.458511,4997,0
274723360,-0.13993627,0.04033105,0.04019503,4992,0,-2.309024,3.6133819,-8.373311,4992,0
274743347,0.10557133,-0.0440732,-0.032962646,4997,0,-1.437364,4.327953,-9.320979,4997,0
274763336,0.19249824,-0.08091247,-0.05452192,4996,0,-0.9189915,3.6000438,-11.443994,4996,0
274783328,0.13429667,-0.058395643,0.058046184,4997,0,-2.0959682,3.5127802,-10.983879,4997,0
274803314,0.15348424,-0.05487636,-0.019492308,4993,0,-3.374107,1.951867,-9.067516,4993,0
274823301,0.21504407,-0.063829854,-0.05911739,4998,0,-2.8806214,1.130558,-9.651306,4998,0
274848286,-0.08882595,-0.022120375,0.0102051115,4997,0,-2.000883,2.8567863,-9.706871,4997,0
274863277,-0.29831487,0.05958264,-0.025205133,4997,0,-2.9918513,0.1505254,-7.5041614,4997,0
274883266,-0.15490574,0.0057758805,-0.071552426,4997,0,-2.00969,1.8434184,-7.6594906,4997,0
274903254,-0.038551774,0.06840308,0.018000085,4997,0,-1.2634293,3.451407,-9.438532,4997,0
274923243,-0.10954204,0.019433014,-0.014073317,4997,0,-1.7076844,3.2070086,-9.498326,4997,0
274943230,0.104265414,-0.11801797,-0.03351161,4994,0,-1.5894138,4.0042124,-10.392919,4994,0
274963220,0.34013316,-0.08344891,0.035646927,4997,0,-1.9373612,4.904575,-10.829755,4997,0
274983208,0.2426729,-0.031400204,-0.0324997,4998,0,-2.0373642,3.0373368,-10.785381,4998,0
275003195,-0.030750291,-0.043297894,0.025071986,4997,0,-2.9969285,0.6541566,-9.238539,4997,0
275023188,0.041437827,-0.066848904,-0.017476926,5002,0,-3.060835,0.9572618,-9.93011,5002,0
275043172,0.0107702715,0.029539913,-0.026379786,4997,0,-3.0820582,1.2531365,-8.647257,4997,0
275063160,-0.2294208,0.088342406,0.008719039,4997,0,-2.72082,-0.06163047,-7.416748,4997,0
275083148,-0.24898547,0.034237012,-0.058810234,4997,0,-2.0834746,0.07506684,-7.7797832,4997,0
275103136,0.012855627,0.027342929,0.012908629,4996,0,-1.6951562,3.8587606,-9.842435,4996,0
275128122,0.17062828,-0.048641093,-0.02008347,4997,0,-1.9201756,2.2898595,-11.734351,4997,0
275143115,-0.014254169,-0.070039585,-0.010314595,4999,0,-1.5714574,2.6591225,-9.819345,4999,0
275163102,0.25991225,-0.13896787,0.045314047,4995,0,-1.9664832,3.4862082,-11.9521885,4995,0
275183089,0.35773528,-0.027391149,-0.045535207,4996,0,-2.9324183,3.8067229,-11.286252,4996,0
275203078,0.027135536,0.1332935,-0.0019444984,4997,0,-3.1826212,0.4867971,-7.8611164,4997,0
275223066,-0.23509622,0.057754625,-0.010889781,4997,0,-2.4729857,-1.0796026,-8.049298,4997,0
275243056,-0.17527208,0.02045742,-0.034334447,4999,0,-2.4743657,2.263442,-9.4023695,4999,0
275268040,0.30430257,-0.024933128,0.0006285461,4995,0,-1.2792407,3.8177893,-11.933663,4995,0
275283032,0.06481618,0.11853605,-0.022866948,4998,0,-1.5909216,3.1540828,-8.572285,4998,0
275303020,0.26250872,0.035250098,0.035642352,4998,0,-1.5849782,2.5479693,-10.8068,4998,0
275323008,0.31969815,0.018084858,-0.021519016,4996,0,-2.9893935,3.0874922,-11.647079,4996,0
275342998,-0.008418136,0.083081566,0.02084792,4998,0,-2.6977317,0.66343635,-9.227979,4998,0
275362988,-0.26499245,0.13391913,0.017200653,5001,0,-2.6531181,-0.40873027,-8.202354,5001,0
275382973,-0.086659476,0.1451445,-0.036551785,4996,0,-2.6687617,1.3920896,-7.4687214,4996,0
275407958,0.20488918,0.040445585,0.017992739,4997,0,-2.5726635,1.5640785,-10.299249,4997,0
275422949,0.2692287,0.016201125,-0.013021688,4996,0,-1.8447869,3.6532633,-12.682957,4996,0
275442938,0.17368335,0.10183842,0.049208768,4995,0,-3.437433,2.6225638,-10.982209,4995,0
275462926,-0.019323582,0.18991289,-0.0019113502,4997,0,-3.2442145,0.26160687,-7.4521484,4997,0
275482914,-0.10519992,0.123859696,-0.022865389,4997,0,-2.0737615,-0.4947572,-8.089779,4997,0
275502902,0.03944917,0.019904252,0.018576756,4996,0,-1.2608794,3.2941024,-10.779424,4996,0
275522891,0.27986223,0.052103322,-0.009420892,4997,0,-2.166757,5.6295633,-11.4890785,4997,0
275547878,0.026522888,0.23080468,0.063338295,4999,0,-3.1179192,0.5742958,-9.697053,4999,0
275562874,0.09746521,0.21352373,0.032864098,5004,0,-3.5438871,-0.33657512,-9.076643,5004,0
275582856,0.072077915,0.15635207,-0.03573296,4998,0,-3.1514237,0.5328271,-9.131711,4998,0
275602844,-0.055459403,0.15855917,0.032021917,4997,0,-1.6439201,1.1997808,-8.3918295,4997,0
275622832,-0.08180631,0.17805065,0.009118125,4995,0,-1.8384454,2.4378424,-8.925403,4995,0
275642820,0.08830673,0.14060803,-0.013624075,4996,0,-2.170924,4.061301,-9.813029,4996,0
275662809,0.40339676,0.088592485,0.053096566,4998,0,-2.599353,4.364952,-10.226732,4998,0
275687796,-0.08664444,0.14547098,-0.029453158,4999,0,-3.2336063,-0.49447352,-8.9160595,4999,0
275702785,0.02341508,0.14712706,0.029788464,4997,0,-2.5343497,0.4628736,-10.528033,4997,0
275722773,-0.13237095,0.26030123,0.05089472,4991,0,-3.215532,0.6523995,-7.5613093,4991,0
275742762,-0.08457853,0.20686054,-0.048528515,4996,0,-2.9172368,1.6306052,-6.959616,4996,0
275762750,0.035720613,0.1399186,0.02370535,4997,0,-1.3696291,2.4628296,-9.578412,4997,0
275782738,0.17844108,0.10203254,0.020431131,4996,0,-1.5202297,4.537033,-12.207478,4996,0
275802727,0.28388035,0.12097243,-0.007675849,4996,0,-2.2055807,4.7093515,-11.290748,4996,0
275827712,-0.18259071,0.22530472,0.024318207,4997,0,-2.3025205,0.25039765,-9.3933,4997,0
275842704,0.023405407,0.13985188,-0.018484551,4998,0,-2.9759316,-0.5949013,-8.651962,4998,0
275862695,0.025652837,0.11731033,0.0061114943,4998,0,-3.117414,0.359078,-9.665177,4998,0
275887677,0.28946117,0.05996038,-0.006370411,4997,0,-1.0749873,3.7037807,-10.303102,4997,0
275902669,0.07141283,0.13397023,-0.015232611,4998,0,-0.8890194,3.671591,-10.21177,4998,0
275922658,0.08191781,0.060502153,0.04198962,4997,0,-1.8498636,3.3204353,-10.640046,4997,0
275942645,0.29488474,0.093158685,-0.004263895,4996,0,-2.6621752,2.8527727,-9.717926,4996,0
275967630,-0.13349986,0.20466596,0.019737402,4994,0,-2.2818534,0.04033002,-8.059932,4994,0
275982622,0.04164843,0.16440395,-0.053709913,4998,0,-2.499852,-0.467461,-9.861714,4998,0
276002609,-0.1374818,0.17860857,0.022398261,4993,0,-1.6575645,2.3034708,-9.947013,4993,0
276027595,0.2570553,0.040754583,-0.004769427,4996,0,-0.9681982,3.0676174,-11.557303,4996,0
276042587,0.037456814,0.06769863,0.007803499,4998,0,-0.801381,3.0533366,-8.476148,4998,0
276062575,0.2883636,-0.01790386,0.0042296126,4998,0,-1.4348443,2.9395852,-11.669423,4998,0
276082563,0.40002564,0.062006176,0.019152451,4996,0,-1.8907336,3.4269457,-12.854976,4996,0
276107548,0.019412471,0.24068333,-0.05943671,4997,0,-2.5360992,0.82320464,-8.572145,4997,0
276122539,0.06539827,0.16020946,-0.0021781758,4994,0,-3.344703,0.060627956,-7.9671164,4994,0
276142527,-0.013804433,0.09790124,-0.01927628,4996,0,-1.824059,-0.6245411,-8.499173,4996,0
276167516,0.18686196,0.07047656,-0.030980457,5000,0,-1.0530757,4.1021523,-10.616371,5000,0
276182504,-0.082827955,0.24751976,0.03427305,4997,0,-1.9364609,2.0119941,-9.253705,4997,0
276202492,0.0029175943,0.20045269,-0.06413371,4996,0,-0.92568403,2.8041968,-8.158982,4996,0
276222481,0.3054847,0.09125304,0.015949914,4997,0,-1.23742,3.9244812,-10.524857,4997,0
276247473,0.2643037,0.045885712,-0.019480906,5004,0,-2.4322102,0.66590565,-11.869819,5004,0
276262459,0.2501625,0.09770994,0.011155004,4997,0,-1.5710981,1.3327479,-10.282414,4997,0
276282445,0.2853098,0.06494243,-0.019248137,4997,0,-1.791779,0.15772548,-10.587948,4997,0
276307431,0.04029211,0.16364017,-0.022433188,4997,0,-1.9853395,1.1068522,-8.341266,4997,0
276322422,0.01948829,0.17251998,-0.019208241,4997,0,-2.7879055,0.1491145,-8.37469,4997,0
276342410,0.013322885,0.08125345,-0.0138998,4996,0,-2.2124681,0.024827646,-8.13194,4996,0
276362399,0.030684099,0.12803385,-0.05705375,4996,0,-2.5164897,0.5908767,-8.59885,4996,0
276387385,0.041810054,0.26033527,0.005330613,4998,0,-1.1235795,2.5765243,-8.95283,4998,0
276402376,0.059578005,0.25047952,-0.05437942,4998,0,-2.2215965,0.18337588,-7.4443903,4998,0
276422365,-0.03522793,0.2918063,-0.07431715,4997,0,-1.4871712,0.63130194,-8.385814,4997,0
276447349,-0.12144225,0.126553,0.005244875,4997,0,-0.6543156,1.991699,-9.171627,4997,0
276462344,-0.08443568,0.11529686,-0.067306526,5001,0,-1.4063822,0.10550613,-8.923995,5001,0
276482328,-0.07488148,0.2414147,-0.027213225,4997,0,-1.2115011,0.39065188,-8.382088,4997,0
276502317,-0.07439849,0.20111665,-0.06192887,4997,0,-1.5259686,-0.55614626,-7.6924086,4997,0
276527302,0.22692412,0.0914371,-0.0049594375,4997,0,-0.07851216,2.9651914,-11.419237,4997,0
276542293,-0.16832128,0.26064047,-0.043492235,4997,0,-1.095457,0.2344814,-7.770704,4997,0
276562282,0.003348305,0.20838396,-0.025905931,4995,0,-0.74748653,0.47620532,-9.15451,4995,0
276587266,0.23289563,0.13132696,-0.025142357,4996,0,-0.2751349,2.523925,-11.451497,4996,0
276602259,-0.110115044,0.20117962,-0.028988738,4998,0,-1.4749268,-0.18612352,-7.7562757,4998,0
276622246,-0.11264847,0.18423589,-0.06618207,4997,0,0.12661855,0.5746023,-9.621899,4997,0
276642235,-0.21944581,0.21182604,-0.030086774,4996,0,-1.2977139,-0.31351122,-7.5158386,4996,0
276662223,-0.049566463,0.17130108,-0.09245551,4997,0,-0.9355333,-0.23761255,-8.609126,4997,0
276682211,-0.041312356,0.2764779,-0.043677505,4997,0,-1.6349552,-0.061349202,-8.068561,4997,0
276702199,0.02379206,0.18025531,-0.08257039,4997,0,-1.5645045,-1.0274172,-7.430314,4997,0
276727185,0.079117455,0.191393,-0.032456577,4996,0,0.014075226,1.1738516,-9.379541,4996,0
276742176,0.005232204,0.2625219,-0.06580263,4995,0,-1.8329524,-0.5414168,-7.2104397,4995,0
276762166,0.23937128,0.22080839,-0.0011058894,4999,0,-1.5158644,-0.082112916,-10.0846,4999,0
276782153,0.109906845,0.22467169,-0.04213387,4998,0,-0.84301406,-0.66199666,-9.397257,4998,0
276807138,0.115095824,0.100199685,-0.017135756,4997,0,-0.87778944,-0.61129117,-8.59054,4997,0
276822130,0.14941609,0.07075989,0.012518847,4998,0,0.6888084,1.1898586,-10.88829,4998,0
276842117,0.15538496,0.05571059,-0.026143633,4997,0,0.7902111,0.97740525,-10.320807,4997,0
276867104,0.28108615,0.116365865,-0.032059003,4997,0,0.8052222,1.4064476,-11.412844,4997,0
276882095,0.106521696,0.24433517,-0.05843748,4998,0,-0.8187682,0.33836094,-7.219623,4998,0
276902084,0.07851213,0.23906389,-0.039596483,4997,0,-1.8123813,0.10486257,-8.364767,4997,0
276922072,0.195476,0.055312507,-0.01819607,4999,0,-0.36182168,-0.24235067,-9.975384,4999,0
276947056,0.14473535,0.06964024,-0.0036345597,4997,0,-0.41634998,0.039444942,-10.11092,4997,0
276962048,0.18099935,0.08882525,-0.058157675,4998,0,1.0393113,0.89799666,-10.062598,4998,0
276982036,-0.028116068,0.21464948,-0.027896913,4996,0,-0.7638153,-0.38904545,-6.7176423,4996,0
277007023,0.07576249,0.2073797,-0.09501662,4999,0,-0.22371872,0.035124235,-7.214774,4999,0
277022013,0.099975504,0.08468577,0.004677242,4998,0,-0.043636262,-0.5938795,-9.765329,4998,0
277042001,0.18374148,0.12788062,0.0032110377,4998,0,0.37509444,1.1373065,-10.589822,4998,0
