timestamp,ref_timestamp,ref_lat,ref_lon,x,y,z,delta_xy[0],delta_xy[1],delta_z,vx,vy,vz,z_deriv,delta_vxy[0],delta_vxy[1],delta_vz,ax,ay,az,heading,delta_heading,ref_alt,dist_bottom,eph,epv,evh,evv,vxy_max,vz_max,hagl_min,hagl_max,xy_valid,z_valid,v_xy_valid,v_z_valid,xy_reset_counter,z_reset_counter,vxy_reset_counter,vz_reset_counter,heading_reset_counter,xy_global,z_global,dist_bottom_valid
264139557,0,0.0,0.0,1.0054537,1.0181901,-0.07835013,0.99629486,0.96039945,0.1916022,-0.00378092,0.0009773797,-0.0022921204,-0.002309155,0.00013149405,4.7837002e-05,-0.019051775,0.024838498,-0.020954888,-0.012923379,1.536735,0.38115078,0.0,0.100503154,0.035318222,0.01658548,0.05985293,0.03214709,inf,inf,inf,inf,1,1,1,1,2,1,1,1,3,0,0,1
264149551,0,0.0,0.0,1.0054495,1.0181984,-0.07836778,0.99629486,0.96039945,0.1916022,-0.0039032027,0.0009924568,-0.0023685899,-0.0023794072,0.00013149405,4.7837002e-05,-0.019051775,-0.040626552,0.01727522,-0.0028508208,1.5367448,0.38115078,0.0,0.100520805,0.03468782,0.016585482,0.05920634,0.032147095,inf,inf,inf,inf,1,1,1,1,2,1,1,1,3,0,0,1
264159545,0,0.0,0.0,1.0054433,1.018206,-0.078385234,0.99629486,0.96039945,0.1916022,-0.0038827227,0.0007849002,-0.0023400607,-0.0023444644,0.00013149405,4.7837002e-05,-0.019051775,0.008945683,-0.023298465,0.0027192945,1.5367459,0.38115078,0.0,0.10053826,0.035141934,0.016585482,0.05965976,0.0321471,inf,inf,inf,inf,1,1,1,1,2,1,1,1,3,0,0,1
264179533,0,0.0,0.0,1.0054348,1.0182222,-0.07841991,0.99629486,0.96039945,0.1916022,-0.003667067,0.00094702665,-0.002382302,-0.0023733568,0.00013149405,4.7837002e-05,-0.019051775,0.035076857,0.0012245752,-0.0021774194,1.5367385,0.38115078,0.0,0.100572936,0.034976114,0.016585484,0.059507433,0.032147106,inf,inf,inf,inf,1,1,1,1,2,1,1,1,3,0,0,1
264199522,0,0.0,0.0,1.005432,1.0182405,-0.07845651,0.99629486,0.96039945,0.1916022,-0.0035937172,0.0008276659,-0.002703264,-0.0026802921,0.00013149405,4.7837002e-05,-0.019051775,0.029833047,-0.046603218,-0.0120457895,1.536728,0.38115078,0.0,0.10060954,0.034820214,0.016585486,0.05939399,0.032147117,inf,inf,inf,inf,1,1,1,1,2,1,1,1,3,0,0,1
264219510,0,0.0,0.0,1.0054243,1.0182604,-0.07849363,0.99629486,0.96039945,0.1916022,-0.0036404224,0.0011234666,-0.002614052,-0.0025758415,0.00013149405,4.7837002e-05,-0.019051775,-0.13855399,-0.038760897,-0.018628757,1.5367029,0.38115078,0.0,0.10064666,0.034673765,0.016585488,0.059318624,0.03214713,inf,inf,inf,inf,1,1,1,1,2,1,1,1,3,0,0,1
264239498,0,0.0,0.0,1.0054258,1.0182836,-0.078527935,0.99629486,0.96039945,0.1916022,-0.003490476,0.0009999535,-0.0027275989,-0.0026734355,0.00013149405,4.7837002e-05,-0.019051775,0.04234466,0.019747794,-0.048275243,1.5367526,0.38115078,0.0,0.10068096,0.03453635,0.01658549,0.059278995,0.032147143,inf,inf,inf,inf,1,1,1,1,2,1,1,1,3,0,0,1
264259487,0,0.0,0.0,1.0054293,1.018309,-0.0785641,0.99629486,0.96039945,0.1916022,-0.004024992,0.0012127131,-0.0025273783,-0.0024567388,0.00013149405,4.7837002e-05,-0.019051775,-0.008192513,-0.11183594,0.059832707,1.5367495,0.38115078,0.0,0.10071713,0.03440763,0.016585492,0.059272993,0.03214716,inf,inf,inf,inf,1,1,1,1,2,1,1,1,3,0,0,1
264279474,0,0.0,0.0,1.0054315,1.0183218,-0.07858822,0.99629486,0.96039945,0.1916022,-0.0039584986,0.0006208767,-0.0019599898,-0.0018718564,0.00013149405,4.7837002e-05,-0.019051775,-0.15598808,0.021526273,0.0343865,1.5366844,0.38115078,0.0,0.100741245,0.034287278,0.016585493,0.05929915,0.032147177,inf,inf,inf,inf,1,1,1,1,2,1,1,1,3,0,0,1
264299463,0,0.0,0.0,1.005434,1.0183355,-0.07861534,0.99629486,0.96039945,0.1916022,-0.0033699782,0.0012147175,-0.00298411,-0.0028778042,0.00013149405,4.7837002e-05,-0.019051775,-0.058113422,0.07785907,-0.013902092,1.536759,0.38115078,0.0,0.100768365,0.034175023,0.016585495,0.059355557,0.032147195,inf,inf,inf,inf,1,1,1,1,2,1,1,1,3,0,0,1
264319453,0,0.0,0.0,1.005441,1.0183495,-0.07863754,0.99629486,0.96039945,0.1916022,-0.0031904366,0.0003734491,-0.002472499,-0.0023475396,0.00013149405,4.7837002e-05,-0.019051775,0.07110504,0.016938027,-0.054933775,1.5366827,0.38115078,0.0,0.10079057,0.034070626,0.016585497,0.05944055,0.032147206,inf,inf,inf,inf,1,1,1,1,2,1,1,1,3,0,0,1
264339440,0,0.0,0.0,1.0054579,1.0183604,-0.07867369,0.99629486,0.96039945,0.1916022,-0.0041602026,8.72089e-05,-0.0028408403,-0.0026968108,0.00013149405,4.7837002e-05,-0.019051775,-0.21704412,-0.16591963,0.14695801,1.5367203,0.38115078,0.0,0.10082672,0.033973876,0.016585497,0.059552103,0.032147218,inf,inf,inf,inf,1,1,1,1,2,1,1,1,3,0,0,1
264359428,0,0.0,0.0,1.0054694,1.0183735,-0.07870086,0.99629486,0.96039945,0.1916022,-0.0030072911,0.0014735254,-0.0035809954,-0.0034170288,0.00013149405,4.7837002e-05,-0.019051775,-0.0263998,0.1111248,-0.24802372,1.5366749,0.38115078,0.0,0.10085389,0.033884577,0.016585497,0.059688646,0.032147232,inf,inf,inf,inf,1,1,1,1,2,1,1,1,3,0,0,1
264379416,0,0.0,0.0,1.0054934,1.0183886,-0.078730896,0.99629486,0.96039945,0.1916022,-0.002315773,0.0007173728,-0.0032988046,-0.003114432,0.00013149405,4.7837002e-05,-0.019051775,0.019064566,0.01486999,-0.23346922,1.5366771,0.38115078,0.0,0.10088392,0.033802554,0.016585499,0.059848268,0.032147232,inf,inf,inf,inf,1,1,1,1,2,1,1,1,3,0,0,1
264399405,0,0.0,0.0,1.0055053,1.0184039,-0.07875713,0.99629486,0.96039945,0.1916022,-0.0036535845,0.0014516406,-0.0026032464,-0.0023981645,0.00013149405,4.7837002e-05,-0.019051775,0.059657298,0.10113238,-0.057760786,1.5367061,0.38115078,0.0,0.10091016,0.03372764,0.0165855,0.0600274,0.032147273,inf,inf,inf,inf,1,1,1,1,2,1,1,1,3,0,0,1
264419394,0,0.0,0.0,1.005533,1.0184306,-0.07878294,0.99629486,0.96039945,0.1916022,-0.0019582368,0.00075902056,-0.0025441665,-0.002318088,0.00013149405,4.7837002e-05,-0.019051775,0.026637614,-0.08643526,-0.03564334,1.5366784,0.38115078,0.0,0.100935966,0.033659663,0.016585505,0.06022781,0.032147296,inf,inf,inf,inf,1,1,1,1,2,1,1,1,3,0,0,1
264439381,0,0.0,0.0,1.0055517,1.0184478,-0.078802444,0.99629486,0.96039945,0.1916022,-0.0037565466,0.0015411815,-0.002283145,-0.0020357482,0.00013149405,4.7837002e-05,-0.019051775,0.06842385,0.073690005,0.004097999,1.5366834,0.38115078,0.0,0.10095547,0.03359849,0.016585508,0.06044363,0.03214731,inf,inf,inf,inf,1,1,1,1,2,1,1,1,3,0,0,1
264459369,0,0.0,0.0,1.0055772,1.0184702,-0.078821495,0.99629486,0.96039945,0.1916022,-0.0029045127,0.00063067075,-0.0026427198,-0.0023736826,0.00013149405,4.7837002e-05,-0.019051775,-0.097560264,-0.10012605,0.0035506992,1.5367111,0.38115078,0.0,0.10097452,0.033543948,0.016585512,0.060677648,0.03214733,inf,inf,inf,inf,1,1,1,1,2,1,1,1,3,0,0,1
264479358,0,0.0,0.0,1.0056084,1.0184858,-0.07883286,0.99629486,0.96039945,0.1916022,-0.0024662877,0.001008801,-0.0023215192,-0.0020305614,0.00013149405,4.7837002e-05,-0.019051775,0.0006654415,0.012397234,-0.03995615,1.5366207,0.38115078,0.0,0.100985885,0.033495933,0.016585514,0.060923167,0.03214735,inf,inf,inf,inf,1,1,1,1,2,1,1,1,3,0,0,1
264499346,0,0.0,0.0,1.005629,1.0184977,-0.078842916,0.99629486,0.96039945,0.1916022,-0.0027345303,0.0008968492,-0.0019712632,-0.0016581592,0.00013149405,4.7837002e-05,-0.019051775,-0.004189686,-0.048120428,0.0078039058,1.5367095,0.38115078,0.0,0.10099594,0.033429395,0.016585516,0.06113978,0.032147385,inf,inf,inf,inf,1,1,1,1,2,1,1,1,3,0,0,1
264519335,0,0.0,0.0,1.0056534,1.018506,-0.078847416,0.99629486,0.96039945,0.1916022,-0.0024715,0.0014792824,-0.0012630923,-0.0009275928,0.00013149405,4.7837002e-05,-0.019051775,0.16422835,0.073587865,0.067888655,1.5367137,0.38115078,0.0,0.10100044,0.033369977,0.016585516,0.061368823,0.0321474,inf,inf,inf,inf,1,1,1,1,2,1,1,1,3,0,0,1
264539323,0,0.0,0.0,1.0056753,1.0185113,-0.0788486,0.99629486,0.96039945,0.1916022,-0.003765654,0.001408308,-0.001555869,-0.0011975623,0.00013149405,4.7837002e-05,-0.019051775,-0.031167977,0.2502645,0.054813705,1.536714,0.38115078,0.0,0.10100163,0.03331746,0.016585518,0.061608393,0.03214742,inf,inf,inf,inf,1,1,1,1,2,1,1,1,3,0,0,1
264559312,0,0.0,0.0,1.005699,1.0185169,-0.07884594,0.99629486,0.96039945,0.1916022,-0.0034015558,0.0015940516,-0.0014699367,-0.0010886024,0.00013149405,4.7837002e-05,-0.019051775,0.049584366,0.2828445,0.04790986,1.5367382,0.38115078,0.0,0.10099897,0.03327163,0.016585521,0.0618584,0.03214743,inf,inf,inf,inf,1,1,1,1,2,1,1,1,3,0,0,1
264579300,0,0.0,0.0,1.0057243,1.0185281,-0.07884022,0.99629486,0.96039945,0.1916022,-0.0033604363,0.0018703269,-0.0015615061,-0.0011569883,0.00013149405,4.7837002e-05,-0.019051775,0.13383596,0.31995773,0.00907978,1.5366904,0.38115078,0.0,0.100993246,0.03323226,0.016585527,0.06211712,0.03214748,inf,inf,inf,inf,1,1,1,1,2,1,1,1,3,0,0,1
264599287,0,0.0,0.0,1.005753,1.0185397,-0.0788364,0.99629486,0.96039945,0.1916022,-0.002966048,0.0010172803,-0.0016689678,-0.0012410652,0.00013149405,4.7837002e-05,-0.019051775,0.22592358,0.24390815,0.057418775,1.5367075,0.38115078,0.0,0.10098942,0.034153584,0.01658553,0.063346684,0.032147475,inf,inf,inf,inf,1,1,1,1,2,1,1,1,3,0,0,1
264619277,0,0.0,0.0,1.0057827,1.0185429,-0.078838825,0.99629486,0.96039945,0.1916022,-0.0024981988,0.0015068256,-0.004626101,-0.0041745696,0.00013149405,4.7837002e-05,-0.019051775,0.23710527,0.46860814,-0.5780209,1.5366949,0.38115078,0.0,0.10099185,0.034097563,0.016585533,0.06357144,0.03214751,inf,inf,inf,inf,1,1,1,1,2,1,1,1,3,0,0,1
264639264,0,0.0,0.0,1.0058326,1.0185467,-0.078883134,0.99629486,0.96039945,0.1916022,-0.0015144076,0.0011846912,-0.0029788264,-0.0025034365,0.00013149405,4.7837002e-05,-0.019051775,-0.2113194,0.28442273,0.26006186,1.5365945,0.38115078,0.0,0.10103616,0.034021836,0.016585536,0.06375285,0.03214753,inf,inf,inf,inf,1,1,1,1,2,1,1,1,3,0,0,1
264659253,0,0.0,0.0,1.0058599,1.0185512,-0.07888631,0.99629486,0.96039945,0.1916022,-0.003946916,0.0025435777,-0.0023202458,-0.0018208082,0.00013149405,4.7837002e-05,-0.019051775,-0.22885014,0.66633385,-0.11981509,1.5366445,0.38115078,0.0,0.101039335,0.034977216,0.01658554,0.06500278,0.03214753,inf,inf,inf,inf,1,1,1,1,2,1,1,1,3,0,0,1
264679241,0,0.0,0.0,1.0058978,1.0185468,-0.07888797,0.99629486,0.96039945,0.1916022,-0.005118775,-0.0009472674,-0.0013027648,-0.00077925646,0.00013149405,4.7837002e-05,-0.019051775,-0.88689435,0.029481644,0.22824834,1.5366312,0.38115078,0.0,0.101041,0.034853637,0.016585544,0.06509454,0.03214755,inf,inf,inf,inf,1,1,1,1,2,1,1,1,3,0,0,1
264699229,0,0.0,0.0,1.0059272,1.0185385,-0.078887515,0.99629486,0.96039945,0.1916022,0.0009286425,0.0008915623,-0.0014788936,-0.00093160645,0.00013149405,4.7837002e-05,-0.019051775,2.0413048,0.2570559,0.19225982,1.5365726,0.38115078,0.0,0.10104054,0.034769777,0.016585546,0.06525485,0.03214757,inf,inf,inf,inf,1,1,1,1,2,1,1,1,3,0,0,1
264719218,0,0.0,0.0,1.0059556,1.018518,-0.07887923,0.99629486,0.96039945,0.1916022,-0.004548675,0.002253584,-0.001499465,-0.00092878076,0.00013149405,4.7837002e-05,-0.019051775,-1.1344279,1.3933088,0.016099144,1.5367339,0.38115078,0.0,0.10103226,0.034694742,0.01658555,0.06542302,0.032147594,inf,inf,inf,inf,1,1,1,1,2,1,1,1,3,0,0,1
264739208,0,0.0,0.0,1.0059972,1.0185114,-0.07887835,0.99629486,0.96039945,0.1916022,0.003481237,-0.0013164812,-0.0013681882,-0.0007745348,0.00013149405,4.7837002e-05,-0.019051775,2.5742445,-0.7945039,0.2029362,1.5365459,0.38115078,0.0,0.10103138,0.034628093,0.016585555,0.06559855,0.032147624,inf,inf,inf,inf,1,1,1,1,2,1,1,1,3,0,0,1
264759194,0,0.0,0.0,1.0060326,1.0185059,-0.0788707,0.99629486,0.96039945,0.1916022,-0.0064448914,0.0035298532,-0.0010349125,-0.00041882292,0.00013149405,4.7837002e-05,-0.019051775,-1.4785074,1.8050281,0.16863595,1.5366974,0.38115078,0.0,0.101023726,0.034569412,0.016585559,0.06577921,0.032147646,inf,inf,inf,inf,1,1,1,1,2,1,1,1,3,0,0,1
264779182,0,0.0,0.0,1.0060667,1.0184878,-0.07884749,0.99629486,0.96039945,0.1916022,0.0021678547,-0.0031134628,6.329926e-05,0.0007012425,0.00013149405,4.7837002e-05,-0.019051775,2.1667671,-1.003581,0.32410836,1.5365272,0.38115078,0.0,0.10100052,0.03451829,0.016585562,0.06596357,0.032147653,inf,inf,inf,inf,1,1,1,1,2,1,1,1,3,0,0,1
264799170,0,0.0,0.0,1.0061125,1.018466,-0.07883347,0.99629486,0.96039945,0.1916022,-0.0063350704,0.0010634639,0.0001219354,0.00078121707,0.00013149405,4.7837002e-05,-0.019051775,-1.3989933,1.4017302,0.42485228,1.536447,0.38115078,0.0,0.100986496,0.034474365,0.016585566,0.06615712,0.03214766,inf,inf,inf,inf,1,1,1,1,2,1,1,1,3,0,0,1
264819160,0,0.0,0.0,1.0061241,1.0184387,-0.07881429,0.99629486,0.96039945,0.1916022,-0.00084638264,-0.0039056235,-0.0005158338,0.00016500654,0.00013149405,4.7837002e-05,-0.019051775,1.8193605,-0.7030021,0.41728678,1.5368211,0.38115078,0.0,0.10096732,0.03443722,0.01658557,0.06633808,0.03214773,inf,inf,inf,inf,1,1,1,1,2,1,1,1,3,0,0,1
264839149,0,0.0,0.0,1.0061638,1.0184084,-0.07878766,0.99629486,0.96039945,0.1916022,-0.0060260543,-0.001293563,-0.0010180544,-0.0003158806,0.00013149405,4.7837002e-05,-0.019051775,-1.4198544,0.59424335,0.031225584,1.5363144,0.38115078,0.0,0.10094069,0.034406375,0.016585574,0.066524394,0.03214776,inf,inf,inf,inf,1,1,1,1,2,1,1,1,3,0,0,1
264859136,0,0.0,0.0,1.0061996,1.0183975,-0.07876814,0.99629486,0.96039945,0.1916022,-0.002819249,-0.0033663127,-0.0004613651,0.00026159297,0.00013149405,4.7837002e-05,-0.019051775,0.95016867,-0.7267582,0.119843,1.5367831,0.38115078,0.0,0.10092117,0.034381486,0.016585577,0.06670974,0.03214775,inf,inf,inf,inf,1,1,1,1,2,1,1,1,3,0,0,1
264879124,0,0.0,0.0,1.0062501,1.0183648,-0.07874289,0.99629486,0.96039945,0.1916022,-0.0053849616,-0.0032470163,-0.00082555,-8.235828e-05,0.00013149405,4.7837002e-05,-0.019051775,-1.4450043,-0.12612863,0.15757966,1.5366741,0.38115078,0.0,0.10089592,0.034333084,0.016585583,0.0668364,0.032147683,inf,inf,inf,inf,1,1,1,1,2,1,1,1,3,0,0,1
264899112,0,0.0,0.0,1.0062889,1.0183496,-0.07871201,0.99629486,0.96039945,0.1916022,-0.004796394,-0.0014251948,-0.0014132495,-0.000650225,0.00013149405,4.7837002e-05,-0.019051775,0.18055338,-0.386208,0.099000394,1.5361358,0.38115078,0.0,0.100865036,0.03534577,0.016585588,0.06812148,0.032147735,inf,inf,inf,inf,1,1,1,1,2,1,1,1,3,0,0,1
264919102,0,0.0,0.0,1.0063406,1.0183142,-0.07868557,0.99629486,0.96039945,0.1916022,-0.0012314613,-0.0051620323,-0.00017252752,0.0006098379,0.00013149405,4.7837002e-05,-0.019051775,-0.69642466,-0.9121553,0.11107304,1.5373002,0.38115078,0.0,0.100838594,0.03527498,0.016585592,0.068189844,0.032147754,inf,inf,inf,inf,1,1,1,1,2,1,1,1,3,0,0,1
264939088,0,0.0,0.0,1.0063708,1.0182972,-0.0786672,0.99629486,0.96039945,0.1916022,-0.004887493,0.0011635569,-0.0023824784,-0.001581266,0.00013149405,4.7837002e-05,-0.019051775,-0.49487135,0.031768862,0.04179448,1.5359251,0.38115078,0.0,0.10082023,0.03521154,0.016585594,0.06825714,0.032147776,inf,inf,inf,inf,1,1,1,1,2,1,1,1,3,0,0,1
264959079,0,0.0,0.0,1.0064385,1.0182663,-0.07863053,0.99629486,0.96039945,0.1916022,0.0004297519,-0.0065353317,-0.00049026613,0.00032908432,0.00013149405,4.7837002e-05,-0.019051775,-0.31168237,-1.4441997,-0.1451925,1.5369601,0.38115078,0.0,0.10078356,0.03515495,0.016585598,0.06833167,0.03214781,inf,inf,inf,inf,1,1,1,1,2,1,1,1,3,0,0,1
264979065,0,0.0,0.0,1.0064628,1.0182394,-0.078622736,0.99629486,0.96039945,0.1916022,-0.0059853652,0.0009489824,-0.0015475923,-0.0007109429,0.00013149405,4.7837002e-05,-0.019051775,-0.9723574,0.17493537,0.1997794,1.5367856,0.38115078,0.0,0.10077576,0.035104807,0.016585601,0.06840271,0.032147832,inf,inf,inf,inf,1,1,1,1,2,1,1,1,3,0,0,1
264999054,0,0.0,0.0,1.0065043,1.0181878,-0.07857772,0.99629486,0.96039945,0.1916022,-0.00055113394,-0.006759067,-0.0030100339,-0.0021569987,0.00013149405,4.7837002e-05,-0.019051775,0.18212348,-1.6185781,-0.55351096,1.5357106,0.38115078,0.0,0.10073075,0.035029188,0.016585605,0.06841193,0.032147825,inf,inf,inf,inf,1,1,1,1,2,1,1,1,3,0,0,1
265019042,0,0.0,0.0,1.0065469,1.0181706,-0.07855329,0.99629486,0.96039945,0.1916022,-0.0034956913,0.0020713392,0.0010126907,0.0018810915,0.00013149405,4.7837002e-05,-0.019051775,-1.5775106,0.02929065,0.0055353334,1.5376185,0.38115078,0.0,0.10070632,0.034960527,0.016585609,0.06842539,0.032147937,inf,inf,inf,inf,1,1,1,1,2,1,1,1,3,0,0,1
265039030,0,0.0,0.0,1.006621,1.0181147,-0.07853202,0.99629486,0.96039945,0.1916022,0.002221807,-0.0037756888,-0.0037625001,-0.0028797165,0.00013149405,4.7837002e-05,-0.019051775,0.4860356,-1.2997233,-0.16590853,1.5351733,0.38115078,0.0,0.100685045,0.036012042,0.016585615,0.06970425,0.032147873,inf,inf,inf,inf,1,1,1,1,2,1,1,1,3,0,0,1
265059019,0,0.0,0.0,1.0066597,1.0180705,-0.07849637,0.99629486,0.96039945,0.1916022,-0.006510616,0.0003646841,-0.0006700295,0.0002262346,0.00013149405,4.7837002e-05,-0.019051775,-2.2948802,0.37669447,-0.56026375,1.5375173,0.38115078,0.0,0.100649394,0.035916943,0.01658562,0.06965066,0.03214799,inf,inf,inf,inf,1,1,1,1,2,1,1,1,3,0,0,1
265079008,0,0.0,0.0,1.0067115,1.0180086,-0.07849289,0.99629486,0.96039945,0.1916022,0.004967974,-0.003159711,-0.0010905627,-0.00018181562,0.00013149405,4.7837002e-05,-0.019051775,0.75468034,-1.1796515,0.34004626,1.5363292,0.38115078,0.0,0.100645915,0.035829663,0.016585622,0.06960695,0.032147896,inf,inf,inf,inf,1,1,1,1,2,1,1,1,3,0,0,1
265098999,0,0.0,0.0,1.0067972,1.0179617,-0.07845104,0.99629486,0.96039945,0.1916022,-0.0060200063,0.0014245348,-0.0038413033,-0.0029211354,0.00013149405,4.7837002e-05,-0.019051775,-2.611475,0.7539894,-0.5571728,1.5361768,0.38115078,0.0,0.100604065,0.03571603,0.016585626,0.06950051,0.032147933,inf,inf,inf,inf,1,1,1,1,2,1,1,1,3,0,0,1
265118986,0,0.0,0.0,1.0068259,1.0179204,-0.078416236,0.99629486,0.96039945,0.1916022,0.0071532014,-0.0034588121,0.0029894605,0.0039199856,0.00013149405,4.7837002e-05,-0.019051775,1.4426987,-1.103963,0.10112282,1.5376643,0.38115078,0.0,0.10056926,0.035610985,0.01658563,0.069398515,0.03214792,inf,inf,inf,inf,1,1,1,1,2,1,1,1,3,0,0,1
265138972,0,0.0,0.0,1.0068733,1.0178461,-0.07840121,0.99629486,0.96039945,0.1916022,-0.0028884816,0.0020552548,-0.004094357,-0.003154464,0.00013149405,4.7837002e-05,-0.019051775,-1.4424431,1.2707831,-0.23043427,1.5354091,0.38115078,0.0,0.100554235,0.035513856,0.016585633,0.06931202,0.032147925,inf,inf,inf,inf,1,1,1,1,2,1,1,1,3,0,0,1
265158961,0,0.0,0.0,1.0069541,1.0178019,-0.07836033,0.99629486,0.96039945,0.1916022,0.007646559,-0.0038291356,0.0001306475,0.0010790153,0.00013149405,4.7837002e-05,-0.019051775,1.446834,-1.1395948,-0.4520152,1.5377144,0.38115078,0.0,0.100513354,0.035424195,0.016585637,0.06921887,0.032147888,inf,inf,inf,inf,1,1,1,1,2,1,1,1,3,0,0,1
265178955,0,0.0,0.0,1.0069889,1.0177573,-0.078359954,0.99629486,0.96039945,0.1916022,-0.0025580302,0.00419246,0.0014355211,0.0023913602,0.00013149405,4.7837002e-05,-0.019051775,-0.73578405,1.3869429,0.4786519,1.5361776,0.38115078,0.0,0.10051298,0.0353414,0.016585637,0.069141276,0.03214796,inf,inf,inf,inf,1,1,1,1,2,1,1,1,3,0,0,1
265198936,0,0.0,0.0,1.0070539,1.0177184,-0.07831494,0.99629486,0.96039945,0.1916022,0.0065505323,-0.0040097833,-0.002802007,-0.0018397055,0.00013149405,4.7837002e-05,-0.019051775,1.661566,-1.0816928,-0.42656824,1.536501,0.38115078,0.0,0.100467965,0.035265,0.016585642,0.069062866,0.032147877,inf,inf,inf,inf,1,1,1,1,2,1,1,1,3,0,0,1
265218927,0,0.0,0.0,1.0071143,1.0176597,-0.07830773,0.99629486,0.96039945,0.1916022,7.949388e-05,0.0034938988,0.0019448329,0.0029127814,0.00013149405,4.7837002e-05,-0.019051775,-0.5202588,1.3927041,0.07685163,1.5373783,0.38115078,0.0,0.10046076,0.035194606,0.016585648,0.06898277,0.03214791,inf,inf,inf,inf,1,1,1,1,2,1,1,1,3,0,0,1
265238913,0,0.0,0.0,1.0071621,1.0176116,-0.078294925,0.99629486,0.96039945,0.1916022,0.005471842,-0.0021782771,-0.0024028607,-0.001429537,0.00013149405,4.7837002e-05,-0.019051775,1.9940832,-0.5857392,-0.029794166,1.5356601,0.38115078,0.0,0.10044795,0.035129648,0.016585652,0.068913125,0.03214786,inf,inf,inf,inf,1,1,1,1,2,1,1,1,3,0,0,1
265258906,0,0.0,0.0,1.0072258,1.017571,-0.07826742,0.99629486,0.96039945,0.1916022,0.0001844386,0.0026381903,0.0008667525,0.0018445402,0.00013149405,4.7837002e-05,-0.019051775,-0.5902341,1.5154544,-0.0642775,1.5375242,0.38115078,0.0,0.100420445,0.03506982,0.016585654,0.06883212,0.032147944,inf,inf,inf,inf,1,1,1,1,2,1,1,1,3,0,0,1
265278891,0,0.0,0.0,1.0072744,1.017517,-0.07826988,0.99629486,0.96039945,0.1916022,0.0056742947,-0.00133652,-0.00091910746,6.221675e-05,0.00013149405,4.7837002e-05,-0.019051775,2.0075152,-0.18553896,0.27012366,1.5360816,0.38115078,0.0,0.100422904,0.03501467,0.016585657,0.0687617,0.032147836,inf,inf,inf,inf,1,1,1,1,2,1,1,1,3,0,0,1
265298878,0,0.0,0.0,1.0073413,1.0174705,-0.078237556,0.99629486,0.96039945,0.1916022,-0.0014129622,0.00061776326,-0.0025372824,-0.0015532764,0.00013149405,4.7837002e-05,-0.019051775,-0.8181954,1.5819414,-0.43620193,1.5366471,0.38115078,0.0,0.100408316,0.03496379,0.016585661,0.068690255,0.032147843,inf,inf,inf,inf,1,1,1,1,2,1,1,1,3,0,0,1
265318867,0,0.0,0.0,1.0073783,1.0174309,-0.07823934,0.99629486,0.96039945,0.1916022,0.006350156,-0.0038245684,0.0030036452,0.003989369,0.00013149405,4.7837002e-05,-0.019051775,2.6158273,-0.4513805,0.5069106,1.53717,0.38115078,0.0,0.1004101,0.036032517,0.016585665,0.069911905,0.03214787,inf,inf,inf,inf,1,1,1,1,2,1,1,1,3,0,0,1
265338859,0,0.0,0.0,1.0074487,1.0173683,-0.07822446,0.99629486,0.96039945,0.1916022,-0.0027059997,0.00023397834,-0.0023883905,-0.0014018597,0.00013149405,4.7837002e-05,-0.019051775,-0.695581,1.6606734,0.08788891,1.5357993,0.38115078,0.0,0.10039522,0.035951007,0.016585667,0.06977542,0.032147884,inf,inf,inf,inf,1,1,1,1,2,1,1,1,3,0,0,1
265358843,0,0.0,0.0,1.0075346,1.0173304,-0.07820815,0.99629486,0.96039945,0.1916022,0.004546533,-0.006999734,0.0014960543,0.002482729,0.00013149405,4.7837002e-05,-0.019051775,1.897432,-0.98997664,0.23833048,1.537622,0.38115078,0.0,0.10038332,0.035874914,0.016585669,0.069628194,0.032147843,inf,inf,inf,inf,1,1,1,1,2,1,1,1,3,0,0,1
265378833,0,0.0,0.0,1.0075898,1.0172672,-0.07822083,0.99629486,0.96039945,0.1916022,-0.0056648273,-0.0018718601,-0.00030575946,0.00068040914,0.00013149405,4.7837002e-05,-0.019051775,-1.3602443,0.9386294,0.65497,1.5360507,0.38115078,0.0,0.100396,0.0358038,0.01658567,0.06949505,0.03214789,inf,inf,inf,inf,1,1,1,1,2,1,1,1,3,0,0,1
265398820,0,0.0,0.0,1.0076704,1.0172387,-0.078200944,0.99629486,0.96039945,0.1916022,0.0019286119,-0.005875862,-0.0041316235,-0.003146559,0.00013149405,4.7837002e-05,-0.019051775,1.331453,-0.8117033,-0.34306222,1.5368049,0.38115078,0.0,0.100376114,0.035737257,0.016585672,0.06935935,0.032147817,inf,inf,inf,inf,1,1,1,1,2,1,1,1,3,0,0,1
265418808,0,0.0,0.0,1.0077565,1.017213,-0.078201346,0.99629486,0.96039945,0.1916022,-0.0036975478,-0.0025821629,0.00022763142,0.0012109871,0.00013149405,4.7837002e-05,-0.019051775,-1.9606155,-0.071315676,0.12601198,1.5371114,0.38115078,0.0,0.10037652,0.035675004,0.016585674,0.069222845,0.032147896,inf,inf,inf,inf,1,1,1,1,2,1,1,1,3,0,0,1
265438799,0,0.0,0.0,1.0078357,1.0171659,-0.07820988,0.99629486,0.96039945,0.1916022,-0.00013191823,-0.004422615,-0.0029783545,-0.001997337,0.00013149405,4.7837002e-05,-0.019051775,0.5336415,-0.5735304,0.09174832,1.5356534,0.38115078,0.0,0.10038505,0.03561659,0.016585676,0.06909474,0.03214782,inf,inf,inf,inf,1,1,1,1,2,1,1,1,3,0,0,1
265458786,0,0.0,0.0,1.0079305,1.0171282,-0.078190796,0.99629486,0.96039945,0.1916022,-0.0007993905,-0.0036160974,3.9715338e-05,0.0010178905,0.00013149405,4.7837002e-05,-0.019051775,-1.8820227,-0.075329475,-0.101132885,1.5376071,0.38115078,0.0,0.10036597,0.035561826,0.016585678,0.06895757,0.032147896,inf,inf,inf,inf,1,1,1,1,2,1,1,1,3,0,0,1
265478773,0,0.0,0.0,1.008002,1.0170994,-0.07820121,0.99629486,0.96039945,0.1916022,0.0012956599,-0.0019062522,-0.0025337623,-0.0015589406,0.00013149405,4.7837002e-05,-0.019051775,0.23010378,-0.5998433,0.08697061,1.53584,0.38115078,0.0,0.10037638,0.035510324,0.01658568,0.0688324,0.032147877,inf,inf,inf,inf,1,1,1,1,2,1,1,1,3,0,0,1
265498762,0,0.0,0.0,1.0080978,1.0170729,-0.078180104,0.99629486,0.96039945,0.1916022,-0.00038690405,-0.0052463617,-0.0017608196,-0.0007897804,0.00013149405,4.7837002e-05,-0.019051775,-1.5943799,-0.7132934,-0.39094692,1.5368907,0.38115078,0.0,0.100355275,0.03542865,0.016585682,0.06863642,0.032147888,inf,inf,inf,inf,1,1,1,1,2,1,1,1,3,0,0,1
265518751,0,0.0,0.0,1.0081463,1.0170441,-0.07818464,0.99629486,0.96039945,0.1916022,0.0006617877,-0.0024542517,-0.0005122296,0.00045492093,0.00013149405,4.7837002e-05,-0.019051775,-0.18342648,-0.9191533,0.011242854,1.5370678,0.38115078,0.0,0.10035981,0.0353515,0.016585682,0.06844442,0.032147992,inf,inf,inf,inf,1,1,1,1,2,1,1,1,3,0,0,1
265538738,0,0.0,0.0,1.0082171,1.0170012,-0.0781825,0.99629486,0.96039945,0.1916022,0.003052122,-0.0038454467,-0.0039668535,-0.0030030785,0.00013149405,4.7837002e-05,-0.019051775,-0.59673196,-0.69553065,-0.34010556,1.5358555,0.38115078,0.0,0.100357674,0.035278443,0.016585682,0.06826531,0.032147914,inf,inf,inf,inf,1,1,1,1,2,1,1,1,3,0,0,1
265558731,0,0.0,0.0,1.0082885,1.0169896,-0.07816217,0.99629486,0.96039945,0.1916022,0.0044890824,-0.00010256389,0.0007022852,0.0016630568,0.00013149405,4.7837002e-05,-0.019051775,-0.048706878,-0.50708395,-0.27055073,1.5377132,0.38115078,0.0,0.10033734,0.036354028,0.016585682,0.06942567,0.032148063,inf,inf,inf,inf,1,1,1,1,2,1,1,1,3,0,0,1
265578715,0,0.0,0.0,1.008351,1.016943,-0.078151375,0.99629486,0.96039945,0.1916022,0.0039110673,-0.0017355526,-0.0011464799,-0.00018888335,0.00013149405,4.7837002e-05,-0.019051775,-0.056108527,-0.2999478,-0.09553134,1.5357811,0.38115078,0.0,0.100326546,0.03624719,0.016585683,0.06917756,0.03214803,inf,inf,inf,inf,1,1,1,1,2,1,1,1,3,0,0,1
265598704,0,0.0,0.0,1.0084052,1.0169053,-0.078144476,0.99629486,0.96039945,0.1916022,0.0024978174,0.00047216617,-0.0008159753,0.00013816863,0.00013149405,4.7837002e-05,-0.019051775,-0.0011709507,0.6054287,-0.09788788,1.5370867,0.38115078,0.0,0.10031965,0.03611104,0.016585683,0.06887171,0.03214802,inf,inf,inf,inf,1,1,1,1,2,1,1,1,3,0,0,1
265618691,0,0.0,0.0,1.0084584,1.0168809,-0.07813803,0.99629486,0.96039945,0.1916022,0.0069660125,-0.0013540116,0.0016198438,0.0025705786,0.00013149405,4.7837002e-05,-0.019051775,0.8486467,-0.45144194,0.2849254,1.5367982,0.38115078,0.0,0.1003132,0.035982348,0.016585685,0.0685755,0.03214804,inf,inf,inf,inf,1,1,1,1,2,1,1,1,3,0,0,1
265638679,0,0.0,0.0,1.0085105,1.016857,-0.07810951,0.99629486,0.96039945,0.1916022,0.0015314836,0.0019233781,-0.0010591145,-0.00011124558,0.00013149405,4.7837002e-05,-0.019051775,0.24351953,1.5274923,-0.19907275,1.5358993,0.38115078,0.0,0.10028468,0.03586053,0.016585687,0.068298765,0.032147996,inf,inf,inf,inf,1,1,1,1,2,1,1,1,3,0,0,1
265658669,0,0.0,0.0,1.0085577,1.0168369,-0.07809015,0.99629486,0.96039945,0.1916022,0.0063726753,-0.0043352596,0.00211105,0.003056478,0.00013149405,4.7837002e-05,-0.019051775,1.1156479,-0.50762016,0.22703163,1.5376654,0.38115078,0.0,0.100265324,0.036944844,0.016585687,0.06943843,0.032148007,inf,inf,inf,inf,1,1,1,1,2,1,1,1,3,0,0,1
265678656,0,0.0,0.0,1.0086039,1.0167866,-0.07808296,0.99629486,0.96039945,0.1916022,-3.9538616e-05,0.00075807713,-0.0006410301,0.00030176833,0.00013149405,4.7837002e-05,-0.019051775,0.13979767,1.6138942,0.44640037,1.5355533,0.38115078,0.0,0.10025813,0.03678831,0.016585689,0.069102705,0.032147963,inf,inf,inf,inf,1,1,1,1,2,1,1,1,3,0,0,1
265698644,0,0.0,0.0,1.0086609,1.016777,-0.078056864,0.99629486,0.96039945,0.1916022,0.0028737,-0.005710113,-0.00046947523,0.0004703942,0.00013149405,4.7837002e-05,-0.019051775,0.72457075,-0.59953415,-0.14096393,1.5372642,0.38115078,0.0,0.100232035,0.036604412,0.016585689,0.06871226,0.032147933,inf,inf,inf,inf,1,1,1,1,2,1,1,1,3,0,0,1
265718632,0,0.0,0.0,1.0086921,1.016764,-0.07806602,0.99629486,0.96039945,0.1916022,-0.0026647502,-0.0018476974,0.00082138146,0.0017581087,0.00013149405,4.7837002e-05,-0.019051775,-0.6498457,0.5805558,0.48497355,1.5364931,0.38115078,0.0,0.10024119,0.03646652,0.016585689,0.068409964,0.03214798,inf,inf,inf,inf,1,1,1,1,2,1,1,1,3,0,0,1
265738626,0,0.0,0.0,1.0087525,1.0167454,-0.078040294,0.99629486,0.96039945,0.1916022,0.002983776,-0.0070823394,-0.0026465624,-0.0017131772,0.00013149405,4.7837002e-05,-0.019051775,0.7719388,-1.0888426,-0.099797435,1.5360582,0.38115078,0.0,0.100215465,0.03633602,0.01658569,0.06812677,0.032147836,inf,inf,inf,inf,1,1,1,1,2,1,1,1,3,0,0,1
265763606,0,0.0,0.0,1.0088105,1.0167203,-0.07801731,0.99629486,0.96039945,0.1916022,0.00429779,-0.005490524,0.0023413203,0.003271157,0.00013149405,4.7837002e-05,-0.019051775,1.4332935,-0.348586,0.24344866,1.5376685,0.38115078,0.0,0.10019248,0.036212537,0.016585693,0.06785316,0.03214791,inf,inf,inf,inf,1,1,1,1,2,1,1,1,3,0,0,1
265783594,0,0.0,0.0,1.0088232,1.016683,-0.078024566,0.99629486,0.96039945,0.1916022,-0.0046058595,-0.0030406965,0.00075371785,0.0016796815,0.00013149405,4.7837002e-05,-0.019051775,-1.1261182,0.49263152,0.70311904,1.5360006,0.38115078,0.0,0.10019974,0.036095567,0.016585695,0.06759408,0.032147817,inf,inf,inf,inf,1,1,1,1,2,1,1,1,3,0,0,1
265803583,0,0.0,0.0,1.008867,1.0166687,-0.07797787,0.99629486,0.96039945,0.1916022,0.00182706,-0.005282325,-0.0017026186,-0.00078069576,0.00013149405,4.7837002e-05,-0.019051775,0.41722518,-0.75749326,-0.32852936,1.5367429,0.38115078,0.0,0.100153044,0.03598469,0.016585696,0.06734098,0.032147888,inf,inf,inf,inf,1,1,1,1,2,1,1,1,3,0,0,1
265823571,0,0.0,0.0,1.0089086,1.0166575,-0.07796434,0.99629486,0.96039945,0.1916022,-0.0015085555,-0.0015275517,0.0017179468,0.0026355842,0.00013149405,4.7837002e-05,-0.019051775,-1.3305331,0.29025817,0.23405956,1.5372021,0.38115078,0.0,0.10013951,0.035879537,0.016585698,0.06710257,0.032147855,inf,inf,inf,inf,1,1,1,1,2,1,1,1,3,0,0,1
265843560,0,0.0,0.0,1.0089285,1.0166532,-0.07795684,0.99629486,0.96039945,0.1916022,-0.001970182,-0.004698021,-0.0026768886,-0.0017638425,0.00013149405,4.7837002e-05,-0.019051775,-0.07222609,-0.9007185,0.09525935,1.5357263,0.38115078,0.0,0.10013201,0.03574656,0.016585698,0.06681252,0.032147884,inf,inf,inf,inf,1,1,1,1,2,1,1,1,3,0,0,1
265863548,0,0.0,0.0,1.0089327,1.0166512,-0.07790289,0.99629486,0.96039945,0.1916022,0.0005518533,-0.0023330785,0.0013514786,0.0022598063,0.00013149405,4.7837002e-05,-0.019051775,-1.4060217,-0.15065344,-0.46435428,1.537587,0.38115078,0.0,0.10008104,0.035620637,0.016585696,0.06653197,0.03214796,inf,inf,inf,inf,1,1,1,1,2,1,1,1,3,0,0,1
265883536,0,0.0,0.0,1.0089586,1.0166457,-0.07789857,0.99629486,0.96039945,0.1916022,0.0033421353,-0.00034380628,-0.0010689485,-0.00016511323,0.00013149405,4.7837002e-05,-0.019051775,0.23810029,-0.46390754,0.045034446,1.5357093,0.38115078,0.0,0.10008722,0.03550126,0.016585696,0.06627258,0.03214798,inf,inf,inf,inf,1,1,1,1,2,1,1,1,3,0,0,1
265903524,0,0.0,0.0,1.0089787,1.0166264,-0.0778555,0.99629486,0.96039945,0.1916022,0.0033176907,-0.0030541476,-0.0017184624,-0.0008194539,0.00013149405,4.7837002e-05,-0.019051775,-0.5943752,0.011840625,-0.76954794,1.5370436,0.38115078,0.0,0.100044146,0.03538807,0.016585696,0.06601472,0.032148,inf,inf,inf,inf,1,1,1,1,2,1,1,1,3,0,0,1
265923512,0,0.0,0.0,1.0089656,1.0166141,-0.077844895,0.99629486,0.96039945,0.1916022,0.0065937703,0.00021049814,0.0034818335,0.004374981,0.00013149405,4.7837002e-05,-0.019051775,1.6358411,-0.07367165,0.31310475,1.536863,0.38115078,0.0,0.100033544,0.03528066,0.016585696,0.06583857,0.032148074,inf,inf,inf,inf,1,1,1,1,2,1,1,1,3,0,0,1
265943503,0,0.0,0.0,1.009003,1.0165914,-0.0778036,0.99629486,0.96039945,0.1916022,0.002230347,-0.0005227367,-0.002446802,-0.0015605282,0.00013149405,4.7837002e-05,-0.019051775,-0.5030579,0.73659617,-0.46814963,1.5359638,0.38115078,0.0,0.1,0.035179477,0.016585696,0.06561239,0.032148037,inf,inf,inf,inf,1,1,1,1,2,1,1,1,3,0,0,1
265963491,0,0.0,0.0,1.0090206,1.0166076,-0.07778872,0.99629486,0.96039945,0.1916022,0.0055260435,0.0005539234,0.0020448472,0.0029238367,0.00013149405,4.7837002e-05,-0.019051775,1.3488762,0.40192053,-0.02753937,1.5378187,0.38115078,0.0,0.1,0.036215458,0.016585696,0.066673785,0.032148063,inf,inf,inf,inf,1,1,1,1,2,1,1,1,3,0,0,1
265983477,0,0.0,0.0,1.0090218,1.0165771,-0.07776573,0.99629486,0.96039945,0.1916022,0.0007300407,-0.0026390199,0.0013403813,0.0022117186,0.00013149405,4.7837002e-05,-0.019051775,-0.032157805,0.46364167,0.22772673,1.5355852,0.38115078,0.0,0.1,0.036081873,0.016585696,0.06639231,0.0321481,inf,inf,inf,inf,1,1,1,1,2,1,1,1,3,0,0,1
266003466,0,0.0,0.0,1.009058,1.0166,-0.07774136,0.99629486,0.96039945,0.1916022,0.0021408359,-0.0005947788,-0.00037828623,0.00048506472,0.00013149405,4.7837002e-05,-0.019051775,0.50841784,0.3389117,0.07512528,1.5375036,0.38115078,0.0,0.1,0.035922013,0.016585696,0.06606118,0.032148074,inf,inf,inf,inf,1,1,1,1,2,1,1,1,3,0,0,1
266023455,0,0.0,0.0,1.0090774,1.0165938,-0.077737376,0.99629486,0.96039945,0.1916022,-0.0002886274,-0.0030430045,0.0012845672,0.0021396556,0.00013149405,4.7837002e-05,-0.019051775,-0.23184234,0.09388708,0.4120497,1.5361683,0.38115078,0.0,0.1,0.035770833,0.016585696,0.065743454,0.03214805,inf,inf,inf,inf,1,1,1,1,2,1,1,1,3,0,0,1
266043442,0,0.0,0.0,1.0090804,1.0165828,-0.0777031,0.99629486,0.96039945,0.1916022,-0.0021967778,-0.0043236315,-0.00051144,0.0003349954,0.00013149405,4.7837002e-05,-0.019051775,0.037806876,0.2814795,-0.17003118,1.5363907,0.38115078,0.0,0.1,0.03562767,0.016585696,0.065453775,0.03214802,inf,inf,inf,inf,1,1,1,1,2,1,1,1,3,0,0,1
266063431,0,0.0,0.0,1.0091089,1.0165899,-0.07767659,0.99629486,0.96039945,0.1916022,0.002505458,-0.0040538115,0.0012103887,0.0020478591,0.00013149405,4.7837002e-05,-0.019051775,-0.15611123,-0.5586644,0.14123806,1.5373617,0.38115078,0.0,0.1,0.03549216,0.016585698,0.06516885,0.032147948,inf,inf,inf,inf,1,1,1,1,2,1,1,1,3,0,0,1
266083419,0,0.0,0.0,1.0091127,1.0166007,-0.0776673,0.99629486,0.96039945,0.1916022,-0.0053646825,-0.0018849184,-0.0018791249,-0.0010508406,0.00013149405,4.7837002e-05,-0.019051775,-1.0583075,0.31373012,-0.01458213,1.535508,0.38115078,0.0,0.1,0.035363737,0.016585698,0.064910084,0.03214792,inf,inf,inf,inf,1,1,1,1,2,1,1,1,3,0,0,1
266103407,0,0.0,0.0,1.0091137,1.016611,-0.0776074,0.99629486,0.96039945,0.1916022,0.0032233836,-0.005529878,0.0013182607,0.0021373036,0.00013149405,4.7837002e-05,-0.019051775,-0.6449972,-1.0596296,-0.55902547,1.537768,0.38115078,0.0,0.1,0.035242,0.016585698,0.06465536,0.0321479,inf,inf,inf,inf,1,1,1,1,2,1,1,1,3,0,0,1
266123396,0,0.0,0.0,1.0091107,1.0166104,-0.07760292,0.99629486,0.96039945,0.1916022,0.0021548667,0.0006206378,-0.0008291004,-1.8887806e-05,0.00013149405,4.7837002e-05,-0.019051775,0.19326554,0.36371845,0.11839867,1.5359207,0.38115078,0.0,0.1,0.035126574,0.016585698,0.064419284,0.032147992,inf,inf,inf,inf,1,1,1,1,2,1,1,1,3,0,0,1
266143384,0,0.0,0.0,1.0091125,1.0166303,-0.077560686,0.99629486,0.96039945,0.1916022,0.0017779967,-0.0043782718,-0.0010705496,-0.0002690704,0.00013149405,4.7837002e-05,-0.019051775,-0.44227603,-1.0933355,-0.64018565,1.5369748,0.38115078,0.0,0.1,0.035017043,0.016585698,0.06419308,0.03214789,inf,inf,inf,inf,1,1,1,1,2,1,1,1,3,0,0,1
266163372,0,0.0,0.0,1.0090569,1.0166498,-0.07755324,0.99629486,0.96039945,0.1916022,0.0027585574,0.0034025672,0.002141151,0.0029334477,0.00013149405,4.7837002e-05,-0.019051775,0.85635805,0.54070795,0.2412885,1.5371052,0.38115078,0.0,0.1,0.03491308,0.016585698,0.0639758,0.032148056,inf,inf,inf,inf,1,1,1,1,2,1,1,1,3,0,0,1
266183362,0,0.0,0.0,1.0090598,1.016651,-0.077510685,0.99629486,0.96039945,0.1916022,0.003745578,-0.0022712024,-0.001977793,-0.0011950738,0.00013149405,4.7837002e-05,-0.019051775,0.13477394,-0.21795079,-0.42629582,1.5357556,0.38115078,0.0,0.1,0.034814365,0.0165857,0.06377277,0.03214802,inf,inf,inf,inf,1,1,1,1,2,1,1,1,3,0,0,1
266203353,0,0.0,0.0,1.009037,1.0166956,-0.0774928,0.99629486,0.96039945,0.1916022,0.0028334241,0.0025787312,0.0038284343,0.0046013566,0.00013149405,4.7837002e-05,-0.019051775,0.76940167,0.4246589,0.13362837,1.5378481,0.38115078,0.0,0.1,0.03472059,0.016585702,0.06357318,0.032148026,inf,inf,inf,inf,1,1,1,1,2,1,1,1,3,0,0,1
266223336,0,0.0,0.0,1.0090035,1.0166928,-0.07747501,0.99629486,0.96039945,0.1916022,0.0013580895,-0.002073686,0.0009067369,0.0016699831,0.00013149405,4.7837002e-05,-0.019051775,0.7664577,0.23691,0.44621605,1.5354229,0.38115078,0.0,0.1,0.034631453,0.016585702,0.06338633,0.032148063,inf,inf,inf,inf,1,1,1,1,2,1,1,1,3,0,0,1
266243325,0,0.0,0.0,1.0089886,1.0167216,-0.07742412,0.99629486,0.96039945,0.1916022,-0.00064218295,-0.0005397268,0.00065388647,0.0014067973,0.00013149405,4.7837002e-05,-0.019051775,0.15698873,0.5142142,-0.3280761,1.537616,0.38115078,0.0,0.1,0.034546692,0.016585704,0.06320811,0.03214806,inf,inf,inf,inf,1,1,1,1,2,1,1,1,3,0,0,1
266263313,0,0.0,0.0,1.0089655,1.0167447,-0.07743815,0.99629486,0.96039945,0.1916022,-0.0017530861,-0.00095203024,0.0026639274,0.003406261,0.00013149405,4.7837002e-05,-0.019051775,-0.2369048,0.13414797,0.8147986,1.5361135,0.38115078,0.0,0.1,0.03446609,0.016585704,0.06303125,0.03214798,inf,inf,inf,inf,1,1,1,1,2,1,1,1,3,0,0,1
266283302,0,0.0,0.0,1.0089424,1.016786,-0.07738517,0.99629486,0.96039945,0.1916022,-0.0027707436,-0.002536225,-0.0008395932,-0.00010791856,0.00013149405,4.7837002e-05,-0.019051775,-0.35250008,0.18360868,-0.18564281,1.5365423,0.38115078,0.0,0.1,0.034389332,0.016585706,0.062872015,0.032148004,inf,inf,inf,inf,1,1,1,1,2,1,1,1,3,0,0,1
266303290,0,0.0,0.0,1.0089185,1.0168289,-0.077352785,0.99629486,0.96039945,0.1916022,-0.0010957724,-0.003884875,0.003835575,0.004556099,0.00013149405,4.7837002e-05,-0.019051775,-0.66289085,-0.9186241,0.24569541,1.5371532,0.38115078,0.0,0.1,0.034316298,0.016585708,0.06270844,0.032147914,inf,inf,inf,inf,1,1,1,1,2,1,1,1,3,0,0,1
266323278,0,0.0,0.0,1.0088984,1.0168478,-0.077341124,0.99629486,0.96039945,0.1916022,-0.0019157041,-0.00067021814,-0.0023422423,-0.0016329075,0.00013149405,4.7837002e-05,-0.019051775,-0.6807914,0.38047495,0.02866091,1.5354258,0.38115078,0.0,0.1,0.034246694,0.01658571,0.06256147,0.03214789,inf,inf,inf,inf,1,1,1,1,2,1,1,1,3,0,0,1
266343267,0,0.0,0.0,1.0088938,1.016907,-0.07729572,0.99629486,0.96039945,0.1916022,0.0041268687,-0.0027069496,0.0020544247,0.002752071,0.00013149405,4.7837002e-05,-0.019051775,-0.51398426,-1.3898803,-0.47308806,1.5378944,0.38115078,0.0,0.1,0.034180366,0.01658571,0.06241042,0.032147843,inf,inf,inf,inf,1,1,1,1,2,1,1,1,3,0,0,1
266363255,0,0.0,0.0,1.0088565,1.0169407,-0.077293485,0.99629486,0.96039945,0.1916022,0.0008623549,0.005275277,-0.0004454969,0.0002404534,0.00013149405,4.7837002e-05,-0.019051775,0.02221375,1.0094057,-0.03697413,1.5354548,0.38115078,0.0,0.1,0.03411713,0.01658571,0.062272817,0.032147884,inf,inf,inf,inf,1,1,1,1,2,1,1,1,3,0,0,1
266383243,0,0.0,0.0,1.00883,1.0169957,-0.07725445,0.99629486,0.96039945,0.1916022,0.0063787666,-0.0015210556,0.0010386226,0.0017122251,0.00013149405,4.7837002e-05,-0.019051775,0.64858323,-0.6250964,-0.42240265,1.5374131,0.38115078,0.0,0.1,0.034056768,0.016585711,0.062136926,0.032147806,inf,inf,inf,inf,1,1,1,1,2,1,1,1,3,0,0,1
266403232,0,0.0,0.0,1.0087851,1.0170311,-0.07723682,0.99629486,0.96039945,0.1916022,0.0019086708,0.0050483625,0.0034014627,0.00406222,0.00013149405,4.7837002e-05,-0.019051775,0.74446326,1.0430152,0.2775009,1.5364863,0.38115078,0.0,0.1,0.033999175,0.016585711,0.06199935,0.03214791,inf,inf,inf,inf,1,1,1,1,2,1,1,1,3,0,0,1
266423220,0,0.0,0.0,1.0087906,1.0170768,-0.07718934,0.99629486,0.96039945,0.1916022,0.0036090305,-0.00053111644,-4.3413107e-05,0.0006043694,0.00013149405,4.7837002e-05,-0.019051775,0.77370787,-0.046724785,-0.30609134,1.5362654,0.38115078,0.0,0.1,0.033944137,0.016585711,0.0618804,0.032147873,inf,inf,inf,inf,1,1,1,1,2,1,1,1,3,0,0,1
266443208,0,0.0,0.0,1.0087523,1.0171367,-0.077174015,0.99629486,0.96039945,0.1916022,-0.0005841406,0.0021831214,0.0037097174,0.0043438645,0.00013149405,4.7837002e-05,-0.019051775,0.63407135,0.80861676,0.3969711,1.537511,0.38115078,0.0,0.1,0.03389157,0.01658571,0.061747596,0.032147974,inf,inf,inf,inf,1,1,1,1,2,1,1,1,3,0,0,1
266463196,0,0.0,0.0,1.0087283,1.0171584,-0.077141985,0.99629486,0.96039945,0.1916022,-0.0015546038,-0.0044719586,-2.9020397e-05,0.00059075386,0.00013149405,4.7837002e-05,-0.019051775,0.17949572,-0.45708886,0.106231816,1.5354482,0.38115078,0.0,0.1,0.033841275,0.01658571,0.061630834,0.03214788,inf,inf,inf,inf,1,1,1,1,2,1,1,1,3,0,0,1
266483185,0,0.0,0.0,1.0087188,1.0172175,-0.07709973,0.99629486,0.96039945,0.1916022,0.00023844457,0.0011031083,0.0029801123,0.0035848117,0.00013149405,4.7837002e-05,-0.019051775,-0.04659206,0.4751911,-0.13478816,1.5379922,0.38115078,0.0,0.1,0.03379313,0.01658571,0.06151645,0.032147933,inf,inf,inf,inf,1,1,1,1,2,1,1,1,3,0,0,1
266503176,0,0.0,0.0,1.0087076,1.0172734,-0.077113904,0.99629486,0.96039945,0.1916022,-0.0025280428,-0.0035473532,0.000562862,0.0011520643,0.00013149405,4.7837002e-05,-0.019051775,-0.27367288,-1.0986444,0.67072195,1.5355722,0.38115078,0.0,0.1,0.034751005,0.01658571,0.06248655,0.032147825,inf,inf,inf,inf,1,1,1,1,2,1,1,1,3,0,0,1
266523161,0,0.0,0.0,1.0086864,1.017332,-0.07706021,0.99629486,0.96039945,0.1916022,-0.003916809,-0.0013047976,0.00038992628,0.00096361904,0.00013149405,4.7837002e-05,-0.019051775,-1.4963409,-0.10072405,-0.5405512,1.5374042,0.38115078,0.0,0.1,0.03467445,0.016585708,0.062326934,0.032147765,inf,inf,inf,inf,1,1,1,1,2,1,1,1,3,0,0,1
266543149,0,0.0,0.0,1.0086687,1.0173812,-0.07705261,0.99629486,0.96039945,0.1916022,0.0030948303,-0.00021341378,0.0007323739,0.0012906987,0.00013149405,4.7837002e-05,-0.019051775,-0.0035955033,-0.83211225,0.10974354,1.5365547,0.38115078,0.0,0.1,0.034572788,0.016585708,0.062114038,0.032147717,inf,inf,inf,inf,1,1,1,1,2,1,1,1,3,0,0,1
266563138,0,0.0,0.0,1.0086632,1.0174294,-0.077022195,0.99629486,0.96039945,0.1916022,-0.0012263433,0.00088809157,-0.0007073053,-0.0001644493,0.00013149405,4.7837002e-05,-0.019051775,-1.1320977,0.17432992,-0.4449009,1.5363249,0.38115078,0.0,0.1,0.03447583,0.016585706,0.06192161,0.032147683,inf,inf,inf,inf,1,1,1,1,2,1,1,1,3,0,0,1
266583126,0,0.0,0.0,1.0086347,1.0174794,-0.07700521,0.99629486,0.96039945,0.1916022,0.006416374,0.0005668304,0.0041849534,0.0047115893,0.00013149405,4.7837002e-05,-0.019051775,0.58308053,-0.75379646,0.19818743,1.5376837,0.38115078,0.0,0.1,0.035446998,0.016585704,0.06288333,0.032147676,inf,inf,inf,inf,1,1,1,1,2,1,1,1,3,0,0,1
266603114,0,0.0,0.0,1.0086359,1.01752,-0.07698255,0.99629486,0.96039945,0.1916022,0.0026120194,0.00512008,-0.0007407524,-0.00023098857,0.00013149405,4.7837002e-05,-0.019051775,0.12927164,1.196988,-0.18672617,1.5355612,0.38115078,0.0,0.1,0.03532071,0.016585702,0.06264578,0.032147717,inf,inf,inf,inf,1,1,1,1,2,1,1,1,3,0,0,1
266623102,0,0.0,0.0,1.0086304,1.0175691,-0.076956466,0.99629486,0.96039945,0.1916022,0.0063094874,-0.0006089837,0.0040954114,0.0045877323,0.00013149405,4.7837002e-05,-0.019051775,1.0318011,-0.6096431,-0.16266988,1.5380162,0.38115078,0.0,0.1,0.03517079,0.0165857,0.062365465,0.03214763,inf,inf,inf,inf,1,1,1,1,2,1,1,1,3,0,0,1
266643091,0,0.0,0.0,1.0085746,1.017599,-0.07695951,0.99629486,0.96039945,0.1916022,-0.0018178188,0.0056360993,0.0026589008,0.003133148,0.00013149405,4.7837002e-05,-0.019051775,0.6877524,1.6926572,0.52232355,1.5356517,0.38115078,0.0,0.1,0.035028618,0.016585698,0.06210216,0.03214775,inf,inf,inf,inf,1,1,1,1,2,1,1,1,3,0,0,1
266663079,0,0.0,0.0,1.0085915,1.0176599,-0.07689976,0.99629486,0.96039945,0.1916022,0.002344574,-0.003442773,-0.00011773783,0.000337711,0.00013149405,4.7837002e-05,-0.019051775,0.4582872,-0.575836,-0.48318952,1.5372119,0.38115078,0.0,0.1,0.036006927,0.016585696,0.06306589,0.032147665,inf,inf,inf,inf,1,1,1,1,2,1,1,1,3,0,0,1
266683067,0,0.0,0.0,1.0085855,1.0176933,-0.07691898,0.99629486,0.96039945,0.1916022,-0.0034748504,0.0013818282,0.0024580557,0.0028941578,0.00013149405,4.7837002e-05,-0.019051775,-0.6210961,0.43033585,0.4342013,1.5367131,0.38115078,0.0,0.1,0.03583558,0.016585695,0.06275778,0.032147694,inf,inf,inf,inf,1,1,1,1,2,1,1,1,3,0,0,1
266703056,0,0.0,0.0,1.0085909,1.017706,-0.076885864,0.99629486,0.96039945,0.1916022,-0.0012749126,-0.0058323108,-0.0006882917,-0.0002721504,0.00013149405,4.7837002e-05,-0.019051775,-0.4928271,-0.9427659,-0.26113865,1.5360576,0.38115078,0.0,0.1,0.035673413,0.016585693,0.062484875,0.032147583,inf,inf,inf,inf,1,1,1,1,2,1,1,1,3,0,0,1
266723044,0,0.0,0.0,1.0085862,1.0177447,-0.07685745,0.99629486,0.96039945,0.1916022,0.0012249278,0.0028171586,0.0025450012,0.0029405365,0.00013149405,4.7837002e-05,-0.019051775,-0.40328583,0.4647616,-0.21205142,1.5378522,0.38115078,0.0,0.1,0.03551997,0.016585689,0.06222203,0.032147568,inf,inf,inf,inf,1,1,1,1,2,1,1,1,3,0,0,1
266743032,0,0.0,0.0,1.0085958,1.0177677,-0.07686742,0.99629486,0.96039945,0.1916022,0.0010361366,-0.0011396713,-0.0016459142,-0.0012714711,0.00013149405,4.7837002e-05,-0.019051775,-0.536733,-0.880151,-0.15043294,1.5355368,0.38115078,0.0,0.1,0.03537471,0.016585685,0.06198488,0.032147426,inf,inf,inf,inf,1,1,1,1,2,1,1,1,3,0,0,1
266763021,0,0.0,0.0,1.0085703,1.0178114,-0.076851085,0.99629486,0.96039945,0.1916022,0.003715683,0.0039119306,0.0014049585,0.0017585179,0.00013149405,4.7837002e-05,-0.019051775,0.24263984,0.3614537,-0.48102173,1.5381141,0.38115078,0.0,0.1,0.03523716,0.016585683,0.06175902,0.03214744,inf,inf,inf,inf,1,1,1,1,2,1,1,1,3,0,0,1
266783009,0,0.0,0.0,1.008557,1.0178382,-0.076867305,0.99629486,0.96039945,0.1916022,0.0026006985,0.0032092615,0.0015264631,0.0018588767,0.00013149405,4.7837002e-05,-0.019051775,0.9458481,0.3141156,0.28058878,1.5357059,0.38115078,0.0,0.1,0.035106957,0.01658568,0.061548587,0.03214733,inf,inf,inf,inf,1,1,1,1,2,1,1,1,3,0,0,1
266802997,0,0.0,0.0,1.0085604,1.0178764,-0.07682975,0.99629486,0.96039945,0.1916022,-0.0011807341,0.0018951118,0.0009817114,0.0012925265,0.00013149405,4.7837002e-05,-0.019051775,-0.34289062,1.0036261,-0.35273427,1.537292,0.38115078,0.0,0.1,0.0349836,0.016585676,0.061358273,0.032147307,inf,inf,inf,inf,1,1,1,1,2,1,1,1,3,0,0,1
266822986,0,0.0,0.0,1.008558,1.0179015,-0.07685551,0.99629486,0.96039945,0.1916022,-2.7209233e-05,-0.0011874227,0.0026048266,0.002893613,0.00013149405,4.7837002e-05,-0.019051775,0.1757784,-0.29360402,0.6480386,1.5367835,0.38115078,0.0,0.1,0.03486682,0.016585672,0.061165735,0.032147404,inf,inf,inf,inf,1,1,1,1,2,1,1,1,3,0,0,1
266842974,0,0.0,0.0,1.0085697,1.0179136,-0.076833315,0.99629486,0.96039945,0.1916022,-0.0034671635,-0.0004921638,-0.0017716388,-0.0015051641,0.00013149405,4.7837002e-05,-0.019051775,-0.5990127,1.0408783,-0.16470104,1.5362065,0.38115078,0.0,0.1,0.034756184,0.016585669,0.061005473,0.032147355,inf,inf,inf,inf,1,1,1,1,2,1,1,1,3,0,0,1
266862962,0,0.0,0.0,1.0085596,1.0179691,-0.076843284,0.99629486,0.96039945,0.1916022,-0.00038203903,-0.0031997273,0.0025477149,0.0027922865,0.00013149405,4.7837002e-05,-0.019051775,-0.79298276,-1.4771848,0.2731108,1.5377536,0.38115078,0.0,0.1,0.034651432,0.016585665,0.06083916,0.032147296,inf,inf,inf,inf,1,1,1,1,2,1,1,1,3,0,0,1
266882950,0,0.0,0.0,1.0085412,1.0179888,-0.076845594,0.99629486,0.96039945,0.1916022,-0.0015191674,0.0022628042,-0.002851596,-0.0026289788,0.00013149405,4.7837002e-05,-0.019051775,-0.44587594,0.69705474,-0.19609685,1.5354644,0.38115078,0.0,0.1,0.03455221,0.01658566,0.060690444,0.032147318,inf,inf,inf,inf,1,1,1,1,2,1,1,1,3,0,0,1
266902940,0,0.0,0.0,1.0085495,1.0180324,-0.07682407,0.99629486,0.96039945,0.1916022,0.003708444,-0.0030125498,0.0022417167,0.0024422489,0.00013149405,4.7837002e-05,-0.019051775,-0.64267415,-1.3060026,-0.54084706,1.538011,0.38115078,0.0,0.1,0.034458213,0.016585656,0.06055628,0.032147165,inf,inf,inf,inf,1,1,1,1,2,1,1,1,3,0,0,1
266922927,0,0.0,0.0,1.0085349,1.0180309,-0.07684036,0.99629486,0.96039945,0.1916022,0.0018364269,0.005051146,-0.00015808208,2.0278098e-05,0.00013149405,4.7837002e-05,-0.019051775,0.14213352,0.8064279,-0.13634114,1.5357205,0.38115078,0.0,0.1,0.03436926,0.01658565,0.060422827,0.032147106,inf,inf,inf,inf,1,1,1,1,2,1,1,1,3,0,0,1
266942915,0,0.0,0.0,1.0085534,1.018068,-0.07683163,0.99629486,0.96039945,0.1916022,0.0051499116,-0.0011751024,-0.0014220561,-0.0012658987,0.00013149405,4.7837002e-05,-0.019051775,-0.031539798,-0.45953473,-0.7225685,1.537374,0.38115078,0.0,0.1,0.034258064,0.016585646,0.060259845,0.032147042,inf,inf,inf,inf,1,1,1,1,2,1,1,1,3,0,0,1
266962905,0,0.0,0.0,1.0085213,1.018102,-0.076857276,0.99629486,0.96039945,0.1916022,0.0037480106,0.005993453,0.004382186,0.0045162314,0.00013149405,4.7837002e-05,-0.019051775,1.4194633,0.7710714,0.398032,1.5365728,0.38115078,0.0,0.1,0.034152787,0.01658564,0.060095698,0.03214708,inf,inf,inf,inf,1,1,1,1,2,1,1,1,3,0,0,1
266982892,0,0.0,0.0,1.0085542,1.0181068,-0.07684094,0.99629486,0.96039945,0.1916022,0.0037043234,-0.0024436812,-0.00017486245,-6.275344e-05,0.00013149405,4.7837002e-05,-0.019051775,0.4061736,-0.026346195,0.021014677,1.5362704,0.38115078,0.0,0.1,0.03405306,0.016585635,0.059958503,0.03214701,inf,inf,inf,inf,1,1,1,1,2,1,1,1,3,0,0,1
267002880,0,0.0,0.0,1.0085381,1.0181334,-0.07684053,0.99629486,0.96039945,0.1916022,-0.0010942791,0.0021956835,0.0040942677,0.0041846083,0.00013149405,4.7837002e-05,-0.019051775,0.65500754,0.60056365,0.35471624,1.5377958,0.38115078,0.0,0.1,0.033958666,0.01658563,0.05981309,0.03214707,inf,inf,inf,inf,1,1,1,1,2,1,1,1,3,0,0,1
267022869,0,0.0,0.0,1.0085423,1.0181485,-0.07685168,0.99629486,0.96039945,0.1916022,-0.0039166976,-0.0030550668,-0.00072471536,-0.0006557755,0.00013149405,4.7837002e-05,-0.019051775,-0.6432535,-0.39887774,0.38810566,1.5353538,0.38115078,0.0,0.1,0.03386929,0.016585624,0.059691463,0.032146994,inf,inf,inf,inf,1,1,1,1,2,1,1,1,3,0,0,1
267042857,0,0.0,0.0,1.0085361,1.0181922,-0.07681994,0.99629486,0.96039945,0.1916022,0.0002993853,-0.0011628006,0.0024110733,0.0024589729,0.00013149405,4.7837002e-05,-0.019051775,-0.23970397,-0.8433598,-0.24923964,1.5382861,0.38115078,0.0,0.1,0.03378467,0.016585616,0.059571438,0.032146942,inf,inf,inf,inf,1,1,1,1,2,1,1,1,3,0,0,1
267062846,0,0.0,0.0,1.00855,1.0181962,-0.07683301,0.99629486,0.96039945,0.1916022,-0.00061214005,0.0011718142,-0.00026056668,-0.00023326807,0.00013149405,4.7837002e-05,-0.019051775,-1.2859974,-0.08968684,0.0326879,1.5353223,0.38115078,0.0,0.1,0.033704612,0.01658561,0.05945812,0.032146875,inf,inf,inf,inf,1,1,1,1,2,1,1,1,3,0,0,1
267082834,0,0.0,0.0,1.008557,1.0182344,-0.07681871,0.99629486,0.96039945,0.1916022,0.0045879018,0.00050219265,0.0012703435,0.00127736,0.00013149405,4.7837002e-05,-0.019051775,0.5042346,-0.46372506,-0.28016618,1.5378902,0.38115078,0.0,0.1,0.03362879,0.016585603,0.059361283,0.032146737,inf,inf,inf,inf,1,1,1,1,2,1,1,1,3,0,0,1
267102822,0,0.0,0.0,1.0085372,1.0182418,-0.076821126,0.99629486,0.96039945,0.1916022,0.0005219422,0.005211326,0.0028361287,0.0028234324,0.00013149405,4.7837002e-05,-0.019051775,-0.5229215,0.41713914,0.085580245,1.5363215,0.38115078,0.0,0.1,0.03355711,0.016585596,0.05926035,0.032146726,inf,inf,inf,inf,1,1,1,1,2,1,1,1,3,0,0,1
267122812,0,0.0,0.0,1.0085304,1.0182619,-0.076804645,0.99629486,0.96039945,0.1916022,0.003877092,0.0021704123,-0.00019285572,-0.00022428621,0.00013149405,4.7837002e-05,-0.019051775,1.3167653,0.24287537,-0.16142358,1.5367117,0.38115078,0.0,0.1,0.033489283,0.01658559,0.059177678,0.032146648,inf,inf,inf,inf,1,1,1,1,2,1,1,1,3,0,0,1
267142800,0,0.0,0.0,1.0085181,1.0182813,-0.07680982,0.99629486,0.96039945,0.1916022,-0.00018000425,0.0040944307,0.005324175,0.005274395,0.00013149405,4.7837002e-05,-0.019051775,-0.36552545,0.9791726,0.49061045,1.5373749,0.38115078,0.0,0.1,0.033425122,0.016585583,0.059089325,0.03214659,inf,inf,inf,inf,1,1,1,1,2,1,1,1,3,0,0,1
267162787,0,0.0,0.0,1.0085164,1.0182841,-0.07679434,0.99629486,0.96039945,0.1916022,0.00079254375,8.895414e-05,0.000683463,0.00061557256,0.00013149405,4.7837002e-05,-0.019051775,1.1879747,0.24746415,0.19614732,1.5356308,0.38115078,0.0,0.1,0.03336447,0.016585574,0.05901276,0.03214662,inf,inf,inf,inf,1,1,1,1,2,1,1,1,3,0,0,1
267182776,0,0.0,0.0,1.0085224,1.0183254,-0.076786876,0.99629486,0.96039945,0.1916022,-0.0046202457,0.00032769103,-2.415066e-05,-0.00010999308,0.00013149405,4.7837002e-05,-0.019051775,-1.7942635,0.23174517,-0.40375882,1.5382873,0.38115078,0.0,0.1,0.034271143,0.016585566,0.05992915,0.032146607,inf,inf,inf,inf,1,1,1,1,2,1,1,1,3,0,0,1
267202764,0,0.0,0.0,1.0085889,1.0183382,-0.07687581,0.99629486,0.96039945,0.1916022,-0.002256266,0.005880681,-0.00730712,-0.007410672,0.00013149405,4.7837002e-05,-0.019051775,-2.1151788,1.2112237,-0.3964984,1.5359998,0.38115078,0.0,0.1,0.03418604,0.016585559,0.059802614,0.032146618,inf,inf,inf,inf,1,1,1,1,2,1,1,1,3,0,0,1
267222752,0,0.0,0.0,1.0086684,1.0183573,-0.077032216,0.99629486,0.96039945,0.1916022,0.004541614,0.0006129427,-0.0009693757,-0.0010904424,0.00013149405,4.7837002e-05,-0.019051775,-1.2590854,0.75208557,0.92622226,1.5381576,0.38115078,0.0,0.1,0.034105364,0.016585551,0.059700213,0.03214645,inf,inf,inf,inf,1,1,1,1,2,1,1,1,3,0,0,1
267242742,0,0.0,0.0,1.0086892,1.01839,-0.077007465,0.99629486,0.96039945,0.1916022,0.018508425,0.00042678742,-0.001743612,-0.0018823573,0.00013149405,4.7837002e-05,-0.019051775,1.9401073,-0.19129866,-1.1281073,1.536192,0.38115078,0.0,0.1,0.03402905,0.016585544,0.059591327,0.032146465,inf,inf,inf,inf,1,1,1,1,2,1,1,1,3,0,0,1
267262730,0,0.0,0.0,1.0087312,1.018367,-0.07723824,0.99629486,0.96039945,0.1916022,0.0030626555,0.005458544,-0.004952625,-0.0051092696,0.00013149405,4.7837002e-05,-0.019051775,1.767477,0.9600842,1.3222224,1.5390545,0.38115078,0.0,0.1,0.033930838,0.016585536,0.05945541,0.0321463,inf,inf,inf,inf,1,1,1,1,2,1,1,1,3,0,0,1
267282717,0,0.0,0.0,1.0087538,1.0183626,-0.07732034,0.99629486,0.96039945,0.1916022,0.002646726,-0.007461572,-0.0023299495,-0.0025049637,0.00013149405,4.7837002e-05,-0.019051775,0.4833942,-0.22721823,0.044788428,1.5375427,0.38115078,0.0,0.1,0.033837806,0.016585527,0.059320178,0.032146268,inf,inf,inf,inf,1,1,1,1,2,1,1,1,3,0,0,1
267302705,0,0.0,0.0,1.0088,1.0182918,-0.07738946,0.99629486,0.96039945,0.1916022,-0.005274624,-0.002728829,-0.00020403558,-0.0003988138,0.00013149405,4.7837002e-05,-0.019051775,-0.45066538,0.14986473,0.73100674,1.5387489,0.38115078,0.0,0.10004058,0.034753844,0.016585518,0.06023468,0.032146253,inf,inf,inf,inf,1,1,1,1,2,1,1,1,3,0,0,1
267322693,0,0.0,0.0,1.0088222,1.0182837,-0.077306874,0.99629486,0.96039945,0.1916022,0.009723034,-0.0053881905,0.0007392076,0.00052387407,0.00013149405,4.7837002e-05,-0.019051775,0.329508,-1.008872,-1.1424723,1.5383443,0.38115078,0.0,0.1,0.03463568,0.01658551,0.060064603,0.032146227,inf,inf,inf,inf,1,1,1,1,2,1,1,1,3,0,0,1
267342683,0,0.0,0.0,1.0090165,1.0182223,-0.07745232,0.99629486,0.96039945,0.1916022,0.005622259,0.0031926562,-0.010222696,-0.010459983,0.00013149405,4.7837002e-05,-0.019051775,-1.1033077,0.5991422,-0.32835,1.5390209,0.38115078,0.0,0.10010344,0.03452388,0.0165855,0.05990823,0.032146264,inf,inf,inf,inf,1,1,1,1,2,1,1,1,3,0,0,1
267362671,0,0.0,0.0,1.0090387,1.0183002,-0.07757261,0.99629486,0.96039945,0.1916022,0.007968249,0.0019952192,-0.0024341918,-0.0026947116,0.00013149405,4.7837002e-05,-0.019051775,0.754864,-0.94822705,-0.42530262,1.5391015,0.38115078,0.0,0.10022373,0.034418084,0.016585492,0.059774593,0.03214627,inf,inf,inf,inf,1,1,1,1,2,1,1,1,3,0,0,1
267382658,0,0.0,0.0,1.009089,1.0182121,-0.07769512,0.99629486,0.96039945,0.1916022,-0.0012290013,0.0020184063,0.0016469682,0.0013626111,0.00013149405,4.7837002e-05,-0.019051775,-0.14859812,1.5206952,1.1976115,1.5397091,0.38115078,0.0,0.10034624,0.0342915,0.016585482,0.05960446,0.032146163,inf,inf,inf,inf,1,1,1,1,2,1,1,1,3,0,0,1
267402646,0,0.0,0.0,1.0089356,1.0182658,-0.07768467,0.99629486,0.96039945,0.1916022,-0.001609952,0.00013304259,0.0007306975,0.00042232795,0.00013149405,4.7837002e-05,-0.019051775,1.3367356,-0.6829488,-0.17552854,1.5396348,0.38115078,0.0,0.10033579,0.035215244,0.016585475,0.060487095,0.032145973,inf,inf,inf,inf,1,1,1,1,2,1,1,1,3,0,0,1
267422636,0,0.0,0.0,1.008942,1.0182114,-0.07777035,0.99629486,0.96039945,0.1916022,-0.0010358169,-0.0016423513,-0.0007280249,-0.0010602355,0.00013149405,4.7837002e-05,-0.019051775,-0.95272505,0.5101586,0.7597466,1.539884,0.38115078,0.0,0.10042147,0.035063315,0.016585466,0.060311217,0.032145906,inf,inf,inf,inf,1,1,1,1,2,1,1,1,3,0,0,1
267442623,0,0.0,0.0,1.008865,1.0182867,-0.07767796,0.99629486,0.96039945,0.1916022,0.00046197718,0.0031496054,0.0068953903,0.0065403613,0.00013149405,4.7837002e-05,-0.019051775,0.27633333,-0.9174245,-0.5443576,1.5399971,0.38115078,0.0,0.10032908,0.034920085,0.016585456,0.06009305,0.03214594,inf,inf,inf,inf,1,1,1,1,2,1,1,1,3,0,0,1
267462613,0,0.0,0.0,1.0089289,1.0182753,-0.07780955,0.99629486,0.96039945,0.1916022,0.006277999,-0.0024717187,-0.013582404,-0.013959042,0.00013149405,4.7837002e-05,-0.019051775,-0.4276039,-0.19538832,-0.39343515,1.5402031,0.38115078,0.0,0.10046067,0.034784667,0.016585445,0.059914976,0.032145903,inf,inf,inf,inf,1,1,1,1,2,1,1,1,3,0,0,1
267482600,0,0.0,0.0,1.0089024,1.01829,-0.07796265,0.99629486,0.96039945,0.1916022,-0.0031014343,0.0053177676,0.0016476598,0.0012506917,0.00013149405,4.7837002e-05,-0.019051775,0.031116879,0.371851,0.62571746,1.540494,0.38115078,0.0,0.10061377,0.03465678,0.016585434,0.059729535,0.032145873,inf,inf,inf,inf,1,1,1,1,2,1,1,1,3,0,0,1
267502588,0,0.0,0.0,1.0089318,1.0182552,-0.077996895,0.99629486,0.96039945,0.1916022,0.0071252435,-0.0052109924,-0.0057326066,-0.0061492473,0.00013149405,4.7837002e-05,-0.019051775,-0.28748623,-0.49062607,-0.7710741,1.5402249,0.38115078,0.0,0.100648016,0.03453592,0.016585425,0.0596071,0.032145854,inf,inf,inf,inf,1,1,1,1,2,1,1,1,3,0,0,1
267522576,0,0.0,0.0,1.0088611,1.0182093,-0.078095436,0.99629486,0.96039945,0.1916022,-0.008545427,0.005738053,0.0051403744,0.004705224,0.00013149405,4.7837002e-05,-0.019051775,-0.2638436,0.74275506,1.0630524,1.541268,0.38115078,0.0,0.10074656,0.034422114,0.016585413,0.059462566,0.032145705,inf,inf,inf,inf,1,1,1,1,2,1,1,1,3,0,0,1
267542564,0,0.0,0.0,1.0087107,1.0182416,-0.07801899,0.99629486,0.96039945,0.1916022,0.002689976,-0.00039196323,0.0009528459,0.0005008197,0.00013149405,4.7837002e-05,-0.019051775,1.1911858,-0.32616296,-0.5403185,1.5412744,0.38115078,0.0,0.100670114,0.0343146,0.016585404,0.059342485,0.03214559,inf,inf,inf,inf,1,1,1,1,2,1,1,1,3,0,0,1
267562553,0,0.0,0.0,1.0088004,1.0181555,-0.07812329,0.99629486,0.96039945,0.1916022,0.003783705,0.00082789466,-0.0036530192,-0.0041201985,0.00013149405,4.7837002e-05,-0.019051775,-0.5118654,1.1248571,0.46678215,1.5421605,0.38115078,0.0,0.10077441,0.03421316,0.016585391,0.05920853,0.032145526,inf,inf,inf,inf,1,1,1,1,2,1,1,1,3,0,0,1
267582542,0,0.0,0.0,1.0087409,1.0182154,-0.07814264,0.99629486,0.96039945,0.1916022,-8.68709e-05,0.0029475093,-0.0008151899,-0.0012961607,0.00013149405,4.7837002e-05,-0.019051775,-0.12760898,-0.73937154,-0.7712351,1.5425707,0.38115078,0.0,0.100793764,0.0341174,0.01658538,0.05911517,0.0321455,inf,inf,inf,inf,1,1,1,1,2,1,1,1,3,0,0,1
267602530,0,0.0,0.0,1.0088357,1.0181177,-0.07832133,0.99629486,0.96039945,0.1916022,0.010105982,-0.0068045557,-0.008446359,-0.008939873,0.00013149405,4.7837002e-05,-0.019051775,-0.17282142,0.25710413,0.3374593,1.5432094,0.38115078,0.0,0.10097245,0.034027208,0.016585367,0.058994874,0.03214547,inf,inf,inf,inf,1,1,1,1,2,1,1,1,3,0,0,1
267622518,0,0.0,0.0,1.0088272,1.0180671,-0.078436606,0.99629486,0.96039945,0.1916022,-0.0035068092,0.003766827,-0.00050570123,-0.0010109476,0.00013149405,4.7837002e-05,-0.019051775,-0.034739748,0.38320395,-0.0028344556,1.5438949,0.38115078,0.0,0.10108773,0.033916477,0.016585354,0.05888657,0.032145437,inf,inf,inf,inf,1,1,1,1,2,1,1,1,3,0,0,1
267642506,0,0.0,0.0,1.008832,1.0180712,-0.0785907,0.99629486,0.96039945,0.1916022,0.009333814,-0.0021452247,-0.013693273,-0.014209035,0.00013149405,4.7837002e-05,-0.019051775,0.507091,-0.32124496,-0.8949188,1.5438836,0.38115078,0.0,0.10124182,0.03482225,0.016585343,0.059784573,0.032145385,inf,inf,inf,inf,1,1,1,1,2,1,1,1,3,0,0,1
267662501,0,0.0,0.0,1.0089376,1.0180275,-0.078873575,0.99629486,0.96039945,0.1916022,0.0025021571,0.004114058,-0.00615662,-0.0066812118,0.00013149405,4.7837002e-05,-0.019051775,-0.28823674,0.82099897,0.86993885,1.5448188,0.38115078,0.0,0.101524696,0.03468797,0.01658533,0.059603218,0.032145284,inf,inf,inf,inf,1,1,1,1,2,1,1,1,3,0,0,1
267682482,0,0.0,0.0,1.0088942,1.0180707,-0.078994185,0.99629486,0.96039945,0.1916022,0.005291209,0.0021283291,-0.0072171385,-0.0077491975,0.00013149405,4.7837002e-05,-0.019051775,0.67552835,-0.24299742,-0.5291621,1.544496,0.38115078,0.0,0.101645306,0.034561314,0.016585318,0.059463225,0.032145157,inf,inf,inf,inf,1,1,1,1,2,1,1,1,3,0,0,1
