timestamp,q[0],q[1],q[2],q[3],delta_q_reset[0],delta_q_reset[1],delta_q_reset[2],delta_q_reset[3],quat_reset_counter
264144558,0.7190435,-5.494387e-06,0.0024629529,0.6949608,0.98189545,-8.35762e-13,9.379471e-11,0.18942392,3
264149551,0.71904266,-3.7993107e-06,0.002459386,0.6949616,0.98189545,-8.35762e-13,9.379471e-11,0.18942392,3
264164542,0.71904355,-6.3489892e-06,0.0024620923,0.69496065,0.98189545,-8.35762e-13,9.379471e-11,0.18942392,3
264184531,0.71904397,-9.655918e-06,0.002469048,0.6949603,0.98189545,-8.35762e-13,9.379471e-11,0.18942392,3
264204519,0.71906096,-1.7210281e-05,0.0024685424,0.6949427,0.98189545,-8.35762e-13,9.379471e-11,0.18942392,3
264224507,0.71903926,-5.5107016e-06,0.00246162,0.6949651,0.98189545,-8.35762e-13,9.379471e-11,0.18942392,3
264244497,0.7190559,-4.5560105e-06,0.0024839402,0.69494784,0.98189545,-8.35762e-13,9.379471e-11,0.18942392,3
264264484,0.71903425,1.6023281e-05,0.0024909023,0.6949702,0.98189545,-8.35762e-13,9.379471e-11,0.18942392,3
264284474,0.71906054,-4.1105445e-06,0.0025100478,0.6949429,0.98189545,-8.35762e-13,9.379471e-11,0.18942392,3
264304460,0.71904695,1.3671773e-06,0.0024821763,0.6949571,0.98189545,-8.35762e-13,9.379471e-11,0.18942392,3
264324449,0.7190576,-6.244064e-06,0.0024781427,0.69494605,0.98189545,-8.35762e-13,9.379471e-11,0.18942392,3
264344440,0.7190554,-1.7616298e-05,0.0024976316,0.6949483,0.98189545,-8.35762e-13,9.379471e-11,0.18942392,3
264364425,0.7190667,5.9696013e-06,0.0024929526,0.69493663,0.98189545,-8.35762e-13,9.379471e-11,0.18942392,3
264384415,0.719055,-6.489292e-06,0.0024837921,0.69494873,0.98189545,-8.35762e-13,9.379471e-11,0.18942392,3
264404402,0.7190689,-1.6077007e-05,0.0024769043,0.6949344,0.98189545,-8.35762e-13,9.379471e-11,0.18942392,3
264424390,0.71905166,-1.2533534e-05,0.0024772894,0.6949523,0.98189545,-8.35762e-13,9.379471e-11,0.18942392,3
264444380,0.71908045,-1.2875622e-05,0.0024930956,0.69492245,0.98189545,-8.35762e-13,9.379471e-11,0.18942392,3
264464367,0.71904385,-2.2261906e-05,0.0024810825,0.6949603,0.98189545,-8.35762e-13,9.379471e-11,0.18942392,3
264484356,0.71907794,-3.7272912e-05,0.0024594506,0.6949251,0.98189545,-8.35762e-13,9.379471e-11,0.18942392,3
264504345,0.71907896,-2.330207e-05,0.002473601,0.694924,0.98189545,-8.35762e-13,9.379471e-11,0.18942392,3
264524332,0.71905816,-3.1964057e-05,0.0024879724,0.6949455,0.98189545,-8.35762e-13,9.379471e-11,0.18942392,3
264544320,0.7190704,-4.1603806e-05,0.00249754,0.69493276,0.98189545,-8.35762e-13,9.379471e-11,0.18942392,3
264564309,0.71905416,-5.3791573e-05,0.0025049625,0.6949496,0.98189545,-8.35762e-13,9.379471e-11,0.18942392,3
264584297,0.71906424,-4.295808e-05,0.0024785732,0.6949392,0.98189545,-8.35762e-13,9.379471e-11,0.18942392,3
264604285,0.71906745,-3.2214735e-05,0.0024953918,0.6949359,0.98189545,-8.35762e-13,9.379471e-11,0.18942392,3
264624274,0.71909064,-5.6135712e-05,0.0024772012,0.69491196,0.98189545,-8.35762e-13,9.379471e-11,0.18942392,3
264644263,0.7191102,-7.898835e-05,0.0024191714,0.6948919,0.98189545,-8.35762e-13,9.379471e-11,0.18942392,3
264664251,0.71908784,-6.3098625e-05,0.0024396928,0.694915,0.98189545,-8.35762e-13,9.379471e-11,0.18942392,3
264684239,0.71906304,-3.2572567e-05,0.0023870044,0.69494075,0.98189545,-8.35762e-13,9.379471e-11,0.18942392,3
264704228,0.71908534,-0.00012528674,0.0023978553,0.69491774,0.98189545,-8.35762e-13,9.379471e-11,0.18942392,3
264724217,0.71908504,-7.0546346e-05,0.002352284,0.6949181,0.98189545,-8.35762e-13,9.379471e-11,0.18942392,3
264744203,0.7190476,-0.00016122233,0.0023714746,0.6949569,0.98189545,-8.35762e-13,9.379471e-11,0.18942392,3
264764191,0.71912265,-6.404619e-05,0.002383169,0.6948791,0.98189545,-8.35762e-13,9.379471e-11,0.18942392,3
264784179,0.71900845,-0.00012676914,0.002391232,0.6949973,0.98189545,-8.35762e-13,9.379471e-11,0.18942392,3
264804168,0.7191915,-8.119246e-05,0.0023782202,0.69480795,0.98189545,-8.35762e-13,9.379471e-11,0.18942392,3
264824156,0.7190051,-0.0001050946,0.0024673038,0.69500047,0.98189545,-8.35762e-13,9.379471e-11,0.18942392,3
264844144,0.7191236,-0.000114480965,0.0024032358,0.69487804,0.98189545,-8.35762e-13,9.379471e-11,0.18942392,3
264864133,0.7191416,-0.00010725598,0.0024256953,0.6948594,0.98189545,-8.35762e-13,9.379471e-11,0.18942392,3
264884121,0.7189534,-8.671281e-05,0.002446126,0.69505405,0.98189545,-8.35762e-13,9.379471e-11,0.18942392,3
264904109,0.7192869,-0.00012435476,0.002413583,0.69470894,0.98189545,-8.35762e-13,9.379471e-11,0.18942392,3
264924097,0.7189538,-6.585256e-05,0.0024333843,0.69505364,0.98189545,-8.35762e-13,9.379471e-11,0.18942392,3
264944086,0.7191049,-0.00012515881,0.0023916203,0.6948974,0.98189545,-8.35762e-13,9.379471e-11,0.18942392,3
264964074,0.7192898,-0.0001462738,0.0024137103,0.694706,0.98189545,-8.35762e-13,9.379471e-11,0.18942392,3
264984062,0.7187757,-4.3422508e-05,0.0023949547,0.695238,0.98189545,-8.35762e-13,9.379471e-11,0.18942392,3
265004051,0.71954435,-0.00022438756,0.0024014092,0.69444233,0.98189545,-8.35762e-13,9.379471e-11,0.18942392,3
265024039,0.71876574,-2.7125534e-05,0.0024262043,0.6952481,0.98189545,-8.35762e-13,9.379471e-11,0.18942392,3
265044027,0.7193536,-0.00019706691,0.002293789,0.6946403,0.98189545,-8.35762e-13,9.379471e-11,0.18942392,3
265064016,0.719148,-9.348686e-05,0.002383642,0.69485295,0.98189545,-8.35762e-13,9.379471e-11,0.18942392,3
265084004,0.71879685,-0.00011745085,0.0023384735,0.69521624,0.98189545,-8.35762e-13,9.379471e-11,0.18942392,3
265103992,0.71950454,-0.00015212367,0.002306829,0.69448394,0.98189545,-8.35762e-13,9.379471e-11,0.18942392,3
265123980,0.7186826,-7.415534e-05,0.0023536733,0.6953344,0.98189545,-8.35762e-13,9.379471e-11,0.18942392,3
265143969,0.7193532,-0.0001984714,0.0022204134,0.694641,0.98189545,-8.35762e-13,9.379471e-11,0.18942392,3
265163957,0.7190382,-0.00014979701,0.0023044886,0.6949668,0.98189545,-8.35762e-13,9.379471e-11,0.18942392,3
265183946,0.7188892,-0.00013278771,0.002310356,0.69512093,0.98189545,-8.35762e-13,9.379471e-11,0.18942392,3
265203934,0.7193942,-0.00023667017,0.002222528,0.69459856,0.98189545,-8.35762e-13,9.379471e-11,0.18942392,3
265223923,0.71870005,-8.362264e-05,0.0023051566,0.6953165,0.98189545,-8.35762e-13,9.379471e-11,0.18942392,3
265243910,0.7193583,-0.00025465837,0.0022075938,0.6946356,0.98189545,-8.35762e-13,9.379471e-11,0.18942392,3
265263898,0.71898425,-0.000101237114,0.0022626026,0.69502276,0.98189545,-8.35762e-13,9.379471e-11,0.18942392,3
265283887,0.718968,-0.00019143913,0.002224144,0.69503963,0.98189545,-8.35762e-13,9.379471e-11,0.18942392,3
265303875,0.7193204,-0.00018847744,0.0021882332,0.6946751,0.98189545,-8.35762e-13,9.379471e-11,0.18942392,3
265323864,0.7187435,-0.00014063153,0.0022799768,0.6952717,0.98189545,-8.35762e-13,9.379471e-11,0.18942392,3
265343852,0.71931773,-0.00023497811,0.0022029413,0.69467777,0.98189545,-8.35762e-13,9.379471e-11,0.18942392,3
265363840,0.71894675,-0.00017808043,0.0022954303,0.69506145,0.98189545,-8.35762e-13,9.379471e-11,0.18942392,3
265383828,0.7189873,-0.00013907028,0.0023288818,0.69501936,0.98189545,-8.35762e-13,9.379471e-11,0.18942392,3
265403816,0.7193062,-0.00022346538,0.002338906,0.6946893,0.98189545,-8.35762e-13,9.379471e-11,0.18942392,3
265423805,0.7187179,-5.5626413e-05,0.002342717,0.6952979,0.98189545,-8.35762e-13,9.379471e-11,0.18942392,3
265443793,0.71940887,-0.0002670339,0.0023466444,0.6945829,0.98189545,-8.35762e-13,9.379471e-11,0.18942392,3
265463782,0.7189343,-6.211729e-05,0.0023653894,0.695074,0.98189545,-8.35762e-13,9.379471e-11,0.18942392,3
265483772,0.7190618,-0.00018982135,0.0022857834,0.69494236,0.98189545,-8.35762e-13,9.379471e-11,0.18942392,3
265503759,0.7193056,-0.00016415787,0.0023350823,0.6946899,0.98189545,-8.35762e-13,9.379471e-11,0.18942392,3
265523748,0.71874374,-9.62053e-05,0.0023331186,0.69527125,0.98189545,-8.35762e-13,9.379471e-11,0.18942392,3
265543735,0.7194133,-0.00019310902,0.0022814337,0.6945786,0.98189545,-8.35762e-13,9.379471e-11,0.18942392,3
265563723,0.7188378,-8.5648775e-05,0.002306636,0.6951741,0.98189545,-8.35762e-13,9.379471e-11,0.18942392,3
265583712,0.71911466,-0.00020834169,0.0022076494,0.694888,0.98189545,-8.35762e-13,9.379471e-11,0.18942392,3
265603700,0.71925825,-0.00018881437,0.0022693016,0.6947391,0.98189545,-8.35762e-13,9.379471e-11,0.18942392,3
265623688,0.7187542,-7.7413344e-05,0.0022607006,0.69526064,0.98189545,-8.35762e-13,9.379471e-11,0.18942392,3
265643677,0.7194322,-0.00025698877,0.0021849126,0.69455934,0.98189545,-8.35762e-13,9.379471e-11,0.18942392,3
265663665,0.71880263,-9.661364e-05,0.0023214812,0.69521046,0.98189545,-8.35762e-13,9.379471e-11,0.18942392,3
265683655,0.71917486,-0.0001918243,0.0022775466,0.69482535,0.98189545,-8.35762e-13,9.379471e-11,0.18942392,3
265703641,0.7191903,-0.00016092701,0.0022929357,0.69480944,0.98189545,-8.35762e-13,9.379471e-11,0.18942392,3
265723629,0.71879494,-8.642594e-05,0.002386928,0.695218,0.98189545,-8.35762e-13,9.379471e-11,0.18942392,3
265743618,0.7194742,-0.00025823375,0.002263334,0.69451547,0.98189545,-8.35762e-13,9.379471e-11,0.18942392,3
265763606,0.7187217,-5.474985e-05,0.002365517,0.6952939,0.98189545,-8.35762e-13,9.379471e-11,0.18942392,3
265783594,0.7193012,-0.00021839114,0.0023082779,0.6946946,0.98189545,-8.35762e-13,9.379471e-11,0.18942392,3
265803583,0.7190434,-0.00011043848,0.002308983,0.6949615,0.98189545,-8.35762e-13,9.379471e-11,0.18942392,3
265823571,0.71888375,-0.00016785425,0.0022743603,0.6951266,0.98189545,-8.35762e-13,9.379471e-11,0.18942392,3
265843560,0.7193965,-0.00017427388,0.0022099384,0.6945962,0.98189545,-8.35762e-13,9.379471e-11,0.18942392,3
265863548,0.71874994,-8.722458e-05,0.0022479696,0.69526505,0.98189545,-8.35762e-13,9.379471e-11,0.18942392,3
265883536,0.71940243,-0.000210886,0.0021088503,0.69459033,0.98189545,-8.35762e-13,9.379471e-11,0.18942392,3
265903524,0.7189388,-0.0001233633,0.0022307679,0.6950698,0.98189545,-8.35762e-13,9.379471e-11,0.18942392,3
265923512,0.7190016,-0.00014838319,0.0022305022,0.69500494,0.98189545,-8.35762e-13,9.379471e-11,0.18942392,3
265943503,0.71931404,-0.00021592753,0.0022192213,0.6946815,0.98189545,-8.35762e-13,9.379471e-11,0.18942392,3
265963491,0.7186695,-2.8567343e-05,0.002288521,0.69534814,0.98189545,-8.35762e-13,9.379471e-11,0.18942392,3
265983477,0.71944547,-0.00025464923,0.0022518232,0.69454527,0.98189545,-8.35762e-13,9.379471e-11,0.18942392,3
266003466,0.71877897,-2.2670989e-05,0.002307707,0.6952349,0.98189545,-8.35762e-13,9.379471e-11,0.18942392,3
266028451,0.71886474,-9.4398165e-05,0.0022259026,0.69514644,0.98189545,-8.35762e-13,9.379471e-11,0.18942392,3
266043442,0.71916574,-0.000102307895,0.0023445038,0.69483465,0.98189545,-8.35762e-13,9.379471e-11,0.18942392,3
266063431,0.71882826,-0.00017841105,0.0022225524,0.6951841,0.98189545,-8.35762e-13,9.379471e-11,0.18942392,3
266083419,0.7194723,-0.00018985527,0.0022477047,0.69451755,0.98189545,-8.35762e-13,9.379471e-11,0.18942392,3
266103407,0.71868706,-0.00010860999,0.0021997744,0.6953302,0.98189545,-8.35762e-13,9.379471e-11,0.18942392,3
266123396,0.71932894,-0.00023085877,0.0021707,0.6946662,0.98189545,-8.35762e-13,9.379471e-11,0.18942392,3
266143384,0.7189628,-0.00011815163,0.0021744752,0.69504523,0.98189545,-8.35762e-13,9.379471e-11,0.18942392,3
266163372,0.7189174,-0.00010449997,0.0021787486,0.6950921,0.98189545,-8.35762e-13,9.379471e-11,0.18942392,3
266183362,0.7193863,-0.00023359827,0.0021667106,0.69460684,0.98189545,-8.35762e-13,9.379471e-11,0.18942392,3
266203353,0.7186592,-3.5151934e-05,0.002233438,0.6953589,0.98189545,-8.35762e-13,9.379471e-11,0.18942392,3
266223336,0.71950185,-0.00028467734,0.0021637268,0.69448715,0.98189545,-8.35762e-13,9.379471e-11,0.18942392,3
266243325,0.71873987,-3.508831e-05,0.0022801326,0.69527537,0.98189545,-8.35762e-13,9.379471e-11,0.18942392,3
266263313,0.719262,-0.00022471427,0.002209468,0.6947354,0.98189545,-8.35762e-13,9.379471e-11,0.18942392,3
266283302,0.7191131,-9.568551e-05,0.002258788,0.6948895,0.98189545,-8.35762e-13,9.379471e-11,0.18942392,3
266303290,0.7189008,-0.00010014266,0.0022241394,0.69510925,0.98189545,-8.35762e-13,9.379471e-11,0.18942392,3
266323278,0.71950084,-0.00023250542,0.0021784608,0.69448817,0.98189545,-8.35762e-13,9.379471e-11,0.18942392,3
266343267,0.7186432,-8.016512e-05,0.0021677336,0.69537574,0.98189545,-8.35762e-13,9.379471e-11,0.18942392,3
266363255,0.7194908,-0.00022865199,0.0021033396,0.69449884,0.98189545,-8.35762e-13,9.379471e-11,0.18942392,3
266383243,0.71881044,-8.117616e-05,0.0022307576,0.69520265,0.98189545,-8.35762e-13,9.379471e-11,0.18942392,3
266403232,0.71913254,-0.00015538698,0.0022314142,0.6948694,0.98189545,-8.35762e-13,9.379471e-11,0.18942392,3
266423220,0.71920925,-0.0001883317,0.002171557,0.6947902,0.98189545,-8.35762e-13,9.379471e-11,0.18942392,3
266443208,0.7187764,-0.00010988889,0.0022839396,0.6952376,0.98189545,-8.35762e-13,9.379471e-11,0.18942392,3
266463196,0.7194931,-0.0001947524,0.0022446178,0.694496,0.98189545,-8.35762e-13,9.379471e-11,0.18942392,3
266483185,0.7186091,-4.9802755e-05,0.0022570363,0.6954106,0.98189545,-8.35762e-13,9.379471e-11,0.18942392,3
266503176,0.71945,-0.00022439666,0.002172608,0.69454086,0.98189545,-8.35762e-13,9.379471e-11,0.18942392,3
266523161,0.71881354,-9.104443e-05,0.0022588193,0.6951993,0.98189545,-8.35762e-13,9.379471e-11,0.18942392,3
266543149,0.71910876,-0.00023314334,0.0020746114,0.6948945,0.98189545,-8.35762e-13,9.379471e-11,0.18942392,3
266563138,0.71918863,-0.00015423352,0.002159517,0.69481164,0.98189545,-8.35762e-13,9.379471e-11,0.18942392,3
266583126,0.7187164,-0.00010361899,0.0022066708,0.6952999,0.98189545,-8.35762e-13,9.379471e-11,0.18942392,3
266603114,0.7194538,-0.00021938309,0.0021045876,0.6945371,0.98189545,-8.35762e-13,9.379471e-11,0.18942392,3
266623102,0.7186008,-4.206115e-05,0.0022184912,0.6954193,0.98189545,-8.35762e-13,9.379471e-11,0.18942392,3
266643091,0.7194224,-0.00021710213,0.0022499294,0.6945692,0.98189545,-8.35762e-13,9.379471e-11,0.18942392,3
266663079,0.71888036,-4.196695e-05,0.0022662105,0.69513017,0.98189545,-8.35762e-13,9.379471e-11,0.18942392,3
266683067,0.7190537,-0.00018250935,0.0021673904,0.6949511,0.98189545,-8.35762e-13,9.379471e-11,0.18942392,3
266703056,0.71928144,-0.00019966198,0.0022050387,0.6947153,0.98189545,-8.35762e-13,9.379471e-11,0.18942392,3
266723044,0.7186578,-9.870315e-05,0.0021549296,0.6953606,0.98189545,-8.35762e-13,9.379471e-11,0.18942392,3
266743032,0.7194623,-0.00023191719,0.0020856922,0.69452834,0.98189545,-8.35762e-13,9.379471e-11,0.18942392,3
266763021,0.7185668,-1.4678323e-05,0.0022322848,0.6954545,0.98189545,-8.35762e-13,9.379471e-11,0.18942392,3
266783009,0.7194035,-0.00022460282,0.0021820262,0.6945889,0.98189545,-8.35762e-13,9.379471e-11,0.18942392,3
266802997,0.7188525,-3.295278e-05,0.0022677772,0.69515896,0.98189545,-8.35762e-13,9.379471e-11,0.18942392,3
266822986,0.71902925,-0.00016724192,0.0022427482,0.6949762,0.98189545,-8.35762e-13,9.379471e-11,0.18942392,3
266842974,0.7192297,-0.00015820676,0.0022682692,0.69476867,0.98189545,-8.35762e-13,9.379471e-11,0.18942392,3
266862962,0.71869206,-8.1923674e-05,0.0021916959,0.6953251,0.98189545,-8.35762e-13,9.379471e-11,0.18942392,3
266882950,0.7194874,-0.00023447182,0.0021456238,0.6945022,0.98189545,-8.35762e-13,9.379471e-11,0.18942392,3
266902940,0.7186026,-5.7487578e-05,0.0022220474,0.6954174,0.98189545,-8.35762e-13,9.379471e-11,0.18942392,3
266922927,0.7193985,-0.00025644025,0.0021087793,0.6945944,0.98189545,-8.35762e-13,9.379471e-11,0.18942392,3
266942915,0.718824,-0.00010339075,0.0021848017,0.6951887,0.98189545,-8.35762e-13,9.379471e-11,0.18942392,3
266962905,0.71910244,-0.00016474105,0.0021942535,0.69490063,0.98189545,-8.35762e-13,9.379471e-11,0.18942392,3
266982892,0.7192075,-0.00015713248,0.0022101905,0.69479185,0.98189545,-8.35762e-13,9.379471e-11,0.18942392,3
267002880,0.7186774,-3.1395386e-05,0.002336209,0.69533974,0.98189545,-8.35762e-13,9.379471e-11,0.18942392,3
267022869,0.7195259,-0.00023260446,0.002204701,0.6944622,0.98189545,-8.35762e-13,9.379471e-11,0.18942392,3
267042857,0.71850693,-2.744508e-06,0.0022471538,0.6955162,0.98189545,-8.35762e-13,9.379471e-11,0.18942392,3
267062846,0.7195368,-0.00029807506,0.0020746468,0.6944513,0.98189545,-8.35762e-13,9.379471e-11,0.18942392,3
267082834,0.7186446,-1.3169651e-05,0.0021853342,0.6953742,0.98189545,-8.35762e-13,9.379471e-11,0.18942392,3
267102822,0.7191897,-0.00023248213,0.0021252306,0.6948105,0.98189545,-8.35762e-13,9.379471e-11,0.18942392,3
267122812,0.7190542,-7.191337e-05,0.0021814085,0.69495064,0.98189545,-8.35762e-13,9.379471e-11,0.18942392,3
267147796,0.71850187,2.6506246e-05,0.0022787333,0.69552135,0.98189545,-8.35762e-13,9.379471e-11,0.18942392,3
267162787,0.7194297,-0.00016889443,0.002258211,0.69456166,0.98189545,-8.35762e-13,9.379471e-11,0.18942392,3
267182776,0.7185065,-5.6312852e-05,0.0022215766,0.6955167,0.98189545,-8.35762e-13,9.379471e-11,0.18942392,3
267202764,0.7193014,-0.00041562883,0.0016892448,0.69469595,0.98189545,-8.35762e-13,9.379471e-11,0.18942392,3
267222752,0.7185515,-0.00033033727,0.0015740286,0.6954718,0.98189545,-8.35762e-13,9.379471e-11,0.18942392,3
267242742,0.7192345,-0.0006255932,0.0010019869,0.69476646,0.98189545,-8.35762e-13,9.379471e-11,0.18942392,3
267262730,0.7182397,-7.572976e-05,0.00093492557,0.6957951,0.98189545,-8.35762e-13,9.379471e-11,0.18942392,3
267287715,0.7187057,-0.001082289,0.00075684,0.6953132,0.98189545,-8.35762e-13,9.379471e-11,0.18942392,3
267302705,0.71834534,-0.0009888546,0.0008014513,0.6956856,0.98189545,-8.35762e-13,9.379471e-11,0.18942392,3
267322693,0.71848536,-0.0014107457,7.9099475e-05,0.6955407,0.98189545,-8.35762e-13,9.379471e-11,0.18942392,3
267347679,0.7183005,-0.0014549375,-0.00046699916,0.69573134,0.98189545,-8.35762e-13,9.379471e-11,0.18942392,3
267362671,0.7182215,-0.0016396864,-0.0005125387,0.69581246,0.98189545,-8.35762e-13,9.379471e-11,0.18942392,3
267382658,0.7180094,-0.0018919356,-0.00041484978,0.69603074,0.98189545,-8.35762e-13,9.379471e-11,0.18942392,3
267402646,0.7180361,-0.0015508777,-0.00028459355,0.69600415,0.98189545,-8.35762e-13,9.379471e-11,0.18942392,3
267427632,0.71791995,-0.0020894192,-0.0005209326,0.6961224,0.98189545,-8.35762e-13,9.379471e-11,0.18942392,3
267442623,0.7179096,-0.0017438265,-0.0007086302,0.6961339,0.98189545,-8.35762e-13,9.379471e-11,0.18942392,3
267462613,0.7178372,-0.0020013049,-0.0012807831,0.6962069,0.98189545,-8.35762e-13,9.379471e-11,0.18942392,3
267487598,0.71773875,-0.0019212886,-0.00096362823,0.6963092,0.98189545,-8.35762e-13,9.379471e-11,0.18942392,3
267502588,0.71782815,-0.0024614574,-0.001242293,0.6962149,0.98189545,-8.35762e-13,9.379471e-11,0.18942392,3
267522576,0.71746653,-0.0019584033,-0.0007311191,0.6965899,0.98189545,-8.35762e-13,9.379471e-11,0.18942392,3
267542564,0.717464,-0.0020536126,-0.001386105,0.6965912,0.98189545,-8.35762e-13,9.379471e-11,0.18942392,3
267562553,0.7171546,-0.002292272,-0.0017702621,0.6969082,0.98189545,-8.35762e-13,9.379471e-11,0.18942392,3
267582542,0.71701384,-0.0014425609,-0.0018299503,0.69705504,0.98189545,-8.35762e-13,9.379471e-11,0.18942392,3
267602530,0.71678907,-0.002285846,-0.002096408,0.69728327,0.98189545,-8.35762e-13,9.379471e-11,0.18942392,3
267622518,0.7165512,-0.0018736959,-0.001746137,0.69752985,0.98189545,-8.35762e-13,9.379471e-11,0.18942392,3
267642506,0.71655405,-0.0022592142,-0.0021796336,0.69752455,0.98189545,-8.35762e-13,9.379471e-11,0.18942392,3
267662501,0.7162267,-0.0025762327,-0.0021308395,0.6978597,0.98189545,-8.35762e-13,9.379471e-11,0.18942392,3
267687480,0.7162968,-0.002706029,-0.0027536922,0.6977851,0.98189545,-8.35762e-13,9.379471e-11,0.18942392,3
267707470,0.71583325,-0.0024553782,-0.0027702835,0.6982615,0.98189545,-8.35762e-13,9.379471e-11,0.18942392,3
267722459,0.7158765,-0.0019941886,-0.0029843794,0.69821775,0.98189545,-8.35762e-13,9.379471e-11,0.18942392,3
267742447,0.71547604,-0.0025663096,-0.0035663326,0.6986236,0.98189545,-8.35762e-13,9.379471e-11,0.18942392,3
267767433,0.71508414,-0.0014758045,-0.0032298223,0.69902945,0.98189545,-8.35762e-13,9.379471e-11,0.18942392,3
267782424,0.7150054,-0.0022347176,-0.003607649,0.6991061,0.98189545,-8.35762e-13,9.379471e-11,0.18942392,3
267802414,0.714786,-0.0032369457,-0.0036478827,0.69932634,0.98189545,-8.35762e-13,9.379471e-11,0.18942392,3
267822401,0.7145609,-0.0028333487,-0.0036208848,0.69955814,0.98189545,-8.35762e-13,9.379471e-11,0.18942392,3
267847386,0.7140433,-0.003750641,-0.003918413,0.7000806,0.98189545,-8.35762e-13,9.379471e-11,0.18942392,3
267862377,0.7139173,-0.003888907,-0.004293137,0.70020616,0.98189545,-8.35762e-13,9.379471e-11,0.18942392,3
267882365,0.7136297,-0.004871971,-0.00495649,0.7004886,0.98189545,-8.35762e-13,9.379471e-11,0.18942392,3
267907351,0.7131083,-0.004535158,-0.0049180146,0.701022,0.98189545,-8.35762e-13,9.379471e-11,0.18942392,3
267922344,0.71290374,-0.0054400363,-0.00524105,0.70122117,0.98189545,-8.35762e-13,9.379471e-11,0.18942392,3
267942330,0.71242553,-0.0050412347,-0.0050811497,0.70171124,0.98189545,-8.35762e-13,9.379471e-11,0.18942392,3
267967316,0.711747,-0.004313588,-0.006061501,0.7023966,0.98189545,-8.35762e-13,9.379471e-11,0.18942392,3
267987304,0.71111476,-0.002764549,-0.00664905,0.7030391,0.98189545,-8.35762e-13,9.379471e-11,0.18942392,3
268002295,0.7106661,-0.002829931,-0.007912934,0.70347935,0.98189545,-8.35762e-13,9.379471e-11,0.18942392,3
268022285,0.7102054,-0.0030812316,-0.009375555,0.7039255,0.98189545,-8.35762e-13,9.379471e-11,0.18942392,3
268047270,0.70951,-0.0010355006,-0.010807127,0.7046117,0.98189545,-8.35762e-13,9.379471e-11,0.18942392,3
268062262,0.7091912,-0.0003243673,-0.011473617,0.70492274,0.98189545,-8.35762e-13,9.379471e-11,0.18942392,3
268082248,0.7086911,-0.00085339515,-0.012741149,0.7054034,0.98189545,-8.35762e-13,9.379471e-11,0.18942392,3
268102239,0.7081723,-0.0018096048,-0.0143657485,0.7058912,0.98189545,-8.35762e-13,9.379471e-11,0.18942392,3
268127224,0.70759976,-0.0018343932,-0.016184144,0.70642585,0.98189545,-8.35762e-13,9.379471e-11,0.18942392,3
268142215,0.7073569,-0.0016355268,-0.016829757,0.7066543,0.98189545,-8.35762e-13,9.379471e-11,0.18942392,3
268162202,0.70686215,-0.0011301427,-0.01827044,0.7071145,0.98189545,-8.35762e-13,9.379471e-11,0.18942392,3
268187188,0.7059831,2.6295415e-05,-0.020020593,0.7079457,0.98189545,-8.35762e-13,9.379471e-11,0.18942392,3
268202178,0.7055056,0.00083242485,-0.021344166,0.7083824,0.98189545,-8.35762e-13,9.379471e-11,0.18942392,3
268222166,0.7050768,0.0012959449,-0.023121357,0.7087528,0.98189545,-8.35762e-13,9.379471e-11,0.18942392,3
268247152,0.70455027,0.0007901762,-0.02354314,0.709263,0.98189545,-8.35762e-13,9.379471e-11,0.18942392,3
268262144,0.7043253,0.00010708506,-0.024259651,0.70946276,0.98189545,-8.35762e-13,9.379471e-11,0.18942392,3
268282134,0.7038349,0.0002269612,-0.026078962,0.7098847,0.98189545,-8.35762e-13,9.379471e-11,0.18942392,3
268302119,0.7032637,0.001728748,-0.027725851,0.71038616,0.98189545,-8.35762e-13,9.379471e-11,0.18942392,3
268327106,0.70270914,0.0029942812,-0.029448722,0.7108612,0.98189545,-8.35762e-13,9.379471e-11,0.18942392,3
268342097,0.7024006,0.002409389,-0.030441253,0.71112657,0.98189545,-8.35762e-13,9.379471e-11,0.18942392,3
268362085,0.7022232,0.0018973015,-0.033067428,0.71118605,0.98189545,-8.35762e-13,9.379471e-11,0.18942392,3
268387071,0.70185405,0.0018414397,-0.03468109,0.7114737,0.98189545,-8.35762e-13,9.379471e-11,0.18942392,3
268407060,0.70184284,0.002544085,-0.033955853,0.7115176,0.98189545,-8.35762e-13,9.379471e-11,0.18942392,3
268422050,0.70171297,0.002646287,-0.03414118,0.71163636,0.98189545,-8.35762e-13,9.379471e-11,0.18942392,3
268442037,0.7015358,0.0019564377,-0.035998337,0.7117217,0.98189545,-8.35762e-13,9.379471e-11,0.18942392,3
268467025,0.7016322,-6.9624425e-06,-0.037743088,0.711539,0.98189545,-8.35762e-13,9.379471e-11,0.18942392,3
268482015,0.7016338,-0.0005330729,-0.03811643,0.71151733,0.98189545,-8.35762e-13,9.379471e-11,0.18942392,3
268502003,0.7016458,-0.0006220465,-0.037849654,0.7115197,0.98189545,-8.35762e-13,9.379471e-11,0.18942392,3
268526989,0.701808,-0.0013110836,-0.036962964,0.7114054,0.98189545,-8.35762e-13,9.379471e-11,0.18942392,3
268546977,0.70184666,-0.001985942,-0.038253702,0.71129745,0.98189545,-8.35762e-13,9.379471e-11,0.18942392,3
268561972,0.70200944,-0.00284405,-0.039287314,0.7110775,0.98189545,-8.35762e-13,9.379471e-11,0.18942392,3
268581956,0.70215464,-0.0042994795,-0.038890272,0.7109487,0.98189545,-8.35762e-13,9.379471e-11,0.18942392,3
268601944,0.70219,-0.005010668,-0.038513,0.7109297,0.98189545,-8.35762e-13,9.379471e-11,0.18942392,3
268621933,0.7022551,-0.005681686,-0.038333066,0.71086997,0.98189545,-8.35762e-13,9.379471e-11,0.18942392,3
268641921,0.7022683,-0.0070560863,-0.039689533,0.71077013,0.98189545,-8.35762e-13,9.379471e-11,0.18942392,3
268666907,0.70238376,-0.008281745,-0.039660607,0.7106445,0.98189545,-8.35762e-13,9.379471e-11,0.18942392,3
268686896,0.7024938,-0.008622089,-0.038872298,0.7105752,0.98189545,-8.35762e-13,9.379471e-11,0.18942392,3
268701886,0.7026748,-0.008719412,-0.037752006,0.7104554,0.98189545,-8.35762e-13,9.379471e-11,0.18942392,3
268721874,0.7027827,-0.00895283,-0.038039148,0.71033055,0.98189545,-8.35762e-13,9.379471e-11,0.18942392,3
268746860,0.70298696,-0.0090380665,-0.039041728,0.7100728,0.98189545,-8.35762e-13,9.379471e-11,0.18942392,3
268761851,0.70317537,-0.008393876,-0.039367825,0.7098761,0.98189545,-8.35762e-13,9.379471e-11,0.18942392,3
268781841,0.7034986,-0.007345492,-0.037785906,0.70965344,0.98189545,-8.35762e-13,9.379471e-11,0.18942392,3
268806824,0.704053,-0.0066787894,-0.034834277,0.70926124,0.98189545,-8.35762e-13,9.379471e-11,0.18942392,3
268826813,0.70425045,-0.0061157923,-0.033196524,0.70914876,0.98189545,-8.35762e-13,9.379471e-11,0.18942392,3
268841804,0.7042657,-0.006839758,-0.03348637,0.70911336,0.98189545,-8.35762e-13,9.379471e-11,0.18942392,3
268861792,0.7042621,-0.007828937,-0.03409711,0.7090776,0.98189545,-8.35762e-13,9.379471e-11,0.18942392,3
268886779,0.70427203,-0.0077968747,-0.033053335,0.70911753,0.98189545,-8.35762e-13,9.379471e-11,0.18942392,3
268901769,0.7043582,-0.006769542,-0.031537697,0.7091115,0.98189545,-8.35762e-13,9.379471e-11,0.18942392,3
268921757,0.7044583,-0.005976011,-0.030236123,0.7090759,0.98189545,-8.35762e-13,9.379471e-11,0.18942392,3
268946744,0.70454484,-0.006355954,-0.030351697,0.70898163,0.98189545,-8.35762e-13,9.379471e-11,0.18942392,3
268966731,0.7045756,-0.0071861553,-0.03165131,0.7088863,0.98189545,-8.35762e-13,9.379471e-11,0.18942392,3
268981724,0.7046851,-0.0066687576,-0.031161249,0.70880425,0.98189545,-8.35762e-13,9.379471e-11,0.18942392,3
269006707,0.7048579,-0.005023941,-0.029499106,0.7087171,0.98189545,-8.35762e-13,9.379471e-11,0.18942392,3
269026698,0.70489466,-0.003633511,-0.028071733,0.7087471,0.98189545,-8.35762e-13,9.379471e-11,0.18942392,3
269041690,0.7049912,-0.0040190946,-0.028172707,0.70864487,0.98189545,-8.35762e-13,9.379471e-11,0.18942392,3
269061675,0.7052172,-0.0051907497,-0.028931627,0.7083819,0.98189545,-8.35762e-13,9.379471e-11,0.18942392,3
269086661,0.7054132,-0.0056106653,-0.029162722,0.7081739,0.98189545,-8.35762e-13,9.379471e-11,0.18942392,3
269106649,0.705702,-0.003884691,-0.027776873,0.7079535,0.98189545,-8.35762e-13,9.379471e-11,0.18942392,3
269121640,0.7058898,-0.0028110486,-0.026856886,0.7078068,0.98189545,-8.35762e-13,9.379471e-11,0.18942392,3
269146626,0.7061045,-0.002849981,-0.026337778,0.707612,0.98189545,-8.35762e-13,9.379471e-11,0.18942392,3
269166617,0.70611423,-0.0030645246,-0.02727228,0.7075659,0.98189545,-8.35762e-13,9.379471e-11,0.18942392,3
269181605,0.7061971,-0.002063898,-0.027122578,0.7074927,0.98189545,-8.35762e-13,9.379471e-11,0.18942392,3
269201594,0.7062493,-0.001442994,-0.027090931,0.7074433,0.98189545,-8.35762e-13,9.379471e-11,0.18942392,3
269226581,0.7065051,-0.00149273,-0.024806356,0.7072715,0.98189545,-8.35762e-13,9.379471e-11,0.18942392,3
269246567,0.706429,-0.0004445379,-0.024129242,0.70737237,0.98189545,-8.35762e-13,9.379471e-11,0.18942392,3
269261558,0.70644397,-0.00038654782,-0.024323545,0.70735085,0.98189545,-8.35762e-13,9.379471e-11,0.18942392,3
269286544,0.70645916,-0.00091209414,-0.025535733,0.70729244,0.98189545,-8.35762e-13,9.379471e-11,0.18942392,3
269306533,0.7064025,-0.0005276185,-0.024874188,0.707373,0.98189545,-8.35762e-13,9.379471e-11,0.18942392,3
269321523,0.7063237,-1.8512039e-05,-0.02482502,0.7074536,0.98189545,-8.35762e-13,9.379471e-11,0.18942392,3
269341511,0.7063827,-0.00062093406,-0.02445468,0.70740736,0.98189545,-8.35762e-13,9.379471e-11,0.18942392,3
269366499,0.706323,-0.00091248757,-0.025775874,0.7074197,0.98189545,-8.35762e-13,9.379471e-11,0.18942392,3
269386486,0.70626795,-0.0007084892,-0.026540933,0.70744663,0.98189545,-8.35762e-13,9.379471e-11,0.18942392,3
269401476,0.7062628,-0.00021948833,-0.027104745,0.70743066,0.98189545,-8.35762e-13,9.379471e-11,0.18942392,3
269426463,0.7064068,-0.00016979527,-0.027254982,0.7072812,0.98189545,-8.35762e-13,9.379471e-11,0.18942392,3
269446452,0.7064211,0.0007691623,-0.027632197,0.70725185,0.98189545,-8.35762e-13,9.379471e-11,0.18942392,3
269461442,0.70645946,0.001205264,-0.02783551,0.7072049,0.98189545,-8.35762e-13,9.379471e-11,0.18942392,3
269481430,0.70663524,0.0006615963,-0.02894132,0.70698565,0.98189545,-8.35762e-13,9.379471e-11,0.18942392,3
269506424,0.7068134,0.0001833213,-0.029841848,0.70677036,0.98189545,-8.35762e-13,9.379471e-11,0.18942392,3
269526405,0.7069301,0.0013924068,-0.030270033,0.70663404,0.98189545,-8.35762e-13,9.379471e-11,0.18942392,3
269541394,0.70696783,0.00088963535,-0.03141211,0.7065473,0.98189545,-8.35762e-13,9.379471e-11,0.18942392,3
269566380,0.7069377,0.0008054597,-0.03184706,0.7065581,0.98189545,-8.35762e-13,9.379471e-11,0.18942392,3
269586370,0.7068077,0.0016481368,-0.032779913,0.70664406,0.98189545,-8.35762e-13,9.379471e-11,0.18942392,3
269601359,0.70682853,0.0010180371,-0.033519592,0.7065896,0.98189545,-8.35762e-13,9.379471e-11,0.18942392,3
269621347,0.70673186,0.000540232,-0.03486185,0.7066219,0.98189545,-8.35762e-13,9.379471e-11,0.18942392,3
269646333,0.7065399,0.00088140165,-0.036112282,0.70675075,0.98189545,-8.35762e-13,9.379471e-11,0.18942392,3
269666323,0.70632905,0.0013311327,-0.037911106,0.7068665,0.98189545,-8.35762e-13,9.379471e-11,0.18942392,3
269681312,0.7062778,0.00067683135,-0.03917187,0.70684993,0.98189545,-8.35762e-13,9.379471e-11,0.18942392,3
269706299,0.70611554,0.0005467632,-0.04149968,0.7068793,0.98189545,-8.35762e-13,9.379471e-11,0.18942392,3
269726290,0.7061082,0.00070130907,-0.042099793,0.706851,0.98189545,-8.35762e-13,9.379471e-11,0.18942392,3
269741278,0.7060737,0.00091677,-0.042843405,0.7068405,0.98189545,-8.35762e-13,9.379471e-11,0.18942392,3
269761266,0.70616156,0.0007791889,-0.043306306,0.7067248,0.98189545,-8.35762e-13,9.379471e-11,0.18942392,3
269786252,0.7062463,1.6539503e-05,-0.04552969,0.7065007,0.98189545,-8.35762e-13,9.379471e-11,0.18942392,3
269806241,0.7063281,0.000605776,-0.04670666,0.7063419,0.98189545,-8.35762e-13,9.379471e-11,0.18942392,3
269821231,0.7063194,0.001148875,-0.04815768,0.7062524,0.98189545,-8.35762e-13,9.379471e-11,0.18942392,3
269846218,0.7063561,0.00088483555,-0.04950662,0.7061229,0.98189545,-8.35762e-13,9.379471e-11,0.18942392,3
269866204,0.70628387,0.0010326434,-0.050835013,0.70610046,0.98189545,-8.35762e-13,9.379471e-11,0.18942392,3
269881196,0.7061918,0.0019813206,-0.05126431,0.70615953,0.98189545,-8.35762e-13,9.379471e-11,0.18942392,3
269901184,0.7059981,0.0026318743,-0.052963465,0.70622563,0.98189545,-8.35762e-13,9.379471e-11,0.18942392,3
269926170,0.7059562,0.002001733,-0.054138355,0.7061806,0.98189545,-8.35762e-13,9.379471e-11,0.18942392,3
269946161,0.7057087,0.002166977,-0.05580416,0.7062978,0.98189545,-8.35762e-13,9.379471e-11,0.18942392,3
269961149,0.7055634,0.0025141807,-0.05670387,0.7063701,0.98189545,-8.35762e-13,9.379471e-11,0.18942392,3
269986136,0.70540154,0.0022021066,-0.05930846,0.7063189,0.98189545,-8.35762e-13,9.379471e-11,0.18942392,3
270006124,0.7054347,0.0020806668,-0.060199298,0.7062108,0.98189545,-8.35762e-13,9.379471e-11,0.18942392,3
270021115,0.70533,0.0026695502,-0.061228544,0.70622486,0.98189545,-8.35762e-13,9.379471e-11,0.18942392,3
270041102,0.70524704,0.0034738255,-0.06193898,0.7062423,0.98189545,-8.35762e-13,9.379471e-11,0.18942392,3
270066089,0.7053226,0.0023763776,-0.06371779,0.70601314,0.98189545,-8.35762e-13,9.379471e-11,0.18942392,3
270086077,0.7053823,0.0025998328,-0.064875446,0.7058472,0.98189545,-8.35762e-13,9.379471e-11,0.18942392,3
270101067,0.70518,0.0034049074,-0.06655642,0.70588946,0.98189545,-8.35762e-13,9.379471e-11,0.18942392,3
270126057,0.7051941,0.0036288118,-0.06804807,0.705732,0.98189545,-8.35762e-13,9.379471e-11,0.18942392,3
270146043,0.70509344,0.0038871544,-0.06882493,0.70575583,0.98189545,-8.35762e-13,9.379471e-11,0.18942392,3
270161032,0.70502263,0.004156323,-0.06907382,0.70580083,0.98189545,-8.35762e-13,9.379471e-11,0.18942392,3
270181023,0.7048453,0.003973269,-0.07138361,0.70574903,0.98189545,-8.35762e-13,9.379471e-11,0.18942392,3
270206006,0.7048304,0.0034890985,-0.073986895,0.7054984,0.98189545,-8.35762e-13,9.379471e-11,0.18942392,3
270225994,0.7047632,0.004867351,-0.07547405,0.7053998,0.98189545,-8.35762e-13,9.379471e-11,0.18942392,3
270240985,0.7048171,0.0055271112,-0.0757028,0.7053166,0.98189545,-8.35762e-13,9.379471e-11,0.18942392,3
270265971,0.70507246,0.005119731,-0.077148326,0.70490766,0.98189545,-8.35762e-13,9.379471e-11,0.18942392,3
270285965,0.70509326,0.0051208315,-0.0784577,0.7047423,0.98189545,-8.35762e-13,9.379471e-11,0.18942392,3
270300950,0.70498496,0.005440299,-0.08004931,0.70466924,0.98189545,-8.35762e-13,9.379471e-11,0.18942392,3
270325935,0.7051356,0.0046061766,-0.08110864,0.70440334,0.98189545,-8.35762e-13,9.379471e-11,0.18942392,3
270345925,0.7050264,0.005336085,-0.08174568,0.70443386,0.98189545,-8.35762e-13,9.379471e-11,0.18942392,3
270365912,0.70495474,0.0059134853,-0.082583934,0.70440316,0.98189545,-8.35762e-13,9.379471e-11,0.18942392,3
270380903,0.70498055,0.0053550964,-0.08453037,0.70415086,0.98189545,-8.35762e-13,9.379471e-11,0.18942392,3
270405888,0.7050542,0.005431875,-0.086429715,0.7038459,0.98189545,-8.35762e-13,9.379471e-11,0.18942392,3
270425878,0.70496476,0.0056278054,-0.08760346,0.7037888,0.98189545,-8.35762e-13,9.379471e-11,0.18942392,3
270440868,0.7050757,0.005134996,-0.08743651,0.7037023,0.98189545,-8.35762e-13,9.379471e-11,0.18942392,3
270465853,0.70488995,0.0055480856,-0.08795577,0.70382047,0.98189545,-8.35762e-13,9.379471e-11,0.18942392,3
270485844,0.70487523,0.0053643594,-0.08931044,0.70366603,0.98189545,-8.35762e-13,9.379471e-11,0.18942392,3
270505831,0.70483464,0.0050185905,-0.0913855,0.70344275,0.98189545,-8.35762e-13,9.379471e-11,0.18942392,3
270520821,0.7048293,0.0055283518,-0.09219516,0.7033387,0.98189545,-8.35762e-13,9.379471e-11,0.18942392,3
270545808,0.70485413,0.004348342,-0.09378123,0.7031123,0.98189545,-8.35762e-13,9.379471e-11,0.18942392,3
270565795,0.7047601,0.0045708353,-0.09384834,0.7031962,0.98189545,-8.35762e-13,9.379471e-11,0.18942392,3
270580786,0.70468897,0.003953996,-0.0948798,0.7031328,0.98189545,-8.35762e-13,9.379471e-11,0.18942392,3
270605771,0.7045376,0.0032243736,-0.09573466,0.7031724,0.98189545,-8.35762e-13,9.379471e-11,0.18942392,3
270625762,0.70452994,0.0031883856,-0.09715508,0.70298535,0.98189545,-8.35762e-13,9.379471e-11,0.18942392,3
270645749,0.70449597,0.003180822,-0.09883288,0.7027855,0.98189545,-8.35762e-13,9.379471e-11,0.18942392,3
270660743,0.7044778,0.0035680144,-0.09932714,0.7027322,0.98189545,-8.35762e-13,9.379471e-11,0.18942392,3
270685726,0.7046822,0.0027289349,-0.10038132,0.7023811,0.98189545,-8.35762e-13,9.379471e-11,0.18942392,3
270705712,0.7045755,0.0028103886,-0.10088206,0.70241606,0.98189545,-8.35762e-13,9.379471e-11,0.18942392,3
270720705,0.704651,0.0016361314,-0.10127618,0.70228726,0.98189545,-8.35762e-13,9.379471e-11,0.18942392,3
270745694,0.7044584,0.0018707388,-0.102102496,0.70236033,0.98189545,-8.35762e-13,9.379471e-11,0.18942392,3
270765679,0.70455945,0.0012267169,-0.10361692,0.7020385,0.98189545,-8.35762e-13,9.379471e-11,0.18942392,3
270785670,0.7045416,0.001985277,-0.10473208,0.7018892,0.98189545,-8.35762e-13,9.379471e-11,0.18942392,3
270800659,0.7045882,0.0017999635,-0.10574496,0.701691,0.98189545,-8.35762e-13,9.379471e-11,0.18942392,3
270825642,0.7044968,0.0030774928,-0.10571471,0.7017829,0.98189545,-8.35762e-13,9.379471e-11,0.18942392,3
270845631,0.7045235,0.0026816647,-0.105466545,0.70179504,0.98189545,-8.35762e-13,9.379471e-11,0.18942392,3
270860622,0.7044015,0.0018553594,-0.10648773,0.70176595,0.98189545,-8.35762e-13,9.379471e-11,0.18942392,3
270885610,0.7042048,0.0016052953,-0.10811095,0.7017159,0.98189545,-8.35762e-13,9.379471e-11,0.18942392,3
270905598,0.7043766,0.0008443262,-0.109238945,0.70137,0.98189545,-8.35762e-13,9.379471e-11,0.18942392,3
270925589,0.7043531,0.0025079306,-0.10952571,0.70134497,0.98189545,-8.35762e-13,9.379471e-11,0.18942392,3
270940575,0.704331,0.0020202042,-0.11014624,0.7012715,0.98189545,-8.35762e-13,9.379471e-11,0.18942392,3
270965560,0.70428675,0.00014123437,-0.11054129,0.70125663,0.98189545,-8.35762e-13,9.379471e-11,0.18942392,3
270985549,0.7041365,-7.755662e-05,-0.110561475,0.7014043,0.98189545,-8.35762e-13,9.379471e-11,0.18942392,3
271000541,0.7042088,-0.0009209835,-0.11149897,0.70118266,0.98189545,-8.35762e-13,9.379471e-11,0.18942392,3
271025526,0.7040941,-0.00042329438,-0.11260384,0.70112175,0.98189545,-8.35762e-13,9.379471e-11,0.18942392,3
271045515,0.70403934,0.0003711358,-0.11314625,0.70108944,0.98189545,-8.35762e-13,9.379471e-11,0.18942392,3
271065502,0.70405865,-0.00072303624,-0.1138363,0.70095813,0.98189545,-8.35762e-13,9.379471e-11,0.18942392,3
271080493,0.7038104,-0.00047707418,-0.11377673,0.7012172,0.98189545,-8.35762e-13,9.379471e-11,0.18942392,3
271105479,0.70383894,-0.0011303386,-0.11419411,0.70111996,0.98189545,-8.35762e-13,9.379471e-11,0.18942392,3
271125467,0.70380914,-0.0016575863,-0.115166426,0.70098984,0.98189545,-8.35762e-13,9.379471e-11,0.18942392,3
271140460,0.70375496,-0.00079850986,-0.115611725,0.70097244,0.98189545,-8.35762e-13,9.379471e-11,0.18942392,3
271165445,0.70379883,-0.0010398575,-0.117167234,0.7006697,0.98189545,-8.35762e-13,9.379471e-11,0.18942392,3
271185432,0.7036395,-0.0009237017,-0.117188126,0.70082635,0.98189545,-8.35762e-13,9.379471e-11,0.18942392,3
271205420,0.7035083,-0.00076395913,-0.116840884,0.70101625,0.98189545,-8.35762e-13,9.379471e-11,0.18942392,3
271225409,0.7034646,-0.002215965,-0.117328934,0.70097554,0.98189545,-8.35762e-13,9.379471e-11,0.18942392,3
271245398,0.7035007,-0.002219189,-0.11852755,0.7007376,0.98189545,-8.35762e-13,9.379471e-11,0.18942392,3
271265387,0.7033199,-0.0018120941,-0.11990885,0.7006852,0.98189545,-8.35762e-13,9.379471e-11,0.18942392,3
271280376,0.70336795,-0.0013375222,-0.12001494,0.7006199,0.98189545,-8.35762e-13,9.379471e-11,0.18942392,3
271305361,0.7034668,-0.0010487168,-0.11964659,0.7005841,0.98189545,-8.35762e-13,9.379471e-11,0.18942392,3
271325350,0.7034571,-0.0013893151,-0.11911531,0.7006837,0.98189545,-8.35762e-13,9.379471e-11,0.18942392,3
271345340,0.703265,-0.0013882339,-0.119538985,0.7008044,0.98189545,-8.35762e-13,9.379471e-11,0.18942392,3
271365327,0.7030439,-0.001832735,-0.12077915,0.70081264,0.98189545,-8.35762e-13,9.379471e-11,0.18942392,3
271385316,0.70315176,-0.0018069255,-0.12230922,0.7004391,0.98189545,-8.35762e-13,9.379471e-11,0.18942392,3
271405303,0.70314646,-0.0022603872,-0.12303704,0.7003156,0.98189545,-8.35762e-13,9.379471e-11,0.18942392,3
271420294,0.70304644,-0.0012839052,-0.1224513,0.70052105,0.98189545,-8.35762e-13,9.379471e-11,0.18942392,3
271445283,0.70302266,-0.0012653061,-0.12204506,0.7006158,0.98189545,-8.35762e-13,9.379471e-11,0.18942392,3
271465269,0.70309865,-0.0008522429,-0.122873165,0.7003955,0.98189545,-8.35762e-13,9.379471e-11,0.18942392,3
271485256,0.70309055,-0.0010510068,-0.12450446,0.7001152,0.98189545,-8.35762e-13,9.379471e-11,0.18942392,3
271505246,0.702991,-0.00025897357,-0.12545697,0.7000459,0.98189545,-8.35762e-13,9.379471e-11,0.18942392,3
271525233,0.70285016,0.00034546846,-0.12480187,0.70030427,0.98189545,-8.35762e-13,9.379471e-11,0.18942392,3
271545221,0.7028059,0.0010751591,-0.12394123,0.7005008,0.98189545,-8.35762e-13,9.379471e-11,0.18942392,3
271560213,0.7028979,0.00025661668,-0.12429222,0.700347,0.98189545,-8.35762e-13,9.379471e-11,0.18942392,3
271585197,0.7028673,0.00013868818,-0.1260903,0.70005625,0.98189545,-8.35762e-13,9.379471e-11,0.18942392,3
271605186,0.70271665,-0.00026755303,-0.12752613,0.6999474,0.98189545,-8.35762e-13,9.379471e-11,0.18942392,3
271625176,0.702469,0.0010148765,-0.12728325,0.7002395,0.98189545,-8.35762e-13,9.379471e-11,0.18942392,3
271645163,0.7023858,0.0013130078,-0.126419,0.700479,0.98189545,-8.35762e-13,9.379471e-11,0.18942392,3
271665151,0.7023739,0.0014774323,-0.12637144,0.7004991,0.98189545,-8.35762e-13,9.379471e-11,0.18942392,3
271685139,0.7024058,0.0003034919,-0.12797615,0.7001772,0.98189545,-8.35762e-13,9.379471e-11,0.18942392,3
271705127,0.7023992,0.00042838498,-0.1292756,0.69994503,0.98189545,-8.35762e-13,9.379471e-11,0.18942392,3
271725116,0.7022357,0.0007471866,-0.12947616,0.7000717,0.98189545,-8.35762e-13,9.379471e-11,0.18942392,3
271745104,0.7021198,0.0021916658,-0.1285965,0.700347,0.98189545,-8.35762e-13,9.379471e-11,0.18942392,3
271765092,0.702135,0.0018925077,-0.12877567,0.7002998,0.98189545,-8.35762e-13,9.379471e-11,0.18942392,3
271785080,0.7022025,0.0016819137,-0.12993537,0.70001835,0.98189545,-8.35762e-13,9.379471e-11,0.18942392,3
271805069,0.7022475,0.00076570467,-0.1314858,0.6996853,0.98189545,-8.35762e-13,9.379471e-11,0.18942392,3
271825057,0.70211744,0.0012376348,-0.13169615,0.6997755,0.98189545,-8.35762e-13,9.379471e-11,0.18942392,3
271840050,0.7020175,0.0014676333,-0.13140963,0.6999292,0.98189545,-8.35762e-13,9.379471e-11,0.18942392,3
271865034,0.7022232,0.0017995532,-0.13125093,0.69975185,0.98189545,-8.35762e-13,9.379471e-11,0.18942392,3
271885022,0.70230335,0.0017360881,-0.13185212,0.6995585,0.98189545,-8.35762e-13,9.379471e-11,0.18942392,3
271905010,0.7021635,0.0019729077,-0.13269244,0.69953936,0.98189545,-8.35762e-13,9.379471e-11,0.18942392,3
271924999,0.7020674,0.0026865252,-0.13258938,0.69965297,0.98189545,-8.35762e-13,9.379471e-11,0.18942392,3
271944989,0.70212907,0.0026280407,-0.13282974,0.69954574,0.98189545,-8.35762e-13,9.379471e-11,0.18942392,3
271964977,0.70223063,0.0024674782,-0.13323514,0.6993673,0.98189545,-8.35762e-13,9.379471e-11,0.18942392,3
271984963,0.7021777,0.0014608377,-0.1342264,0.69923365,0.98189545,-8.35762e-13,9.379471e-11,0.18942392,3
272004952,0.7020304,0.0013367538,-0.13458133,0.6993136,0.98189545,-8.35762e-13,9.379471e-11,0.18942392,3
272024942,0.70209837,0.00080453337,-0.13514565,0.69913733,0.98189545,-8.35762e-13,9.379471e-11,0.18942392,3
272044928,0.70213425,0.0012263022,-0.13553648,0.69902503,0.98189545,-8.35762e-13,9.379471e-11,0.18942392,3
272064917,0.7020905,0.00068716303,-0.13602185,0.6989754,0.98189545,-8.35762e-13,9.379471e-11,0.18942392,3
272084905,0.70203865,0.0012088921,-0.13594219,0.69904226,0.98189545,-8.35762e-13,9.379471e-11,0.18942392,3
272104893,0.7020927,0.0013489043,-0.13594535,0.69898707,0.98189545,-8.35762e-13,9.379471e-11,0.18942392,3
272124883,0.70220935,0.0015450435,-0.13680957,0.6987009,0.98189545,-8.35762e-13,9.379471e-11,0.18942392,3
272144870,0.7021441,0.0021098328,-0.13718408,0.6986915,0.98189545,-8.35762e-13,9.379471e-11,0.18942392,3
272164858,0.702042,0.001980804,-0.1373875,0.6987545,0.98189545,-8.35762e-13,9.379471e-11,0.18942392,3
272184846,0.7021107,0.002458014,-0.13739653,0.6986822,0.98189545,-8.35762e-13,9.379471e-11,0.18942392,3
272204836,0.70226073,0.0020978102,-0.13796322,0.6984208,0.98189545,-8.35762e-13,9.379471e-11,0.18942392,3
272224823,0.70225376,0.002498263,-0.13879721,0.69826126,0.98189545,-8.35762e-13,9.379471e-11,0.18942392,3
272244812,0.7021061,0.0026230332,-0.13888612,0.6983916,0.98189545,-8.35762e-13,9.379471e-11,0.18942392,3
272264800,0.7020147,0.0026049025,-0.13910708,0.69843966,0.98189545,-8.35762e-13,9.379471e-11,0.18942392,3
272284789,0.7020725,0.0027247109,-0.1393147,0.6983397,0.98189545,-8.35762e-13,9.379471e-11,0.18942392,3
272304776,0.70207363,0.002284668,-0.14028782,0.6981452,0.98189545,-8.35762e-13,9.379471e-11,0.18942392,3
272324765,0.7018723,0.0028633962,-0.14054802,0.69829327,0.98189545,-8.35762e-13,9.379471e-11,0.18942392,3
272344754,0.7018458,0.0026034547,-0.14048645,0.6983332,0.98189545,-8.35762e-13,9.379471e-11,0.18942392,3
272364741,0.7020624,0.0028361997,-0.14042504,0.6981269,0.98189545,-8.35762e-13,9.379471e-11,0.18942392,3
272384730,0.70212847,0.0020951305,-0.14081839,0.69798386,0.98189545,-8.35762e-13,9.379471e-11,0.18942392,3
272404718,0.7021049,0.0017771544,-0.14126676,0.6979178,0.98189545,-8.35762e-13,9.379471e-11,0.18942392,3
272424707,0.70227826,0.00197587,-0.14152998,0.69768953,0.98189545,-8.35762e-13,9.379471e-11,0.18942392,3
272444694,0.70240325,0.001405958,-0.14227627,0.69741327,0.98189545,-8.35762e-13,9.379471e-11,0.18942392,3
272464684,0.70227605,0.0019739137,-0.14217949,0.6975597,0.98189545,-8.35762e-13,9.379471e-11,0.18942392,3
272484672,0.70244133,0.002126544,-0.14213784,0.6974013,0.98189545,-8.35762e-13,9.379471e-11,0.18942392,3
272504660,0.702509,0.002285464,-0.14261605,0.69723505,0.98189545,-8.35762e-13,9.379471e-11,0.18942392,3
272524648,0.70228344,0.0029009972,-0.14291959,0.69739777,0.98189545,-8.35762e-13,9.379471e-11,0.18942392,3
272544636,0.70240545,0.0026997288,-0.14354464,0.69714725,0.98189545,-8.35762e-13,9.379471e-11,0.18942392,3
272564624,0.7025077,0.0031620772,-0.14388457,0.69697213,0.98189545,-8.35762e-13,9.379471e-11,0.18942392,3
272584613,0.70228684,0.0026245571,-0.1437083,0.6972333,0.98189545,-8.35762e-13,9.379471e-11,0.18942392,3
272604602,0.7023534,0.0021566025,-0.144045,0.6970984,0.98189545,-8.35762e-13,9.379471e-11,0.18942392,3
272624589,0.702424,0.0020141108,-0.1444721,0.69693923,0.98189545,-8.35762e-13,9.379471e-11,0.18942392,3
272644577,0.7022698,0.0015556571,-0.1449552,0.69699556,0.98189545,-8.35762e-13,9.379471e-11,0.18942392,3
272664565,0.70225453,0.0018244763,-0.14481959,0.6970385,0.98189545,-8.35762e-13,9.379471e-11,0.18942392,3
272684554,0.7024888,0.0012909394,-0.14476196,0.6968156,0.98189545,-8.35762e-13,9.379471e-11,0.18942392,3
272704542,0.7025501,0.001264964,-0.14495853,0.69671285,0.98189545,-8.35762e-13,9.379471e-11,0.18942392,3
272724530,0.70234543,0.0017630905,-0.14486659,0.6969372,0.98189545,-8.35762e-13,9.379471e-11,0.18942392,3
272744520,0.702549,0.0020244669,-0.1451703,0.69666815,0.98189545,-8.35762e-13,9.379471e-11,0.18942392,3
272764507,0.70255315,0.002729951,-0.14520729,0.69665384,0.98189545,-8.35762e-13,9.379471e-11,0.18942392,3
272784495,0.70240986,0.0029687467,-0.14481442,0.6968791,0.98189545,-8.35762e-13,9.379471e-11,0.18942392,3
272804484,0.7027169,0.0025627709,-0.14502083,0.69652814,0.98189545,-8.35762e-13,9.379471e-11,0.18942392,3
272824472,0.702581,0.00278939,-0.14538231,0.696589,0.98189545,-8.35762e-13,9.379471e-11,0.18942392,3
272844460,0.7025003,0.0027426332,-0.14551619,0.69664264,0.98189545,-8.35762e-13,9.379471e-11,0.18942392,3
272864450,0.7026622,0.003130196,-0.14561957,0.6964561,0.98189545,-8.35762e-13,9.379471e-11,0.18942392,3
272884437,0.70256394,0.0037073412,-0.14528203,0.6966228,0.98189545,-8.35762e-13,9.379471e-11,0.18942392,3
272904426,0.7026655,0.0027452402,-0.14538422,0.69650346,0.98189545,-8.35762e-13,9.379471e-11,0.18942392,3
272924415,0.70279276,0.0024150438,-0.14556694,0.6963381,0.98189545,-8.35762e-13,9.379471e-11,0.18942392,3
272944402,0.7025973,0.0017146355,-0.1458922,0.69646937,0.98189545,-8.35762e-13,9.379471e-11,0.18942392,3
272964390,0.70270634,0.0013441799,-0.14633738,0.6962668,0.98189545,-8.35762e-13,9.379471e-11,0.18942392,3
272984378,0.7027635,0.0019080351,-0.14612,0.6962535,0.98189545,-8.35762e-13,9.379471e-11,0.18942392,3
273004367,0.7027089,0.0015186486,-0.14575623,0.69638574,0.98189545,-8.35762e-13,9.379471e-11,0.18942392,3
273024355,0.7030345,0.0013993462,-0.1458526,0.69603705,0.98189545,-8.35762e-13,9.379471e-11,0.18942392,3
273044343,0.7029167,0.0013782661,-0.14581396,0.69616425,0.98189545,-8.35762e-13,9.379471e-11,0.18942392,3
273064332,0.7029639,0.0013092387,-0.14572456,0.69613534,0.98189545,-8.35762e-13,9.379471e-11,0.18942392,3
273084320,0.7031689,0.0020322644,-0.14551114,0.6959712,0.98189545,-8.35762e-13,9.379471e-11,0.18942392,3
273104308,0.70290595,0.002618389,-0.14541857,0.69625413,0.98189545,-8.35762e-13,9.379471e-11,0.18942392,3
273124296,0.7031086,0.0020189933,-0.14615117,0.69589806,0.98189545,-8.35762e-13,9.379471e-11,0.18942392,3
273144288,0.703091,0.0021038244,-0.14685604,0.69576716,0.98189545,-8.35762e-13,9.379471e-11,0.18942392,3
273164279,0.7029416,0.0020563814,-0.14679492,0.69593114,0.98189545,-8.35762e-13,9.379471e-11,0.18942392,3
273184262,0.7031185,0.0022528206,-0.14653267,0.69580716,0.98189545,-8.35762e-13,9.379471e-11,0.18942392,3
273204249,0.7030348,0.0027636727,-0.14643876,0.6959096,0.98189545,-8.35762e-13,9.379471e-11,0.18942392,3
273224238,0.7030481,0.0022473037,-0.14677583,0.69582707,0.98189545,-8.35762e-13,9.379471e-11,0.18942392,3
273244226,0.7031259,0.0019222084,-0.1473506,0.6956279,0.98189545,-8.35762e-13,9.379471e-11,0.18942392,3
273264214,0.703011,0.0018187687,-0.14726575,0.6957622,0.98189545,-8.35762e-13,9.379471e-11,0.18942392,3
273284202,0.7032399,0.0014839418,-0.14726864,0.695531,0.98189545,-8.35762e-13,9.379471e-11,0.18942392,3
273304191,0.7031231,0.0015040125,-0.14742258,0.69561654,0.98189545,-8.35762e-13,9.379471e-11,0.18942392,3
273324179,0.703054,0.0021375366,-0.14762506,0.6956417,0.98189545,-8.35762e-13,9.379471e-11,0.18942392,3
273344168,0.70308906,0.0018849272,-0.14824226,0.6954758,0.98189545,-8.35762e-13,9.379471e-11,0.18942392,3
273364156,0.702989,0.0020039035,-0.14828277,0.69556797,0.98189545,-8.35762e-13,9.379471e-11,0.18942392,3
273384145,0.7032822,0.002537278,-0.14779349,0.6953739,0.98189545,-8.35762e-13,9.379471e-11,0.18942392,3
273404133,0.7031601,0.0025278113,-0.14792576,0.6954693,0.98189545,-8.35762e-13,9.379471e-11,0.18942392,3
273424121,0.70312876,0.003090375,-0.14857198,0.69536096,0.98189545,-8.35762e-13,9.379471e-11,0.18942392,3
273444109,0.7030411,0.0038392285,-0.14886928,0.69538224,0.98189545,-8.35762e-13,9.379471e-11,0.18942392,3
273464097,0.7030332,0.0036124957,-0.1491489,0.6953315,0.98189545,-8.35762e-13,9.379471e-11,0.18942392,3
273484087,0.7031965,0.0033087682,-0.14925994,0.69514406,0.98189545,-8.35762e-13,9.379471e-11,0.18942392,3
273504073,0.70306736,0.0030240756,-0.14936173,0.69525415,0.98189545,-8.35762e-13,9.379471e-11,0.18942392,3
273524061,0.7032791,0.002571251,-0.14995275,0.69491446,0.98189545,-8.35762e-13,9.379471e-11,0.18942392,3
273544050,0.7031932,0.002650316,-0.15020794,0.69494605,0.98189545,-8.35762e-13,9.379471e-11,0.18942392,3
273564044,0.7033033,0.0025626693,-0.15020321,0.69483596,0.98189545,-8.35762e-13,9.379471e-11,0.18942392,3
273584029,0.7034668,0.0019325822,-0.150393,0.6946314,0.98189545,-8.35762e-13,9.379471e-11,0.18942392,3
273604020,0.70339465,0.0019671256,-0.15055102,0.6946701,0.98189545,-8.35762e-13,9.379471e-11,0.18942392,3
273624006,0.70355,0.0025526772,-0.15087499,0.6944406,0.98189545,-8.35762e-13,9.379471e-11,0.18942392,3
273643992,0.70338875,0.0025027322,-0.15123324,0.6945262,0.98189545,-8.35762e-13,9.379471e-11,0.18942392,3
273663983,0.70351774,0.0028359455,-0.15157707,0.6943193,0.98189545,-8.35762e-13,9.379471e-11,0.18942392,3
273683968,0.70357317,0.0032088924,-0.15151745,0.69427437,0.98189545,-8.35762e-13,9.379471e-11,0.18942392,3
273703956,0.7034407,0.00315175,-0.1513737,0.69444025,0.98189545,-8.35762e-13,9.379471e-11,0.18942392,3
273723945,0.70366544,0.0036795887,-0.15145972,0.6941912,0.98189545,-8.35762e-13,9.379471e-11,0.18942392,3
273743934,0.7035536,0.004359415,-0.1516388,0.6942615,0.98189545,-8.35762e-13,9.379471e-11,0.18942392,3
273763921,0.7033212,0.0042127674,-0.15199779,0.6944194,0.98189545,-8.35762e-13,9.379471e-11,0.18942392,3
273783910,0.7035159,0.0046558357,-0.15224826,0.69416445,0.98189545,-8.35762e-13,9.379471e-11,0.18942392,3
273803899,0.70346665,0.0045637465,-0.15211856,0.6942434,0.98189545,-8.35762e-13,9.379471e-11,0.18942392,3
273823889,0.70339215,0.004127484,-0.15203948,0.6943389,0.98189545,-8.35762e-13,9.379471e-11,0.18942392,3
273843875,0.7036121,0.0041435496,-0.15235384,0.69404703,0.98189545,-8.35762e-13,9.379471e-11,0.18942392,3
273863863,0.70348793,0.0042915875,-0.15236875,0.6941686,0.98189545,-8.35762e-13,9.379471e-11,0.18942392,3
273883851,0.7033745,0.0040681786,-0.15249084,0.69425815,0.98189545,-8.35762e-13,9.379471e-11,0.18942392,3
273903840,0.7036631,0.004131232,-0.15268795,0.6939219,0.98189545,-8.35762e-13,9.379471e-11,0.18942392,3
273923828,0.7036089,0.00396758,-0.15261738,0.6939934,0.98189545,-8.35762e-13,9.379471e-11,0.18942392,3
273943817,0.7035343,0.0037260032,-0.15272623,0.6940463,0.98189545,-8.35762e-13,9.379471e-11,0.18942392,3
273963805,0.70372623,0.004386311,-0.15295762,0.693797,0.98189545,-8.35762e-13,9.379471e-11,0.18942392,3
273983794,0.7035125,0.004848635,-0.15298192,0.6940052,0.98189545,-8.35762e-13,9.379471e-11,0.18942392,3
274003781,0.7035206,0.004558107,-0.15329836,0.69392914,0.98189545,-8.35762e-13,9.379471e-11,0.18942392,3
274023776,0.7036955,0.0048115277,-0.15336129,0.6937362,0.98189545,-8.35762e-13,9.379471e-11,0.18942392,3
274043758,0.70350724,0.0049844063,-0.15291536,0.6940242,0.98189545,-8.35762e-13,9.379471e-11,0.18942392,3
274063746,0.70371306,0.0044115875,-0.1530903,0.69378084,0.98189545,-8.35762e-13,9.379471e-11,0.18942392,3
274083735,0.70366275,0.004414536,-0.15344957,0.6937525,0.98189545,-8.35762e-13,9.379471e-11,0.18942392,3
274103723,0.7035275,0.0047895825,-0.15322758,0.69393617,0.98189545,-8.35762e-13,9.379471e-11,0.18942392,3
274123712,0.7037616,0.004396065,-0.15337841,0.6936682,0.98189545,-8.35762e-13,9.379471e-11,0.18942392,3
274143700,0.7037599,0.003617491,-0.15380146,0.6935806,0.98189545,-8.35762e-13,9.379471e-11,0.18942392,3
274163688,0.70382434,0.0031094726,-0.15404938,0.6934627,0.98189545,-8.35762e-13,9.379471e-11,0.18942392,3
274183678,0.7039109,0.0026196018,-0.154386,0.693302,0.98189545,-8.35762e-13,9.379471e-11,0.18942392,3
274203664,0.7037885,0.0026550738,-0.15449043,0.6934028,0.98189545,-8.35762e-13,9.379471e-11,0.18942392,3
274223653,0.7039945,0.0035493947,-0.1541225,0.6932716,0.98189545,-8.35762e-13,9.379471e-11,0.18942392,3
274243641,0.7038874,0.0032273512,-0.15430743,0.6933408,0.98189545,-8.35762e-13,9.379471e-11,0.18942392,3
274263629,0.7040104,0.002602516,-0.1546685,0.693138,0.98189545,-8.35762e-13,9.379471e-11,0.18942392,3
274283618,0.7040995,0.0026498209,-0.1547418,0.6930311,0.98189545,-8.35762e-13,9.379471e-11,0.18942392,3
274303605,0.7039263,0.0023930394,-0.15478238,0.69319874,0.98189545,-8.35762e-13,9.379471e-11,0.18942392,3
274323593,0.7040904,0.0022387523,-0.15521082,0.6929367,0.98189545,-8.35762e-13,9.379471e-11,0.18942392,3
274343582,0.703935,0.0027208745,-0.15495056,0.6931511,0.98189545,-8.35762e-13,9.379471e-11,0.18942392,3
274363570,0.70402944,0.002266487,-0.15496905,0.6930527,0.98189545,-8.35762e-13,9.379471e-11,0.18942392,3
274383558,0.7042207,0.0014920273,-0.15542361,0.6927587,0.98189545,-8.35762e-13,9.379471e-11,0.18942392,3
274403546,0.70404786,0.001253664,-0.15546209,0.6929261,0.98189545,-8.35762e-13,9.379471e-11,0.18942392,3
274423535,0.7042733,0.0010704125,-0.1554291,0.69270474,0.98189545,-8.35762e-13,9.379471e-11,0.18942392,3
274443523,0.7043192,0.0007450772,-0.15560672,0.6926186,0.98189545,-8.35762e-13,9.379471e-11,0.18942392,3
274463511,0.7042227,0.0009334854,-0.15570846,0.69269365,0.98189545,-8.35762e-13,9.379471e-11,0.18942392,3
274483500,0.70442045,0.0010570338,-0.15619706,0.6923823,0.98189545,-8.35762e-13,9.379471e-11,0.18942392,3
274503488,0.70432997,0.0007020913,-0.15643999,0.69242,0.98189545,-8.35762e-13,9.379471e-11,0.18942392,3
274523476,0.70438606,0.0009703668,-0.15629491,0.6923953,0.98189545,-8.35762e-13,9.379471e-11,0.18942392,3
274543465,0.70449305,0.0016614652,-0.15611143,0.69232655,0.98189545,-8.35762e-13,9.379471e-11,0.18942392,3
274568450,0.7042466,0.0022792562,-0.15587951,0.6926277,0.98189545,-8.35762e-13,9.379471e-11,0.18942392,3
274583443,0.70441306,0.0020196976,-0.15631148,0.6923619,0.98189545,-8.35762e-13,9.379471e-11,0.18942392,3
274603429,0.7044835,0.0023915248,-0.1563092,0.6922896,0.98189545,-8.35762e-13,9.379471e-11,0.18942392,3
274623417,0.70435506,0.002119884,-0.15628153,0.6924274,0.98189545,-8.35762e-13,9.379471e-11,0.18942392,3
274643406,0.7045615,0.0015432783,-0.15665485,0.6921345,0.98189545,-8.35762e-13,9.379471e-11,0.18942392,3
274663395,0.7045435,0.0015714177,-0.15686533,0.69210505,0.98189545,-8.35762e-13,9.379471e-11,0.18942392,3
274683382,0.70443726,0.0014206533,-0.15695766,0.6921925,0.98189545,-8.35762e-13,9.379471e-11,0.18942392,3
274708368,0.7046789,0.0016879108,-0.15723516,0.69188297,0.98189545,-8.35762e-13,9.379471e-11,0.18942392,3
274723360,0.7045759,0.001369783,-0.1575829,0.6919094,0.98189545,-8.35762e-13,9.379471e-11,0.18942392,3
274743347,0.7044656,0.0019651514,-0.15724866,0.69209623,0.98189545,-8.35762e-13,9.379471e-11,0.18942392,3
274763336,0.7047201,0.0020452351,-0.15713094,0.69186366,0.98189545,-8.35762e-13,9.379471e-11,0.18942392,3
274783328,0.7045875,0.0020978865,-0.15749905,0.69191486,0.98189545,-8.35762e-13,9.379471e-11,0.18942392,3
274803314,0.70448583,0.0027429364,-0.15727425,0.6920672,0.98189545,-8.35762e-13,9.379471e-11,0.18942392,3
274823301,0.704708,0.0032101057,-0.1570593,0.6918878,0.98189545,-8.35762e-13,9.379471e-11,0.18942392,3
274848286,0.70468193,0.0031381566,-0.15737727,0.6918425,0.98189545,-8.35762e-13,9.379471e-11,0.18942392,3
274863277,0.7046406,0.0033115179,-0.15736887,0.6918856,0.98189545,-8.35762e-13,9.379471e-11,0.18942392,3
274883266,0.7048494,0.0035569868,-0.157383,0.69166857,0.98189545,-8.35762e-13,9.379471e-11,0.18942392,3
274903254,0.7047805,0.0029890675,-0.15739457,0.6917387,0.98189545,-8.35762e-13,9.379471e-11,0.18942392,3
274923243,0.7047166,0.0027103343,-0.15756811,0.69176555,0.98189545,-8.35762e-13,9.379471e-11,0.18942392,3
274943230,0.7049072,0.0030894415,-0.15774693,0.69152904,0.98189545,-8.35762e-13,9.379471e-11,0.18942392,3
274963220,0.7047062,0.003213254,-0.15766801,0.69175124,0.98189545,-8.35762e-13,9.379471e-11,0.18942392,3
274983208,0.704857,0.0033691963,-0.15752807,0.6916287,0.98189545,-8.35762e-13,9.379471e-11,0.18942392,3
275003195,0.7049107,0.0036647785,-0.15757294,0.69156224,0.98189545,-8.35762e-13,9.379471e-11,0.18942392,3
275023188,0.70479184,0.0036601566,-0.15754297,0.6916902,0.98189545,-8.35762e-13,9.379471e-11,0.18942392,3
275043172,0.70495343,0.0034228538,-0.15789612,0.6914462,0.98189545,-8.35762e-13,9.379471e-11,0.18942392,3
275063160,0.7048309,0.0034016317,-0.15820774,0.69149995,0.98189545,-8.35762e-13,9.379471e-11,0.18942392,3
275083148,0.7049394,0.0038811453,-0.15793344,0.6914495,0.98189545,-8.35762e-13,9.379471e-11,0.18942392,3
275103136,0.7050041,0.0038188891,-0.15734486,0.6915182,0.98189545,-8.35762e-13,9.379471e-11,0.18942392,3
275128122,0.7050575,0.0038707026,-0.15688826,0.69156706,0.98189545,-8.35762e-13,9.379471e-11,0.18942392,3
275143115,0.70518804,0.0036275066,-0.15738788,0.6913218,0.98189545,-8.35762e-13,9.379471e-11,0.18942392,3
275163102,0.7048954,0.003890777,-0.15737335,0.6916221,0.98189545,-8.35762e-13,9.379471e-11,0.18942392,3
275183089,0.7050184,0.004288992,-0.15690555,0.69160056,0.98189545,-8.35762e-13,9.379471e-11,0.18942392,3
275203078,0.7052133,0.0045110327,-0.15606737,0.69159013,0.98189545,-8.35762e-13,9.379471e-11,0.18942392,3
275223066,0.70513296,0.004196105,-0.15572673,0.6917508,0.98189545,-8.35762e-13,9.379471e-11,0.18942392,3
275243056,0.7053504,0.0035323715,-0.15607046,0.69145525,0.98189545,-8.35762e-13,9.379471e-11,0.18942392,3
275268040,0.70515555,0.0035674302,-0.15583853,0.6917062,0.98189545,-8.35762e-13,9.379471e-11,0.18942392,3
275283032,0.7053238,0.0034301407,-0.15510654,0.69169974,0.98189545,-8.35762e-13,9.379471e-11,0.18942392,3
275303020,0.7054443,0.0042369496,-0.15279312,0.6920873,0.98189545,-8.35762e-13,9.379471e-11,0.18942392,3
275323008,0.70553714,0.0040706675,-0.15114859,0.6923546,0.98189545,-8.35762e-13,9.379471e-11,0.18942392,3
