timestamp,ref_timestamp,ref_lat,ref_lon,x,y,z,delta_xy[0],delta_xy[1],delta_z,vx,vy,vz,z_deriv,delta_vxy[0],delta_vxy[1],delta_vz,ax,ay,az,heading,delta_heading,ref_alt,dist_bottom,eph,epv,evh,evv,vxy_max,vz_max,hagl_min,hagl_max,xy_valid,z_valid,v_xy_valid,v_z_valid,xy_reset_counter,z_reset_counter,vxy_reset_counter,vz_reset_counter,heading_reset_counter,xy_global,z_global,dist_bottom_valid
2131920223,0,0.0,0.0,0.99003965,1.0011356,-0.07147124,1.1408086,0.91646695,-0.5153563,0.0029486571,0.004371691,0.0003558047,-0.00065745384,0.0075655105,0.026621034,-0.08130991,0.003692064,-0.013329562,0.026431104,1.5596402,0.050202265,0.0,0.1,0.034375727,0.016980952,0.05923998,0.033892386,inf,inf,inf,inf,1,1,1,1,4,3,2,3,4,0,0,1
2131930216,0,0.0,0.0,0.9900465,1.00114,-0.07147997,1.1408086,0.91646695,-0.5153563,0.0031829756,0.004194721,0.00013532802,-0.0008747447,0.0075655105,0.026621034,-0.08130991,0.03445822,0.002721536,-0.030194618,1.5596398,0.050202265,0.0,0.1,0.033821106,0.016980952,0.058663145,0.03389239,inf,inf,inf,inf,1,1,1,1,4,3,2,3,4,0,0,1
2131940209,0,0.0,0.0,0.99005413,1.001145,-0.0714901,1.1408086,0.91646695,-0.5153563,0.003005818,0.0041480116,0.00010777759,-0.00089903566,0.0075655105,0.026621034,-0.08130991,-3.5557692e-05,-0.007719583,0.0012218391,1.559647,0.050202265,0.0,0.1,0.03426966,0.016980952,0.059109602,0.03389239,inf,inf,inf,inf,1,1,1,1,4,3,2,3,4,0,0,1
2131960197,0,0.0,0.0,0.9900683,1.0011494,-0.07151261,1.1408086,0.91646695,-0.5153563,0.00301212,0.0040868,-8.5208965e-05,-0.0010852388,0.0075655105,0.026621034,-0.08130991,0.008306135,-0.00012407456,-0.008440918,1.5596527,0.050202265,0.0,0.1,0.034169216,0.016980952,0.05899779,0.033892393,inf,inf,inf,inf,1,1,1,1,4,3,2,3,4,0,0,1
2131980184,0,0.0,0.0,0.99008214,1.0011528,-0.071535066,1.1408086,0.91646695,-0.5153563,0.0029055316,0.004327667,0.00018790456,-0.0008050128,0.0075655105,0.026621034,-0.08130991,0.027012289,0.033011027,0.030292075,1.559549,0.050202265,0.0,0.1,0.034074165,0.016980952,0.05890291,0.033892393,inf,inf,inf,inf,1,1,1,1,4,3,2,3,4,0,0,1
2132000172,0,0.0,0.0,0.9901028,1.0011533,-0.07155503,1.1408086,0.91646695,-0.5153563,0.0034983912,0.003337979,-0.00040238813,-0.0013878286,0.0075655105,0.026621034,-0.08130991,0.109205246,-0.16601962,-0.004646779,1.5598089,0.050202265,0.0,0.1,0.033984285,0.016980952,0.05882538,0.033892397,inf,inf,inf,inf,1,1,1,1,4,3,2,3,4,0,0,1
2132020159,0,0.0,0.0,0.99012494,1.0011431,-0.07157336,1.1408086,0.91646695,-0.5153563,0.0038050837,0.004658751,0.0006171001,-0.00036055557,0.0075655105,0.026621034,-0.08130991,0.06847543,0.15796742,0.17406428,1.5595165,0.050202265,0.0,0.1,0.033899393,0.016980952,0.058763858,0.033892397,inf,inf,inf,inf,1,1,1,1,4,3,2,3,4,0,0,1
2132040147,0,0.0,0.0,0.9901375,1.0011382,-0.0715909,1.1408086,0.91646695,-0.5153563,0.0038502044,0.003630461,0.00013662373,-0.00083298684,0.0075655105,0.026621034,-0.08130991,0.20469327,0.04505784,0.05797716,1.5596864,0.050202265,0.0,0.1,0.033819318,0.016980952,0.05871715,0.033892397,inf,inf,inf,inf,1,1,1,1,4,3,2,3,4,0,0,1
2132060134,0,0.0,0.0,0.9901667,1.0011269,-0.071596965,1.1408086,0.91646695,-0.5153563,0.0034582743,0.0035941775,0.00095424865,-7.113017e-06,0.0075655105,0.026621034,-0.08130991,-0.018278267,-0.024302643,0.056726947,1.5596297,0.050202265,0.0,0.1,0.033743892,0.016980952,0.058684807,0.0338924,inf,inf,inf,inf,1,1,1,1,4,3,2,3,4,0,0,1
2132080122,0,0.0,0.0,0.9901843,1.0011075,-0.07160716,1.1408086,0.91646695,-0.5153563,0.0035482482,0.003363166,-1.8149914e-05,-0.0009707343,0.0075655105,0.026621034,-0.08130991,0.051670544,0.010478925,-0.04771091,1.5595807,0.050202265,0.0,0.1,0.03367297,0.016980952,0.058665734,0.0338924,inf,inf,inf,inf,1,1,1,1,4,3,2,3,4,0,0,1
2132100109,0,0.0,0.0,0.9902065,1.001083,-0.07162917,1.1408086,0.91646695,-0.5153563,0.0042577647,0.0032962814,-0.00027658965,-0.0012201063,0.0075655105,0.026621034,-0.08130991,0.095596835,-0.003128809,-0.028424673,1.5596669,0.050202265,0.0,0.10000069,0.033606406,0.016980952,0.05865921,0.0338924,inf,inf,inf,inf,1,1,1,1,4,3,2,3,4,0,0,1
2132120097,0,0.0,0.0,0.99022865,1.0010501,-0.071645044,1.1408086,0.91646695,-0.5153563,0.0037172157,0.0035188103,-0.00044003763,-0.0013743041,0.0075655105,0.026621034,-0.08130991,0.028078245,0.07254604,-0.05003428,1.5595865,0.050202265,0.0,0.100016564,0.033519465,0.016980952,0.058622036,0.033892408,inf,inf,inf,inf,1,1,1,1,4,3,2,3,4,0,0,1
2132140085,0,0.0,0.0,0.9902385,1.0010223,-0.071659565,1.1408086,0.91646695,-0.5153563,0.0032703816,0.0025138117,-8.890441e-05,-0.0010137045,0.0075655105,0.026621034,-0.08130991,0.15512343,-0.09659317,0.017375596,1.5596344,0.050202265,0.0,0.100031085,0.03343774,0.016980952,0.05859898,0.033892415,inf,inf,inf,inf,1,1,1,1,4,3,2,3,4,0,0,1
2132155075,0,0.0,0.0,0.9902713,1.0010237,-0.071670175,1.1408086,0.91646695,-0.5153563,0.0044855615,0.0035178743,-0.00062002795,-0.0015399744,0.0075655105,0.026621034,-0.08130991,0.14739658,0.07840858,-0.032475747,1.559563,0.050202265,0.0,0.100041695,0.033880845,0.016980952,0.059075825,0.033892415,inf,inf,inf,inf,1,1,1,1,4,3,2,3,4,0,0,1
2132175063,0,0.0,0.0,0.9903004,1.0009879,-0.07169207,1.1408086,0.91646695,-0.5153563,0.0031826082,0.0018921781,-0.00048293953,-0.0013930014,0.0075655105,0.026621034,-0.08130991,-0.212941,-0.05321328,-0.17182115,1.5596416,0.050202265,0.0,0.10006359,0.03380335,0.016980952,0.0590696,0.033892415,inf,inf,inf,inf,1,1,1,1,4,3,2,3,4,0,0,1
2132195050,0,0.0,0.0,0.9903202,1.0009536,-0.07171577,1.1408086,0.91646695,-0.5153563,0.0038192736,0.0033788523,-0.00022064605,-0.0011205453,0.0075655105,0.026621034,-0.08130991,-0.007752673,0.0010827667,-0.026202321,1.5595628,0.050202265,0.0,0.10008729,0.033730883,0.016980952,0.05907174,0.03389242,inf,inf,inf,inf,1,1,1,1,4,3,2,3,4,0,0,1
2132215038,0,0.0,0.0,0.99035275,1.0009084,-0.0717388,1.1408086,0.91646695,-0.5153563,0.0045591136,0.0017655567,-0.00043078346,-0.0013203035,0.0075655105,0.026621034,-0.08130991,-0.079220824,-0.017438838,-0.09545062,1.5596685,0.050202265,0.0,0.10011032,0.033663247,0.016980952,0.059088606,0.033892427,inf,inf,inf,inf,1,1,1,1,4,3,2,3,4,0,0,1
2132235027,0,0.0,0.0,0.9903767,1.0008591,-0.0717589,1.1408086,0.91646695,-0.5153563,0.004167177,0.0032722664,0.00018445341,-0.000694691,0.0075655105,0.026621034,-0.08130991,0.12038337,0.15492587,0.012534299,1.5595102,0.050202265,0.0,0.100130424,0.033600293,0.016980952,0.059112757,0.033892434,inf,inf,inf,inf,1,1,1,1,4,3,2,3,4,0,0,1
2132255013,0,0.0,0.0,0.99041426,1.0008184,-0.07177884,1.1408086,0.91646695,-0.5153563,0.004229194,0.0018768437,-0.00045236284,-0.0013211679,0.0075655105,0.026621034,-0.08130991,-0.045889076,-0.04668629,-0.008710845,1.5596509,0.050202265,0.0,0.10015036,0.03351716,0.016980952,0.059107535,0.033892438,inf,inf,inf,inf,1,1,1,1,4,3,2,3,4,0,0,1
2132275001,0,0.0,0.0,0.99045044,1.0007697,-0.07179481,1.1408086,0.91646695,-0.5153563,0.004299349,0.0024389313,-0.00014154712,-0.0009998358,0.0075655105,0.026621034,-0.08130991,-0.03652576,0.016833523,-0.015504318,1.559626,0.050202265,0.0,0.10016633,0.033439513,0.016980952,0.05911243,0.03389244,inf,inf,inf,inf,1,1,1,1,4,3,2,3,4,0,0,1
2132294989,0,0.0,0.0,0.9904786,1.0007223,-0.0718078,1.1408086,0.91646695,-0.5153563,0.0044835727,0.0021521812,2.5753652e-05,-0.0008218132,0.0075655105,0.026621034,-0.08130991,0.0454349,-0.033524726,-0.04854147,1.5594807,0.050202265,0.0,0.10017932,0.03336712,0.016980952,0.05912792,0.033892456,inf,inf,inf,inf,1,1,1,1,4,3,2,3,4,0,0,1
2132314978,0,0.0,0.0,0.99051535,1.0006605,-0.07182483,1.1408086,0.91646695,-0.5153563,0.004440687,0.0019487508,-0.00021931474,-0.0010560276,0.0075655105,0.026621034,-0.08130991,-0.034322288,-0.028713759,-0.008990635,1.559657,0.050202265,0.0,0.10019635,0.0332998,0.016980952,0.05915204,0.033892464,inf,inf,inf,inf,1,1,1,1,4,3,2,3,4,0,0,1
2132334963,0,0.0,0.0,0.9905474,1.0005965,-0.07183638,1.1408086,0.91646695,-0.5153563,0.004078298,0.0019122141,6.237457e-05,-0.0007640785,0.0075655105,0.026621034,-0.08130991,0.024297753,0.10078772,-0.0102201775,1.5596005,0.050202265,0.0,0.1002079,0.0332381,0.016980952,0.059299078,0.03389249,inf,inf,inf,inf,1,1,1,1,4,3,2,3,4,0,0,1
2132354951,0,0.0,0.0,0.990578,1.000531,-0.07185813,1.1408086,0.91646695,-0.5153563,0.0039649573,0.001578123,-0.00066801556,-0.001484008,0.0075655105,0.026621034,-0.08130991,-0.02314579,-0.031307254,0.072525695,1.5596492,0.050202265,0.0,0.10022965,0.03318178,0.016980952,0.0593392,0.033892494,inf,inf,inf,inf,1,1,1,1,4,3,2,3,4,0,0,1
2132374938,0,0.0,0.0,0.990609,1.0004575,-0.071879566,1.1408086,0.91646695,-0.5153563,0.004337096,0.0015380343,-0.0009284268,-0.001733656,0.0075655105,0.026621034,-0.08130991,0.117517106,0.046777558,0.0007992338,1.5596517,0.050202265,0.0,0.100251086,0.033129882,0.016980952,0.059387278,0.033892497,inf,inf,inf,inf,1,1,1,1,4,3,2,3,4,0,0,1
2132394927,0,0.0,0.0,0.99063885,1.0003846,-0.07190303,1.1408086,0.91646695,-0.5153563,0.005016048,0.00070314686,0.000328629,-0.0004655096,0.0075655105,0.026621034,-0.08130991,0.23462164,0.031326994,0.24965021,1.5596241,0.050202265,0.0,0.10027455,0.034026343,0.016980952,0.06038903,0.033892505,inf,inf,inf,inf,1,1,1,1,4,3,2,3,4,0,0,1
2132414914,0,0.0,0.0,0.99066484,1.0003078,-0.07194355,1.1408086,0.91646695,-0.5153563,0.0046866494,0.0010209528,-0.00095242384,-0.0017351931,0.0075655105,0.026621034,-0.08130991,-0.087605305,0.20745167,0.5507009,1.5595022,0.050202265,0.0,0.10031507,0.033953443,0.016980954,0.06040247,0.03389251,inf,inf,inf,inf,1,1,1,1,4,3,2,3,4,0,0,1
2132434901,0,0.0,0.0,0.99070853,1.000235,-0.071989074,1.1408086,0.91646695,-0.5153563,0.006690442,8.327032e-05,-0.0025842288,-0.003355357,0.0075655105,0.026621034,-0.08130991,0.44293147,-0.09166737,-0.03919797,1.5594145,0.050202265,0.0,0.100360595,0.033860125,0.016980955,0.060377285,0.033892516,inf,inf,inf,inf,1,1,1,1,4,3,2,3,4,0,0,1
2132454889,0,0.0,0.0,0.9907327,1.000152,-0.072017364,1.1408086,0.91646695,-0.5153563,0.0045211706,-0.000690935,-0.001029089,-0.0017882371,0.0075655105,0.026621034,-0.08130991,0.1554651,-0.3716117,-0.08240823,1.559416,0.050202265,0.0,0.100388885,0.033773106,0.01698096,0.06036482,0.033892527,inf,inf,inf,inf,1,1,1,1,4,3,2,3,4,0,0,1
2132474876,0,0.0,0.0,0.990759,1.0000621,-0.072044134,1.1408086,0.91646695,-0.5153563,0.0030600082,0.0015641394,-0.0012782235,-0.0020248683,0.0075655105,0.026621034,-0.08130991,-0.0658252,0.96010906,-0.13194704,1.5596701,0.050202265,0.0,0.100415654,0.034691002,0.016980963,0.06137578,0.03389253,inf,inf,inf,inf,1,1,1,1,4,3,2,3,4,0,0,1
2132494864,0,0.0,0.0,0.9908026,0.99998164,-0.07208198,1.1408086,0.91646695,-0.5153563,0.008804598,0.0014077299,-0.00123063,-0.0019646878,0.0075655105,0.026621034,-0.08130991,1.0326536,0.12702987,0.009479802,1.5594785,0.050202265,0.0,0.1004535,0.034581862,0.016980967,0.061326895,0.03389253,inf,inf,inf,inf,1,1,1,1,4,3,2,3,4,0,0,1
2132514852,0,0.0,0.0,0.99083334,0.9998955,-0.072122715,1.1408086,0.91646695,-0.5153563,0.003622708,0.0018136454,-0.0027523863,-0.0034738637,0.0075655105,0.026621034,-0.08130991,-0.5416374,0.4123306,-0.18137886,1.5594866,0.050202265,0.0,0.100494236,0.034480073,0.016980968,0.061292555,0.033892535,inf,inf,inf,inf,1,1,1,1,4,3,2,3,4,0,0,1
2132534839,0,0.0,0.0,0.990857,0.9998227,-0.07214885,1.1408086,0.91646695,-0.5153563,0.0038554627,-0.002465188,-0.0008654038,-0.0015742392,0.0075655105,0.026621034,-0.08130991,-0.7589139,-1.0984887,-0.03292678,1.5595838,0.050202265,0.0,0.10052037,0.03438532,0.01698097,0.06126725,0.033892542,inf,inf,inf,inf,1,1,1,1,4,3,2,3,4,0,0,1
2132554827,0,0.0,0.0,0.9908693,0.9997281,-0.07218722,1.1408086,0.91646695,-0.5153563,0.0023450158,-0.0017427627,-0.0010105014,-0.0017065719,0.0075655105,0.026621034,-0.08130991,-0.13035789,-0.3156388,0.20898433,1.5593476,0.050202265,0.0,0.10055874,0.03429724,0.016980972,0.06125409,0.03389255,inf,inf,inf,inf,1,1,1,1,4,3,2,3,4,0,0,1
2132574814,0,0.0,0.0,0.9908874,0.9996457,-0.07222298,1.1408086,0.91646695,-0.5153563,0.0008902917,0.00046387137,-0.0017510566,-0.0024342595,0.0075655105,0.026621034,-0.08130991,-0.55140793,0.7136983,0.32218158,1.559664,0.050202265,0.0,0.1005945,0.0342155,0.016980974,0.061253488,0.033892557,inf,inf,inf,inf,1,1,1,1,4,3,2,3,4,0,0,1
2132594802,0,0.0,0.0,0.9909087,0.9995781,-0.07224192,1.1408086,0.91646695,-0.5153563,0.0076999073,0.00069475034,-0.0015697163,-0.0022390592,0.0075655105,0.026621034,-0.08130991,1.3759128,0.021742739,-0.34104234,1.5596232,0.050202265,0.0,0.10061344,0.034139864,0.016980974,0.061253622,0.03389255,inf,inf,inf,inf,1,1,1,1,4,3,2,3,4,0,0,1
2132614789,0,0.0,0.0,0.990909,0.9995065,-0.07226639,1.1408086,0.91646695,-0.5153563,0.0047536287,0.004411225,0.001342638,0.00068773446,0.0075655105,0.026621034,-0.08130991,0.5194363,1.2511694,0.24660526,1.5593116,0.050202265,0.0,0.10063791,0.03406998,0.016980976,0.061258648,0.033892553,inf,inf,inf,inf,1,1,1,1,4,3,2,3,4,0,0,1
2132634777,0,0.0,0.0,0.99093306,0.9994361,-0.07227921,1.1408086,0.91646695,-0.5153563,0.0073240143,-0.0012299828,-0.0016765479,-0.0023165708,0.0075655105,0.026621034,-0.08130991,0.05122085,-0.6480808,0.11952012,1.5597419,0.050202265,0.0,0.10065073,0.03400551,0.016980978,0.061275233,0.033892564,inf,inf,inf,inf,1,1,1,1,4,3,2,3,4,0,0,1
2132654764,0,0.0,0.0,0.9909301,0.99936104,-0.072292715,1.1408086,0.91646695,-0.5153563,0.0019916762,0.0008036795,-0.0026288575,-0.0032536753,0.0075655105,0.026621034,-0.08130991,-0.64514667,-0.42954874,-0.806569,1.5593352,0.050202265,0.0,0.100664236,0.03394624,0.01698098,0.06129602,0.03389257,inf,inf,inf,inf,1,1,1,1,4,3,2,3,4,0,0,1
2132674752,0,0.0,0.0,0.99092335,0.99929845,-0.07231374,1.1408086,0.91646695,-0.5153563,0.00011930126,-0.0026506206,0.001133489,0.00052434043,0.0075655105,0.026621034,-0.08130991,-1.2735636,-0.36035186,0.370824,1.5592391,0.050202265,0.0,0.10068526,0.033891886,0.01698098,0.061319605,0.033892576,inf,inf,inf,inf,1,1,1,1,4,3,2,3,4,0,0,1
2132694739,0,0.0,0.0,0.99094135,0.99923694,-0.0723377,1.1408086,0.91646695,-0.5153563,0.0029641604,-0.002636253,-0.0011893332,-0.0017822402,0.0075655105,0.026621034,-0.08130991,0.2854788,-0.7484726,0.22299387,1.5599827,0.050202265,0.0,0.10070922,0.03384221,0.01698098,0.061343793,0.033892576,inf,inf,inf,inf,1,1,1,1,4,3,2,3,4,0,0,1
2132714727,0,0.0,0.0,0.9909371,0.9991443,-0.07234458,1.1408086,0.91646695,-0.5153563,0.004038932,0.0034166395,-0.0005513642,-0.001126841,0.0075655105,0.026621034,-0.08130991,0.58115584,1.7634387,-0.18727845,1.5590888,0.050202265,0.0,0.1007161,0.033796884,0.01698098,0.061380275,0.03389257,inf,inf,inf,inf,1,1,1,1,4,3,2,3,4,0,0,1
2132734714,0,0.0,0.0,0.9909519,0.99909,-0.072372,1.1408086,0.91646695,-0.5153563,0.008029939,-0.0014710384,-0.00018823265,-0.00074556656,0.0075655105,0.026621034,-0.08130991,1.2205055,-0.40866655,0.33465564,1.5596435,0.050202265,0.0,0.10074352,0.033755764,0.01698098,0.06141098,0.033892576,inf,inf,inf,inf,1,1,1,1,4,3,2,3,4,0,0,1
2132754702,0,0.0,0.0,0.99096614,0.9990285,-0.07238766,1.1408086,0.91646695,-0.5153563,0.0071421373,0.0043154466,-0.0021400938,-0.0026789322,0.0075655105,0.026621034,-0.08130991,0.48878333,0.55611086,-0.3063856,1.5599487,0.050202265,0.0,0.10075918,0.03371856,0.01698098,0.06144409,0.03389258,inf,inf,inf,inf,1,1,1,1,4,3,2,3,4,0,0,1
2132774690,0,0.0,0.0,0.9909566,0.9989458,-0.07240139,1.1408086,0.91646695,-0.5153563,0.0032256455,-0.0027886643,-0.00076621986,-0.0012860954,0.0075655105,0.026621034,-0.08130991,-0.7078692,-0.5085417,-0.05672331,1.5583708,0.050202265,0.0,0.10077291,0.033685043,0.01698098,0.061484482,0.03389259,inf,inf,inf,inf,1,1,1,1,4,3,2,3,4,0,0,1
2132794678,0,0.0,0.0,0.99096924,0.9988924,-0.07240107,1.1408086,0.91646695,-0.5153563,0.004102201,-0.0042928127,-0.0012601884,-0.0017605001,0.0075655105,0.026621034,-0.08130991,-0.43838093,-1.6927912,-0.28483975,1.5603111,0.050202265,0.0,0.10077259,0.03365499,0.01698098,0.061516277,0.03389259,inf,inf,inf,inf,1,1,1,1,4,3,2,3,4,0,0,1
2132814665,0,0.0,0.0,0.9909634,0.9988016,-0.072397284,1.1408086,0.91646695,-0.5153563,-0.00077448424,-0.00038791666,0.00080886635,0.00032844974,0.0075655105,0.026621034,-0.08130991,-0.9591434,0.56345093,0.13250645,1.5590492,0.050202265,0.0,0.100768805,0.033628207,0.01698098,0.0615541,0.033892572,inf,inf,inf,inf,1,1,1,1,4,3,2,3,4,0,0,1
2132834653,0,0.0,0.0,0.9909677,0.9987391,-0.07240873,1.1408086,0.91646695,-0.5153563,0.0054189377,-0.004237301,-6.820899e-05,-0.0005285029,0.0075655105,0.026621034,-0.08130991,1.2569268,-0.52207226,0.40287885,1.5590868,0.050202265,0.0,0.10078025,0.033578616,0.01698098,0.061546106,0.033892576,inf,inf,inf,inf,1,1,1,1,4,3,2,3,4,0,0,1
2132854640,0,0.0,0.0,0.99098116,0.9986916,-0.07241166,1.1408086,0.91646695,-0.5153563,0.0070966813,0.0031363599,-0.0013865756,-0.0018267088,0.0075655105,0.026621034,-0.08130991,0.90806085,0.9356015,-0.13928281,1.5605456,0.050202265,0.0,0.10078318,0.033532854,0.01698098,0.061541595,0.033892557,inf,inf,inf,inf,1,1,1,1,4,3,2,3,4,0,0,1
2132874628,0,0.0,0.0,0.9909998,0.9985924,-0.07241353,1.1408086,0.91646695,-0.5153563,0.008145762,-0.0009301965,-0.00023225397,-0.000652366,0.0075655105,0.026621034,-0.08130991,0.63119006,-0.08306935,-0.019103628,1.5578785,0.050202265,0.0,0.10078505,0.033490792,0.01698098,0.061536666,0.03389257,inf,inf,inf,inf,1,1,1,1,4,3,2,3,4,0,0,1
2132894615,0,0.0,0.0,0.9910233,0.9985437,-0.07242266,1.1408086,0.91646695,-0.5153563,0.0064521055,-0.0016515779,-0.0012150534,-0.0016150428,0.0075655105,0.026621034,-0.08130991,-0.0507178,-0.7540375,-0.21084313,1.5607102,0.050202265,0.0,0.10079418,0.033452153,0.01698098,0.061535947,0.033892576,inf,inf,inf,inf,1,1,1,1,4,3,2,3,4,0,0,1
2132924597,0,0.0,0.0,0.991035,0.9984449,-0.07240765,1.1408086,0.91646695,-0.5153563,0.009144207,-0.0009723174,-0.00011144117,-0.000481256,0.0075655105,0.026621034,-0.08130991,0.7378686,-0.5053618,0.28912482,1.5608065,0.050202265,0.0,0.10077917,0.033882655,0.01698098,0.062046774,0.03389256,inf,inf,inf,inf,1,1,1,1,4,3,2,3,4,0,0,1
2132934590,0,0.0,0.0,0.99103296,0.9984083,-0.07239931,1.1408086,0.91646695,-0.5153563,0.0023838943,-0.006698523,0.00093192945,0.0005721846,0.0075655105,0.026621034,-0.08130991,0.04791864,-1.4585507,0.17062972,1.5593818,0.050202265,0.0,0.10077083,0.033384394,0.01698098,0.06153139,0.033892576,inf,inf,inf,inf,1,1,1,1,4,3,2,3,4,0,0,1
2132954580,0,0.0,0.0,0.99102485,0.9983575,-0.072413,1.1408086,0.91646695,-0.5153563,0.0017665746,0.0021977797,-0.002655912,-0.002995539,0.0075655105,0.026621034,-0.08130991,0.044454098,1.0518291,0.03248759,1.560198,0.050202265,0.0,0.10078452,0.03335485,0.016980983,0.061531004,0.033892546,inf,inf,inf,inf,1,1,1,1,4,3,2,3,4,0,0,1
2132974567,0,0.0,0.0,0.99102867,0.9982879,-0.07241619,1.1408086,0.91646695,-0.5153563,0.008306865,-0.00059882173,0.00022924336,-9.045392e-05,0.0075655105,0.026621034,-0.08130991,1.6459326,0.26284412,0.036486,1.5579164,0.050202265,0.0,0.10078771,0.033327963,0.016980983,0.06153378,0.033892546,inf,inf,inf,inf,1,1,1,1,4,3,2,3,4,0,0,1
2132994553,0,0.0,0.0,0.9910589,0.9982657,-0.07241316,1.1408086,0.91646695,-0.5153563,0.00751724,0.00047901535,-0.0013116926,-0.0016116934,0.0075655105,0.026621034,-0.08130991,0.74585795,0.008227758,-0.3751935,1.5610174,0.050202265,0.0,0.10078468,0.03330354,0.016980985,0.061537117,0.033892535,inf,inf,inf,inf,1,1,1,1,4,3,2,3,4,0,0,1
2133014540,0,0.0,0.0,0.9910774,0.9981992,-0.072412275,1.1408086,0.91646695,-0.5153563,0.004370485,0.00047719036,-0.00016436288,-0.00044488753,0.0075655105,0.026621034,-0.08130991,-1.0208788,-0.22601727,-0.0067669237,1.5580033,0.050202265,0.0,0.100783795,0.033281453,0.016980987,0.06153781,0.03389253,inf,inf,inf,inf,1,1,1,1,4,3,2,3,4,0,0,1
2133034528,0,0.0,0.0,0.9910829,0.9981594,-0.07241362,1.1408086,0.91646695,-0.5153563,0.0042355624,-0.0069745914,-0.000739749,-0.0010011051,0.0075655105,0.026621034,-0.08130991,-0.15959032,-1.5946505,0.08861296,1.5600069,0.050202265,0.0,0.10078514,0.0342215,0.016980987,0.062553674,0.033892546,inf,inf,inf,inf,1,1,1,1,4,3,2,3,4,0,0,1
2133054515,0,0.0,0.0,0.9910997,0.99811214,-0.072391465,1.1408086,0.91646695,-0.5153563,0.001298216,0.00083035184,-0.0020399361,-0.002282453,0.0075655105,0.026621034,-0.08130991,-1.099124,0.36986226,-0.48229623,1.5595508,0.050202265,0.0,0.100762986,0.034174833,0.016980989,0.062505305,0.033892512,inf,inf,inf,inf,1,1,1,1,4,3,2,3,4,0,0,1
2133074503,0,0.0,0.0,0.99111587,0.9980569,-0.07239994,1.1408086,0.91646695,-0.5153563,0.0049300697,-0.00486069,0.0028039014,0.0025798662,0.0075655105,0.026621034,-0.08130991,1.1632116,-0.58833694,0.7931512,1.5583714,0.050202265,0.0,0.10077146,0.03410387,0.016980989,0.062404793,0.03389251,inf,inf,inf,inf,1,1,1,1,4,3,2,3,4,0,0,1
2133094491,0,0.0,0.0,0.99114174,0.9980519,-0.072392,1.1408086,0.91646695,-0.5153563,0.005632955,0.0034503313,-0.0015926129,-0.0017983243,0.0075655105,0.026621034,-0.08130991,0.68509316,0.8764232,-0.015941834,1.5606757,0.050202265,0.0,0.10076352,0.03403707,0.016980989,0.06231884,0.033892483,inf,inf,inf,inf,1,1,1,1,4,3,2,3,4,0,0,1
2133114478,0,0.0,0.0,0.991151,0.9980004,-0.07237839,1.1408086,0.91646695,-0.5153563,0.00917755,0.0022991383,0.0010257006,0.00083855225,0.0075655105,0.026621034,-0.08130991,0.7451034,0.5594162,-0.053268187,1.558369,0.050202265,0.0,0.10074991,0.033974208,0.016980989,0.06223854,0.033892475,inf,inf,inf,inf,1,1,1,1,4,3,2,3,4,0,0,1
2133134466,0,0.0,0.0,0.9911955,0.99796987,-0.072360754,1.1408086,0.91646695,-0.5153563,0.006310392,-0.0026595597,-0.0019336506,-0.002102543,0.0075655105,0.026621034,-0.08130991,0.2211956,-0.8677082,-0.47811127,1.5596935,0.050202265,0.0,0.100732274,0.033915162,0.016980989,0.06215704,0.033892475,inf,inf,inf,inf,1,1,1,1,4,3,2,3,4,0,0,1
2133154454,0,0.0,0.0,0.99123716,0.9979339,-0.072336435,1.1408086,0.91646695,-0.5153563,0.0035172284,-0.0002911118,0.0018168468,0.0016664449,0.0075655105,0.026621034,-0.08130991,-1.9017773,-0.56266767,0.19586158,1.559796,0.050202265,0.0,0.100707956,0.0338596,0.016980989,0.062083997,0.033892453,inf,inf,inf,inf,1,1,1,1,4,3,2,3,4,0,0,1
2133174442,0,0.0,0.0,0.9912383,0.99789363,-0.072319075,1.1408086,0.91646695,-0.5153563,0.0020937666,-0.0043478347,-0.0005385957,-0.00067108363,0.0075655105,0.026621034,-0.08130991,0.006184913,-1.1627427,0.3247225,1.5583769,0.050202265,0.0,0.100690596,0.033807408,0.016980989,0.062009726,0.03389245,inf,inf,inf,inf,1,1,1,1,4,3,2,3,4,0,0,1
2133194429,0,0.0,0.0,0.9912489,0.9978893,-0.07228887,1.1408086,0.91646695,-0.5153563,-6.4857115e-05,-3.120543e-05,-1.5481204e-05,-0.00013059445,0.0075655105,0.026621034,-0.08130991,-1.2073762,0.6654733,-0.27708203,1.5604784,0.050202265,0.0,0.10066039,0.033758327,0.016980989,0.061943155,0.03389242,inf,inf,inf,inf,1,1,1,1,4,3,2,3,4,0,0,1
2133214416,0,0.0,0.0,0.9912652,0.9978442,-0.07227055,1.1408086,0.91646695,-0.5153563,0.0089057535,-0.00085799576,0.0012762096,0.0011780774,0.0075655105,0.026621034,-0.08130991,1.509142,-0.2503009,0.30231804,1.558752,0.050202265,0.0,0.10064207,0.033712234,0.016980989,0.06187858,0.03389241,inf,inf,inf,inf,1,1,1,1,4,3,2,3,4,0,0,1
2133234404,0,0.0,0.0,0.99131006,0.9978273,-0.07224854,1.1408086,0.91646695,-0.5153563,0.0046243127,0.0022688024,0.0009943396,0.000912603,0.0075655105,0.026621034,-0.08130991,0.12281173,1.277885,0.025322583,1.5593364,0.050202265,0.0,0.10062006,0.033668958,0.016980989,0.06182195,0.033892397,inf,inf,inf,inf,1,1,1,1,4,3,2,3,4,0,0,1
2133254391,0,0.0,0.0,0.9913379,0.9978072,-0.07223861,1.1408086,0.91646695,-0.5153563,0.0110813705,0.0027473783,-0.0005579459,-0.00062367535,0.0075655105,0.026621034,-0.08130991,0.5518349,0.41826877,-0.027712362,1.560156,0.050202265,0.0,0.10061013,0.03462132,0.016980989,0.062824875,0.033892382,inf,inf,inf,inf,1,1,1,1,4,3,2,3,4,0,0,1
2133274380,0,0.0,0.0,0.99137443,0.9978042,-0.07221599,1.1408086,0.91646695,-0.5153563,0.007691372,0.0031198289,-0.0014439113,-0.0014942085,0.0075655105,0.026621034,-0.08130991,0.1402755,0.17217813,-0.48553783,1.5581924,0.050202265,0.0,0.10058751,0.034551688,0.016980989,0.06271431,0.033892397,inf,inf,inf,inf,1,1,1,1,4,3,2,3,4,0,0,1
2133294367,0,0.0,0.0,0.9914105,0.9978099,-0.072200425,1.1408086,0.91646695,-0.5153563,0.002994581,-0.0028427741,0.0013691024,0.0013335407,0.0075655105,0.026621034,-0.08130991,-1.8480783,-0.5662407,0.23618759,1.5600789,0.050202265,0.0,0.100571945,0.034457576,0.016980989,0.06255949,0.033892356,inf,inf,inf,inf,1,1,1,1,4,3,2,3,4,0,0,1
2133314354,0,0.0,0.0,0.9914311,0.9978052,-0.072177656,1.1408086,0.91646695,-0.5153563,0.005430537,-0.001965637,-0.00081237376,-0.00083401107,0.0075655105,0.026621034,-0.08130991,-0.11063691,-1.2554251,-0.009149525,1.5592699,0.050202265,0.0,0.10054918,0.034368567,0.016980989,0.062413573,0.03389235,inf,inf,inf,inf,1,1,1,1,4,3,2,3,4,0,0,1
2133334342,0,0.0,0.0,0.9914585,0.99778956,-0.07215263,1.1408086,0.91646695,-0.5153563,0.0013311469,0.00011765204,0.0012080042,0.0011995307,0.0075655105,0.026621034,-0.08130991,-1.0579275,1.2978282,0.0664409,1.55877,0.050202265,0.0,0.10052415,0.0342843,0.016980989,0.06227852,0.033892326,inf,inf,inf,inf,1,1,1,1,4,3,2,3,4,0,0,1
2133354329,0,0.0,0.0,0.99148846,0.9978217,-0.07213409,1.1408086,0.91646695,-0.5153563,0.008204469,-0.0019489016,7.789885e-05,8.171978e-05,0.0075655105,0.026621034,-0.08130991,1.4579266,-0.96541584,0.24940193,1.5603801,0.050202265,0.0,0.10050561,0.034204632,0.016980989,0.06215206,0.03389232,inf,inf,inf,inf,1,1,1,1,4,3,2,3,4,0,0,1
2133374317,0,0.0,0.0,0.99149704,0.99780923,-0.07209737,1.1408086,0.91646695,-0.5153563,0.006820198,0.0052277325,0.001643265,0.0016585158,0.0075655105,0.026621034,-0.08130991,0.7601576,2.084486,-0.12153084,1.5585086,0.050202265,0.0,0.10046889,0.03516876,0.016980987,0.063149005,0.033892296,inf,inf,inf,inf,1,1,1,1,4,3,2,3,4,0,0,1
2133394304,0,0.0,0.0,0.9915389,0.99782306,-0.07208979,1.1408086,0.91646695,-0.5153563,0.010005733,-0.0019278508,0.0005798397,0.0006056107,0.0075655105,0.026621034,-0.08130991,1.1527991,-0.47964546,0.36921,1.5596249,0.050202265,0.0,0.10046131,0.035061646,0.016980983,0.062977314,0.033892278,inf,inf,inf,inf,1,1,1,1,4,3,2,3,4,0,0,1
2133414292,0,0.0,0.0,0.99155384,0.9978533,-0.07205711,1.1408086,0.91646695,-0.5153563,0.009333781,0.005980536,-0.0009788265,-0.0009434368,0.0075655105,0.026621034,-0.08130991,0.025311496,0.4302289,-0.6694093,1.5598793,0.050202265,0.0,0.10042863,0.034960352,0.01698098,0.06281728,0.033892274,inf,inf,inf,inf,1,1,1,1,4,3,2,3,4,0,0,1
2133434279,0,0.0,0.0,0.9915831,0.997865,-0.07206076,1.1408086,0.91646695,-0.5153563,0.004966464,-0.00248573,-0.00071487104,-0.00067069405,0.0075655105,0.026621034,-0.08130991,-0.74696225,-0.9187953,0.06472398,1.558348,0.050202265,0.0,0.10043228,0.034864593,0.016980978,0.06266285,0.03389225,inf,inf,inf,inf,1,1,1,1,4,3,2,3,4,0,0,1
2133454267,0,0.0,0.0,0.99161595,0.99790794,-0.07204875,1.1408086,0.91646695,-0.5153563,0.0034677698,-0.0013767887,-0.0013170684,-0.0012647284,0.0075655105,0.026621034,-0.08130991,-1.0471522,-1.336014,-0.09404033,1.5603799,0.050202265,0.0,0.100420274,0.03477403,0.016980976,0.06252467,0.03389224,inf,inf,inf,inf,1,1,1,1,4,3,2,3,4,0,0,1
2133474255,0,0.0,0.0,0.99164104,0.9979207,-0.07204759,1.1408086,0.91646695,-0.5153563,0.0022533995,0.0012466718,-0.000205871,-0.0001459933,0.0075655105,0.026621034,-0.08130991,-1.2815914,0.32744947,0.2303365,1.55881,0.050202265,0.0,0.10041911,0.03465981,0.016980974,0.06233864,0.033892214,inf,inf,inf,inf,1,1,1,1,4,3,2,3,4,0,0,1
2133494242,0,0.0,0.0,0.9916688,0.9979567,-0.07202801,1.1408086,0.91646695,-0.5153563,0.0055303085,-0.0017731073,0.000383079,0.00044969484,0.0075655105,0.026621034,-0.08130991,1.1373931,-0.5402216,0.055100255,1.5591941,0.050202265,0.0,0.10039953,0.03455181,0.016980974,0.062170498,0.033892203,inf,inf,inf,inf,1,1,1,1,4,3,2,3,4,0,0,1
2133514230,0,0.0,0.0,0.9916753,0.9979949,-0.072034046,1.1408086,0.91646695,-0.5153563,0.005649236,0.0043410584,0.0009921525,0.0010647975,0.0075655105,0.026621034,-0.08130991,0.50655323,1.3667351,0.47853196,1.5603101,0.050202265,0.0,0.10040557,0.03444969,0.016980972,0.062011506,0.03389218,inf,inf,inf,inf,1,1,1,1,4,3,2,3,4,0,0,1
2133534218,0,0.0,0.0,0.99168086,0.9980266,-0.07201179,1.1408086,0.91646695,-0.5153563,0.00973123,0.0011280739,0.0007731901,0.0008510692,0.0075655105,0.026621034,-0.08130991,2.0731986,-0.48459366,-0.066563986,1.5582372,0.050202265,0.0,0.10038331,0.034353152,0.01698097,0.061861843,0.033892173,inf,inf,inf,inf,1,1,1,1,4,3,2,3,4,0,0,1
2133554205,0,0.0,0.0,0.9917199,0.99807876,-0.07201628,1.1408086,0.91646695,-0.5153563,0.006884809,0.006189917,0.0002565781,0.00033879204,0.0075655105,0.026621034,-0.08130991,-0.6507941,1.6063917,-0.18549743,1.5602387,0.050202265,0.0,0.1003878,0.034261867,0.016980967,0.06172528,0.033892155,inf,inf,inf,inf,1,1,1,1,4,3,2,3,4,0,0,1
2133574197,0,0.0,0.0,0.9917435,0.9981151,-0.07200861,1.1408086,0.91646695,-0.5153563,0.010793586,0.0030291833,-0.0013282477,-0.0012426181,0.0075655105,0.026621034,-0.08130991,0.72145945,-0.78953576,-0.26100656,1.5591356,0.050202265,0.0,0.10038013,0.03521946,0.016980965,0.06270218,0.033892136,inf,inf,inf,inf,1,1,1,1,4,3,2,3,4,0,0,1
2133594180,0,0.0,0.0,0.9917528,0.99816537,-0.0720202,1.1408086,0.91646695,-0.5153563,0.0008623828,0.0033487745,0.00051803084,0.00060627423,0.0075655105,0.026621034,-0.08130991,-1.9077389,0.39934668,0.11433289,1.5588,0.050202265,0.0,0.10039172,0.03510125,0.016980961,0.062525384,0.03389212,inf,inf,inf,inf,1,1,1,1,4,3,2,3,4,0,0,1
2133614168,0,0.0,0.0,0.9917792,0.9982353,-0.07199879,1.1408086,0.91646695,-0.5153563,0.007076493,-0.0016122173,-0.001039863,-0.0009496272,0.0075655105,0.026621034,-0.08130991,-0.7157647,-1.6989119,-0.037369993,1.560293,0.050202265,0.0,0.10037031,0.034989584,0.016980957,0.062351115,0.0338921,inf,inf,inf,inf,1,1,1,1,4,3,2,3,4,0,0,1
2133634155,0,0.0,0.0,0.99178785,0.9982612,-0.07201359,1.1408086,0.91646695,-0.5153563,0.0016078312,0.0028477362,-0.0003736821,-0.0002820146,0.0075655105,0.026621034,-0.08130991,-0.7423514,0.60023266,0.011137085,1.5582519,0.050202265,0.0,0.10038511,0.034855194,0.016980954,0.06214713,0.033892088,inf,inf,inf,inf,1,1,1,1,4,3,2,3,4,0,0,1
2133654143,0,0.0,0.0,0.99182653,0.99831766,-0.0720177,1.1408086,0.91646695,-0.5153563,0.0030039074,-0.0026712448,-0.00064786075,-0.00055525254,0.0075655105,0.026621034,-0.08130991,-0.51067567,-0.33193234,0.26833493,1.5599606,0.050202265,0.0,0.10038922,0.0347283,0.016980952,0.061952367,0.033892065,inf,inf,inf,inf,1,1,1,1,4,3,2,3,4,0,0,1
2133674132,0,0.0,0.0,0.9918122,0.9983943,-0.071999095,1.1408086,0.91646695,-0.5153563,0.0074119517,0.004739702,0.0018133161,0.0019064122,0.0075655105,0.026621034,-0.08130991,1.3550006,0.23349571,0.21439897,1.5595107,0.050202265,0.0,0.100370616,0.034608446,0.01698095,0.061779287,0.03389206,inf,inf,inf,inf,1,1,1,1,4,3,2,3,4,0,0,1
2133694118,0,0.0,0.0,0.9918114,0.99844277,-0.071993254,1.1408086,0.91646695,-0.5153563,0.007159926,0.0020615298,0.00012572628,0.00021898068,0.0075655105,0.026621034,-0.08130991,0.92194456,1.2351125,0.2305056,1.558504,0.050202265,0.0,0.100364774,0.0344953,0.016980948,0.061605718,0.033892043,inf,inf,inf,inf,1,1,1,1,4,3,2,3,4,0,0,1
2133714105,0,0.0,0.0,0.99182343,0.99852836,-0.07201232,1.1408086,0.91646695,-0.5153563,0.009471462,0.005008847,-0.00044915872,-0.0003561374,0.0075655105,0.026621034,-0.08130991,1.3019605,-0.06345983,-0.015303898,1.5604881,0.050202265,0.0,0.10038384,0.03438842,0.016980946,0.061458126,0.03389203,inf,inf,inf,inf,1,1,1,1,4,3,2,3,4,0,0,1
2133734093,0,0.0,0.0,0.9918187,0.99858564,-0.071993396,1.1408086,0.91646695,-0.5153563,0.007943914,0.006839585,-0.0011279674,-0.0010355004,0.0075655105,0.026621034,-0.08130991,-0.07077499,1.3112688,-0.6276306,1.5584666,0.050202265,0.0,0.100364916,0.03428756,0.016980942,0.061308254,0.033892017,inf,inf,inf,inf,1,1,1,1,4,3,2,3,4,0,0,1
2133754081,0,0.0,0.0,0.9918075,0.9986653,-0.072003275,1.1408086,0.91646695,-0.5153563,0.0071154814,-0.0006985385,-0.00031243628,-0.00022075028,0.0075655105,0.026621034,-0.08130991,0.6730078,-1.676602,0.0030707186,1.5596019,0.050202265,0.0,0.100374795,0.034192327,0.016980939,0.06118016,0.033892,inf,inf,inf,inf,1,1,1,1,4,3,2,3,4,0,0,1
2133774068,0,0.0,0.0,0.9917962,0.99875146,-0.07199613,1.1408086,0.91646695,-0.5153563,0.0021616004,0.005928295,-0.0023708616,-0.0022800502,0.0075655105,0.026621034,-0.08130991,-1.811156,0.02153364,-0.5089297,1.5597938,0.050202265,0.0,0.10036765,0.035139408,0.016980935,0.062139895,0.033891995,inf,inf,inf,inf,1,1,1,1,4,3,2,3,4,0,0,1
2133794056,0,0.0,0.0,0.99177754,0.9988302,-0.0720092,1.1408086,0.91646695,-0.5153563,0.003470423,-0.0012211257,0.0006464479,0.00073619315,0.0075655105,0.026621034,-0.08130991,-0.07067763,-1.603577,0.09357206,1.5582885,0.050202265,0.0,0.10038072,0.035018053,0.016980931,0.061971944,0.033891976,inf,inf,inf,inf,1,1,1,1,4,3,2,3,4,0,0,1
2133814043,0,0.0,0.0,0.9917676,0.9989122,-0.07201037,1.1408086,0.91646695,-0.5153563,-0.0026047085,0.0030848691,-0.0029194073,-0.0028300697,0.0075655105,0.026621034,-0.08130991,-2.252301,0.37695152,-0.27934462,1.5604475,0.050202265,0.0,0.10038189,0.03490356,0.016980927,0.061810326,0.033891972,inf,inf,inf,inf,1,1,1,1,4,3,2,3,4,0,0,1
2133834033,0,0.0,0.0,0.99173325,0.99898165,-0.07203349,1.1408086,0.91646695,-0.5153563,0.0058397492,0.002389782,-0.0005319478,-0.00044279758,0.0075655105,0.026621034,-0.08130991,1.0275718,-0.9628215,0.37660298,1.5586029,0.050202265,0.0,0.10040501,0.034795526,0.016980924,0.06165644,0.03389195,inf,inf,inf,inf,1,1,1,1,4,3,2,3,4,0,0,1
2133854018,0,0.0,0.0,0.9917312,0.9990689,-0.07204042,1.1408086,0.91646695,-0.5153563,-0.0001431086,0.0042670486,-0.00040534194,-0.00031647866,0.0075655105,0.026621034,-0.08130991,-1.0797102,1.0987617,-0.08294721,1.5593346,0.050202265,0.0,0.10041194,0.03469354,0.016980922,0.061521336,0.033891954,inf,inf,inf,inf,1,1,1,1,4,3,2,3,4,0,0,1
2133874006,0,0.0,0.0,0.9917161,0.99912643,-0.07205228,1.1408086,0.91646695,-0.5153563,0.011375196,0.0032293627,0.0010352358,0.0011236856,0.0075655105,0.026621034,-0.08130991,1.7567459,-0.09256704,0.4057845,1.5601164,0.050202265,0.0,0.1004238,0.034597382,0.01698092,0.06139317,0.03389192,inf,inf,inf,inf,1,1,1,1,4,3,2,3,4,0,0,1
2133903988,0,0.0,0.0,0.9916989,0.99923325,-0.072062284,1.1408086,0.91646695,-0.5153563,-8.117115e-05,0.004803742,-0.0020760538,-0.0019883958,0.0075655105,0.026621034,-0.08130991,-1.8425006,0.308904,-0.20357853,1.5594712,0.050202265,0.0,0.100433804,0.03395609,0.016980916,0.06068205,0.0338919,inf,inf,inf,inf,1,1,1,1,4,3,2,3,4,0,0,1
2133913981,0,0.0,0.0,0.99168265,0.9992796,-0.0720727,1.1408086,0.91646695,-0.5153563,0.009460628,0.0024821186,-0.0008654125,-0.0007780658,0.0075655105,0.026621034,-0.08130991,1.1337583,-0.6698117,0.029819425,1.56045,0.050202265,0.0,0.10044422,0.03442117,0.016980914,0.06115893,0.03389189,inf,inf,inf,inf,1,1,1,1,4,3,2,3,4,0,0,1
2133933969,0,0.0,0.0,0.99163437,0.99934715,-0.07206474,1.1408086,0.91646695,-0.5153563,0.006089011,0.007963019,0.00049107516,0.0005780467,0.0075655105,0.026621034,-0.08130991,0.027243135,0.31793135,-0.21279038,1.5587599,0.050202265,0.0,0.10043626,0.034340527,0.016980909,0.06105352,0.03389189,inf,inf,inf,inf,1,1,1,1,4,3,2,3,4,0,0,1
2133953956,0,0.0,0.0,0.99161804,0.9994153,-0.072076716,1.1408086,0.91646695,-0.5153563,0.0059800223,8.895612e-05,-0.0005543142,-0.00046752972,0.0075655105,0.026621034,-0.08130991,-0.3674111,-0.6725038,0.40855703,1.5590792,0.050202265,0.0,0.100448236,0.03423746,0.016980907,0.060911234,0.03389187,inf,inf,inf,inf,1,1,1,1,4,3,2,3,4,0,0,1
2133973944,0,0.0,0.0,0.99158835,0.9995198,-0.07207859,1.1408086,0.91646695,-0.5153563,0.0023165583,0.0056540286,-0.0015970627,-0.0015104522,0.0075655105,0.026621034,-0.08130991,-1.0967503,-0.79721344,-0.369058,1.5601577,0.050202265,0.0,0.10045011,0.034140125,0.016980903,0.06077935,0.033891868,inf,inf,inf,inf,1,1,1,1,4,3,2,3,4,0,0,1
2133993934,0,0.0,0.0,0.9915386,0.9995776,-0.07209482,1.1408086,0.91646695,-0.5153563,-0.00037245033,0.0015064282,-0.0025316067,-0.0024448342,0.0075655105,0.026621034,-0.08130991,-0.98336786,-0.00979698,0.06581213,1.5581397,0.050202265,0.0,0.10046634,0.034048293,0.0169809,0.060656518,0.033891845,inf,inf,inf,inf,1,1,1,1,4,3,2,3,4,0,0,1
2134013918,0,0.0,0.0,0.99151826,0.9996824,-0.07211064,1.1408086,0.91646695,-0.5153563,0.002275145,0.00039316545,-0.0017770276,-0.0016900278,0.0075655105,0.026621034,-0.08130991,-0.18693885,-1.5047556,-0.04780179,1.5603344,0.050202265,0.0,0.10048216,0.0339616,0.016980896,0.06054259,0.033891838,inf,inf,inf,inf,1,1,1,1,4,3,2,3,4,0,0,1
2134033906,0,0.0,0.0,0.99147314,0.99973476,-0.07212345,1.1408086,0.91646695,-0.5153563,0.0027602292,0.006062818,0.00061040913,0.0006977042,0.0075655105,0.026621034,-0.08130991,0.07484598,1.0855116,0.29250088,1.5587904,0.050202265,0.0,0.10049497,0.033879805,0.016980894,0.060436912,0.033891827,inf,inf,inf,inf,1,1,1,1,4,3,2,3,4,0,0,1
2134053894,0,0.0,0.0,0.991454,0.99981314,-0.07213694,1.1408086,0.91646695,-0.5153563,0.005712614,0.0032551675,-0.00032479758,-0.00023684435,0.0075655105,0.026621034,-0.08130991,1.5443048,-0.0037375912,0.20048572,1.5590929,0.050202265,0.0,0.10050846,0.033802632,0.016980892,0.060338166,0.03389182,inf,inf,inf,inf,1,1,1,1,4,3,2,3,4,0,0,1
2134073882,0,0.0,0.0,0.99144566,0.99989855,-0.072141506,1.1408086,0.91646695,-0.5153563,0.0058212653,0.009886506,-0.0011697197,-0.0010799933,0.0075655105,0.026621034,-0.08130991,0.04673665,1.6179317,-0.14898929,1.56028,0.050202265,0.0,0.100513026,0.03372988,0.01698089,0.06024786,0.03389182,inf,inf,inf,inf,1,1,1,1,4,3,2,3,4,0,0,1
2134093869,0,0.0,0.0,0.9914012,0.99995065,-0.07214948,1.1408086,0.91646695,-0.5153563,0.009722305,0.006007318,-0.00067861786,-0.00058604847,0.0075655105,0.026621034,-0.08130991,2.1687937,-0.28750333,-0.15199964,1.5582064,0.050202265,0.0,0.100521,0.034657348,0.016980888,0.061192423,0.033891797,inf,inf,inf,inf,1,1,1,1,4,3,2,3,4,0,0,1
2134123851,0,0.0,0.0,0.99136496,1.0000464,-0.072175324,1.1408086,0.91646695,-0.5153563,0.0033994347,-0.0003082452,3.5579822e-05,0.00013250248,0.0075655105,0.026621034,-0.08130991,0.42422304,-0.08587186,0.37718764,1.5583069,0.050202265,0.0,0.100546844,0.034003314,0.016980883,0.06046475,0.03389178,inf,inf,inf,inf,1,1,1,1,4,3,2,3,4,0,0,1
2134133847,0,0.0,0.0,0.99136645,1.0001087,-0.07218624,1.1408086,0.91646695,-0.5153563,0.010479894,0.0063957963,-0.0017095208,-0.0016112532,0.0075655105,0.026621034,-0.08130991,1.204894,-1.2001257,0.08076559,1.5587761,0.050202265,0.0,0.10055776,0.034467112,0.01698088,0.060937356,0.03389178,inf,inf,inf,inf,1,1,1,1,4,3,2,3,4,0,0,1
2134153832,0,0.0,0.0,0.99137366,1.0001693,-0.072194144,1.1408086,0.91646695,-0.5153563,0.0011010973,0.006402932,-0.0014159142,-0.0013145008,0.0075655105,0.026621034,-0.08130991,-2.1693637,1.0743275,-0.41602036,1.5589533,0.050202265,0.0,0.100565664,0.03437992,0.016980877,0.060823586,0.033891782,inf,inf,inf,inf,1,1,1,1,4,3,2,3,4,0,0,1
2134173820,0,0.0,0.0,0.9913544,1.0002695,-0.07220219,1.1408086,0.91646695,-0.5153563,0.0074355076,0.0015539929,-0.0021042437,-0.001999247,0.0075655105,0.026621034,-0.08130991,0.18644129,-2.2455227,-0.23223798,1.5600829,0.050202265,0.0,0.10057371,0.034270614,0.016980875,0.06066898,0.033891767,inf,inf,inf,inf,1,1,1,1,4,3,2,3,4,0,0,1
2134203803,0,0.0,0.0,0.99133486,1.0003881,-0.07220475,1.1408086,0.91646695,-0.5153563,0.010818217,0.008485505,-0.00064822857,-0.00053789816,0.0075655105,0.026621034,-0.08130991,0.8405685,0.18485257,-0.1545766,1.5596278,0.050202265,0.0,0.10057627,0.034632433,0.01698087,0.06099963,0.033891752,inf,inf,inf,inf,1,1,1,1,4,3,2,3,4,0,0,1
2134213795,0,0.0,0.0,0.9913233,1.0004219,-0.072214626,1.1408086,0.91646695,-0.5153563,0.0048113954,-0.0029407516,8.027153e-05,0.00019234593,0.0075655105,0.026621034,-0.08130991,0.72328603,-2.2048457,0.5310074,1.5602834,0.050202265,0.0,0.100586146,0.034069795,0.016980868,0.060399443,0.03389174,inf,inf,inf,inf,1,1,1,1,4,3,2,3,4,0,0,1
2134233783,0,0.0,0.0,0.9913122,1.0004884,-0.07221901,1.1408086,0.91646695,-0.5153563,0.00022316599,0.010392103,0.0004948961,0.0006103716,0.0075655105,0.026621034,-0.08130991,-0.86543226,1.7603188,0.23695828,1.5588957,0.050202265,0.0,0.10059053,0.03500296,0.016980866,0.061344292,0.033891745,inf,inf,inf,inf,1,1,1,1,4,3,2,3,4,0,0,1
2134263763,0,0.0,0.0,0.99131054,1.0006065,-0.07221622,1.1408086,0.91646695,-0.5153563,0.003103441,0.006221422,-0.003832038,-0.0037101912,0.0075655105,0.026621034,-0.08130991,-0.60360056,-0.66125304,-0.47841227,1.5581573,0.050202265,0.0,0.10058774,0.034298267,0.016980862,0.060545366,0.033891723,inf,inf,inf,inf,1,1,1,1,4,3,2,3,4,0,0,1
2134273757,0,0.0,0.0,0.99130553,1.0006416,-0.0722296,1.1408086,0.91646695,-0.5153563,0.005065673,0.010268348,-0.0015596155,-0.0014355661,0.0075655105,0.026621034,-0.08130991,-0.052973956,1.3539276,-0.13188516,1.5603307,0.050202265,0.0,0.10060112,0.034763932,0.016980862,0.06101844,0.033891723,inf,inf,inf,inf,1,1,1,1,4,3,2,3,4,0,0,1
2134293744,0,0.0,0.0,0.99130493,1.0006927,-0.07223819,1.1408086,0.91646695,-0.5153563,0.012271242,0.00451304,0.0008495982,0.000978138,0.0075655105,0.026621034,-0.08130991,2.55524,-0.67370564,0.23968832,1.5580094,0.050202265,0.0,0.10060971,0.034654394,0.01698086,0.060870618,0.03389171,inf,inf,inf,inf,1,1,1,1,4,3,2,3,4,0,0,1
2134313732,0,0.0,0.0,0.9913451,1.000779,-0.07225003,1.1408086,0.91646695,-0.5153563,0.005637659,0.010669006,-0.0006429288,-0.00050980196,0.0075655105,0.026621034,-0.08130991,-0.9483097,1.2663916,0.082424,1.560363,0.050202265,0.0,0.10062155,0.034523524,0.016980859,0.060691442,0.03389171,inf,inf,inf,inf,1,1,1,1,4,3,2,3,4,0,0,1
2134343715,0,0.0,0.0,0.9913251,1.0008911,-0.07226871,1.1408086,0.91646695,-0.5153563,0.0028438673,0.0043391995,-0.0013739906,-0.0012338185,0.0075655105,0.026621034,-0.08130991,0.36911157,-0.76627487,0.23769842,1.5604452,0.050202265,0.0,0.10064023,0.034837518,0.016980855,0.060948133,0.033891696,inf,inf,inf,inf,1,1,1,1,4,3,2,3,4,0,0,1
2134353712,0,0.0,0.0,0.9913247,1.0009142,-0.07226566,1.1408086,0.91646695,-0.5153563,0.0005825475,0.008291171,-0.0008760681,-0.00073352264,0.0075655105,0.026621034,-0.08130991,-1.5370799,0.9386871,-0.31069648,1.5590409,0.050202265,0.0,0.10063718,0.035308734,0.016980853,0.06141481,0.033891704,inf,inf,inf,inf,1,1,1,1,4,3,2,3,4,0,0,1
2134373696,0,0.0,0.0,0.9913535,1.0009892,-0.072271116,1.1408086,0.91646695,-0.5153563,0.011184386,0.0020634683,-0.0019516342,-0.0018043168,0.0075655105,0.026621034,-0.08130991,0.05882594,-2.1414723,-0.071527034,1.560061,0.050202265,0.0,0.10064264,0.035132367,0.016980851,0.061166678,0.033891704,inf,inf,inf,inf,1,1,1,1,4,3,2,3,4,0,0,1
2134403676,0,0.0,0.0,0.9913531,1.0010483,-0.07229091,1.1408086,0.91646695,-0.5153563,0.008718296,0.009888321,-0.0007585432,-0.00060403236,0.0075655105,0.026621034,-0.08130991,0.6547121,1.3665533,-0.050141145,1.5593399,0.050202265,0.0,0.10066243,0.035408095,0.016980847,0.06135505,0.033891708,inf,inf,inf,inf,1,1,1,1,4,3,2,3,4,0,0,1
2134413672,0,0.0,0.0,0.99138266,1.0010914,-0.07230153,1.1408086,0.91646695,-0.5153563,0.006898357,-0.00093539304,-0.0013014943,-0.001144584,0.0075655105,0.026621034,-0.08130991,-0.25856698,-2.1153154,0.18055019,1.5603309,0.050202265,0.0,0.10067305,0.03588476,0.016980847,0.061824325,0.03389169,inf,inf,inf,inf,1,1,1,1,4,3,2,3,4,0,0,1
2134433658,0,0.0,0.0,0.9913814,1.0011578,-0.07232726,1.1408086,0.91646695,-0.5153563,-0.002731271,0.009367896,-0.0029069686,-0.0027453294,0.0075655105,0.026621034,-0.08130991,-1.8477159,0.8857342,-0.30761644,1.5584646,0.050202265,0.0,0.100698784,0.03569493,0.016980844,0.061576854,0.033891685,inf,inf,inf,inf,1,1,1,1,4,3,2,3,4,0,0,1
2134453645,0,0.0,0.0,0.9913954,1.0012292,-0.072379574,1.1408086,0.91646695,-0.5153563,0.001296729,-0.00093136204,-0.0037207028,-0.0035543484,0.0075655105,0.026621034,-0.08130991,1.1312957,-2.417584,0.23388809,1.5598743,0.050202265,0.0,0.100751095,0.03551655,0.01698084,0.0613387,0.033891678,inf,inf,inf,inf,1,1,1,1,4,3,2,3,4,0,0,1
2134473632,0,0.0,0.0,0.99135613,1.00125,-0.07238559,1.1408086,0.91646695,-0.5153563,0.004626934,0.005671536,0.0041531776,0.0043242606,0.0075655105,0.026621034,-0.08130991,2.6183572,-1.8673908,0.32839066,1.5598075,0.050202265,0.0,0.10075711,0.035348777,0.016980838,0.06112812,0.033891674,inf,inf,inf,inf,1,1,1,1,4,3,2,3,4,0,0,1
2134493620,0,0.0,0.0,0.9914848,1.0013089,-0.072439745,1.1408086,0.91646695,-0.5153563,-0.0038939563,0.0055662286,-0.009045542,-0.008869839,0.0075655105,0.026621034,-0.08130991,-2.8292735,-0.7327145,-0.19770062,1.559186,0.050202265,0.0,0.100811265,0.035191063,0.016980836,0.06093112,0.03389167,inf,inf,inf,inf,1,1,1,1,4,3,2,3,4,0,0,1
2134513609,0,0.0,0.0,0.9915678,1.0013609,-0.07255268,1.1408086,0.91646695,-0.5153563,0.009975126,0.0036302833,-0.008132492,-0.007952262,0.0075655105,0.026621034,-0.08130991,-3.123805,-0.4047945,-0.39091188,1.5590492,0.050202265,0.0,0.1009242,0.03501444,0.016980834,0.060707808,0.033891667,inf,inf,inf,inf,1,1,1,1,4,3,2,3,4,0,0,1
2134543589,0,0.0,0.0,0.991447,1.0013651,-0.07248797,1.1408086,0.91646695,-0.5153563,-0.0004462373,0.0026194253,-0.0049466137,-0.004759802,0.0075655105,0.026621034,-0.08130991,-2.934234,0.06616477,-1.0791384,1.5583537,0.050202265,0.0,0.10085949,0.035314154,0.016980832,0.060969334,0.033891663,inf,inf,inf,inf,1,1,1,1,4,3,2,3,4,0,0,1
2134553584,0,0.0,0.0,0.991384,1.0013702,-0.072495624,1.1408086,0.91646695,-0.5153563,0.0025151833,0.00800166,0.0033546132,0.003543437,0.0075655105,0.026621034,-0.08130991,1.2889524,0.92595804,1.0544895,1.560604,0.050202265,0.0,0.100867145,0.03578591,0.01698083,0.061433364,0.033891656,inf,inf,inf,inf,1,1,1,1,4,3,2,3,4,0,0,1
2134573571,0,0.0,0.0,0.99147785,1.0013702,-0.0724772,1.1408086,0.91646695,-0.5153563,0.014175985,-0.002908772,-0.0075568687,-0.0073635746,0.0075655105,0.026621034,-0.08130991,1.1161287,-0.3155274,-0.642484,1.5584352,0.050202265,0.0,0.10084872,0.035595875,0.016980829,0.06119623,0.033891667,inf,inf,inf,inf,1,1,1,1,4,3,2,3,4,0,0,1
2134593558,0,0.0,0.0,0.99151725,1.0014219,-0.07263532,1.1408086,0.91646695,-0.5153563,0.0020817907,0.0026112853,-0.007269087,-0.0070712906,0.0075655105,0.026621034,-0.08130991,0.80470246,-1.6703799,0.43857533,1.5605778,0.050202265,0.0,0.10100684,0.03541749,0.016980827,0.060982957,0.03389166,inf,inf,inf,inf,1,1,1,1,4,3,2,3,4,0,0,1
2134613546,0,0.0,0.0,0.9916171,1.001349,-0.07275096,1.1408086,0.91646695,-0.5153563,-0.008792874,0.00639811,-0.005490253,-0.0052874926,0.0075655105,0.026621034,-0.08130991,-3.397613,0.76704854,0.4753066,1.5597279,0.050202265,0.0,0.10112248,0.03525006,0.016980825,0.06078994,0.033891674,inf,inf,inf,inf,1,1,1,1,4,3,2,3,4,0,0,1
2134633533,0,0.0,0.0,0.9914972,1.0013771,-0.07261359,1.1408086,0.91646695,-0.5153563,0.00892334,0.002258029,0.005443657,0.0056513455,0.0075655105,0.026621034,-0.08130991,0.8086129,-0.9922144,-0.91176647,1.5599561,0.050202265,0.0,0.10098511,0.035092905,0.016980823,0.060611214,0.033891656,inf,inf,inf,inf,1,1,1,1,4,3,2,3,4,0,0,1
2134653521,0,0.0,0.0,0.9914202,1.0013427,-0.07252361,1.1408086,0.91646695,-0.5153563,-0.0045872377,0.01352336,0.0063799284,0.006592312,0.0075655105,0.026621034,-0.08130991,0.5355606,0.9484235,0.26991165,1.5603474,0.050202265,0.0,0.10089513,0.03494528,0.016980823,0.06045357,0.03389167,inf,inf,inf,inf,1,1,1,1,4,3,2,3,4,0,0,1
2134683504,0,0.0,0.0,0.9915036,1.001312,-0.07251548,1.1408086,0.91646695,-0.5153563,0.003929101,0.0071849604,-0.0013110535,-0.0010912268,0.0075655105,0.026621034,-0.08130991,0.124617144,0.12831627,0.8128487,1.5606098,0.050202265,0.0,0.100887,0.03422174,0.016980823,0.059718896,0.033891644,inf,inf,inf,inf,1,1,1,1,4,3,2,3,4,0,0,1
2134693496,0,0.0,0.0,0.99152994,1.0013372,-0.072515346,1.1408086,0.91646695,-0.5153563,0.012683525,0.0070405887,-0.001817881,-0.0015953095,0.0075655105,0.026621034,-0.08130991,0.94149864,-0.24471621,-0.40154117,1.5603269,0.050202265,0.0,0.10088687,0.034677044,0.016980823,0.060162675,0.033891715,inf,inf,inf,inf,1,1,1,1,4,3,2,3,4,0,0,1
2134713484,0,0.0,0.0,0.9916659,1.0013167,-0.07270605,1.1408086,0.91646695,-0.5153563,0.003988101,0.006504751,-0.011669834,-0.011441691,0.0075655105,0.026621034,-0.08130991,-0.94493407,1.4509368,0.5844507,1.5610358,0.050202265,0.0,0.10107757,0.034527943,0.016980823,0.060010277,0.033891648,inf,inf,inf,inf,1,1,1,1,4,3,2,3,4,0,0,1
2134743465,0,0.0,0.0,0.99176466,1.001323,-0.07291086,1.1408086,0.91646695,-0.5153563,-0.0033592298,0.007036972,-0.00762096,-0.0073844455,0.0075655105,0.026621034,-0.08130991,-2.7452173,0.6785412,0.28454816,1.5608771,0.050202265,0.0,0.10128238,0.034845166,0.016980823,0.060327653,0.03389165,inf,inf,inf,inf,1,1,1,1,4,3,2,3,4,0,0,1
2134763453,0,0.0,0.0,0.99169433,1.0012851,-0.07284008,1.1408086,0.91646695,-0.5153563,0.0075599006,0.0024674293,0.0034141648,0.0036565368,0.0075655105,0.026621034,-0.08130991,-0.6567359,-0.022268958,-0.9537653,1.5599307,0.050202265,0.0,0.1012116,0.03471226,0.016980823,0.060190298,0.033891644,inf,inf,inf,inf,1,1,1,1,4,3,2,3,4,0,0,1
2134773448,0,0.0,0.0,0.9916916,1.0012293,-0.0728249,1.1408086,0.91646695,-0.5153563,0.0029755908,-0.00040542797,0.0006575131,0.0009030943,0.0075655105,0.026621034,-0.08130991,-0.43671402,0.28422564,0.22695635,1.5606256,0.050202265,0.0,0.10119642,0.0351737,0.016980823,0.060648724,0.033891674,inf,inf,inf,inf,1,1,1,1,4,3,2,3,4,0,0,1
2134803430,0,0.0,0.0,0.99163276,1.0012019,-0.07265231,1.1408086,0.91646695,-0.5153563,0.011271736,-0.00022569457,-0.0005232422,-0.00026669202,0.0075655105,0.026621034,-0.08130991,-0.7900763,-0.14837746,-0.9131605,1.5600517,0.050202265,0.0,0.10102383,0.034417767,0.016980823,0.05984105,0.033891644,inf,inf,inf,inf,1,1,1,1,4,3,2,3,4,0,0,1
2134813426,0,0.0,0.0,0.99163085,1.0011964,-0.07267056,1.1408086,0.91646695,-0.5153563,-0.00039208608,0.0072689187,-0.003957225,-0.003696885,0.0075655105,0.026621034,-0.08130991,-1.2141147,0.2305822,-0.16825071,1.5608605,0.050202265,0.0,0.10104208,0.03487479,0.016980823,0.060307406,0.033891648,inf,inf,inf,inf,1,1,1,1,4,3,2,3,4,0,0,1
2134833410,0,0.0,0.0,0.9916573,1.001216,-0.072654955,1.1408086,0.91646695,-0.5153563,0.014301474,0.0032031243,-0.0058690407,-0.005601502,0.0075655105,0.026621034,-0.08130991,0.1309807,-0.3754902,-1.2051176,1.5600604,0.050202265,0.0,0.101026475,0.034738936,0.016980823,0.06016822,0.033891663,inf,inf,inf,inf,1,1,1,1,4,3,2,3,4,0,0,1
2134853397,0,0.0,0.0,0.9918105,1.0011723,-0.07283653,1.1408086,0.91646695,-0.5153563,0.005076371,0.008794187,-0.009894385,-0.009620193,0.0075655105,0.026621034,-0.08130991,-1.5197849,0.69501567,0.10131497,1.5611293,0.050202265,0.0,0.10120805,0.034584574,0.016980821,0.060003016,0.03389165,inf,inf,inf,inf,1,1,1,1,4,3,2,3,4,0,0,1
2134883378,0,0.0,0.0,0.9919679,1.0011433,-0.07308359,1.1408086,0.91646695,-0.5153563,0.004162166,0.0047775763,-0.014763029,-0.014479081,0.0075655105,0.026621034,-0.08130991,-2.2560523,0.0033539713,-0.2742522,1.5606656,0.050202265,0.0,0.10145511,0.034896795,0.016980818,0.060327496,0.033891656,inf,inf,inf,inf,1,1,1,1,4,3,2,3,4,0,0,1
2134893372,0,0.0,0.0,0.9919425,1.0011314,-0.073176734,1.1408086,0.91646695,-0.5153563,0.003842617,0.0042297603,-0.0046006953,-0.00431312,0.0075655105,0.026621034,-0.08130991,0.36664748,0.0658579,1.2276624,1.5613823,0.050202265,0.0,0.101548254,0.035359934,0.016980818,0.060777172,0.033891663,inf,inf,inf,inf,1,1,1,1,4,3,2,3,4,0,0,1
2134913360,0,0.0,0.0,0.99195325,1.0011239,-0.07319502,1.1408086,0.91646695,-0.5153563,0.010598694,-0.0038990688,-0.0038296182,-0.003533945,0.0075655105,0.026621034,-0.08130991,0.7170182,-1.3407317,-0.21435449,1.5602304,0.050202265,0.0,0.10156654,0.035192292,0.016980816,0.060591057,0.033891678,inf,inf,inf,inf,1,1,1,1,4,3,2,3,4,0,0,1
2134943341,0,0.0,0.0,0.9918628,1.0010588,-0.073150925,1.1408086,0.91646695,-0.5153563,0.009986314,0.0021192054,0.010170702,0.010480397,0.0075655105,0.026621034,-0.08130991,1.4132168,0.009329914,0.12941521,1.5606601,0.050202265,0.0,0.101522446,0.034430943,0.016980812,0.059786487,0.033891667,inf,inf,inf,inf,1,1,1,1,4,3,2,3,4,0,0,1
2134963329,0,0.0,0.0,0.99187654,1.0009516,-0.07308051,1.1408086,0.91646695,-0.5153563,0.0025480033,0.0036212904,0.0033996496,0.0037190265,0.0075655105,0.026621034,-0.08130991,0.029209465,0.90195715,0.88417935,1.561065,0.050202265,0.0,0.10145203,0.0342942,0.016980812,0.059635863,0.03389167,inf,inf,inf,inf,1,1,1,1,4,3,2,3,4,0,0,1
2134973322,0,0.0,0.0,0.9918157,1.0009686,-0.07301292,1.1408086,0.91646695,-0.5153563,-0.00021121532,0.008743013,0.00720533,0.007529404,0.0075655105,0.026621034,-0.08130991,0.20365198,0.08677598,0.18589321,1.5614623,0.050202265,0.0,0.10138444,0.0347485,0.01698081,0.060108215,0.03389167,inf,inf,inf,inf,1,1,1,1,4,3,2,3,4,0,0,1
2134993310,0,0.0,0.0,0.9918589,1.0008737,-0.07291828,1.1408086,0.91646695,-0.5153563,0.013130181,0.001458226,-0.0030438094,-0.0027106234,0.0075655105,0.026621034,-0.08130991,-0.34377378,0.9211253,-0.8760046,1.5604866,0.050202265,0.0,0.1012898,0.034618706,0.01698081,0.05997244,0.033891674,inf,inf,inf,inf,1,1,1,1,4,3,2,3,4,0,0,1
2135023292,0,0.0,0.0,0.9918693,1.0008194,-0.072849154,1.1408086,0.91646695,-0.5153563,0.014336079,0.0025815805,0.0017897845,0.0021362149,0.0075655105,0.026621034,-0.08130991,0.5001625,-0.15350783,-1.3503205,1.560668,0.050202265,0.0,0.101220675,0.03393324,0.01698081,0.059320338,0.03389168,inf,inf,inf,inf,1,1,1,1,4,3,2,3,4,0,0,1
2135043280,0,0.0,0.0,0.9920206,1.0006644,-0.07299064,1.1408086,0.91646695,-0.5153563,0.012145034,0.005059755,-0.009802075,-0.00944613,0.0075655105,0.026621034,-0.08130991,-0.87213236,1.8107313,0.33748204,1.5614257,0.050202265,0.0,0.10136216,0.03382779,0.01698081,0.05922409,0.033891715,inf,inf,inf,inf,1,1,1,1,4,3,2,3,4,0,0,1
2135053272,0,0.0,0.0,0.99202836,1.0006788,-0.0730462,1.1408086,0.91646695,-0.5153563,0.0042217895,0.0055901627,-0.0039604953,-0.0035994067,0.0075655105,0.026621034,-0.08130991,-0.3786381,-0.68306655,0.49344954,1.5618831,0.050202265,0.0,0.10141772,0.034276504,0.01698081,0.059696153,0.03389168,inf,inf,inf,inf,1,1,1,1,4,3,2,3,4,0,0,1
2135083254,0,0.0,0.0,0.99220806,1.0005614,-0.073145375,1.1408086,0.91646695,-0.5153563,0.012684755,0.00091230136,-0.015715567,-0.015336344,0.0075655105,0.026621034,-0.08130991,-0.7082024,-0.16673516,-0.54855555,1.5618379,0.050202265,0.0,0.101516895,0.033636473,0.01698081,0.059055313,0.033891696,inf,inf,inf,inf,1,1,1,1,4,3,2,3,4,0,0,1
2135103242,0,0.0,0.0,0.9922695,1.0005399,-0.07329066,1.1408086,0.91646695,-0.5153563,0.005339949,0.0048753726,-0.0043212413,-0.003927772,0.0075655105,0.026621034,-0.08130991,-0.4653734,-0.87386537,-0.047903944,1.5611558,0.050202265,0.0,0.10166218,0.033549838,0.01698081,0.058974247,0.03389172,inf,inf,inf,inf,1,1,1,1,4,3,2,3,4,0,0,1
2135113235,0,0.0,0.0,0.9923116,1.0004936,-0.07331968,1.1408086,0.91646695,-0.5153563,0.018133746,-0.0015253989,-0.0049792277,-0.0045781936,0.0075655105,0.026621034,-0.08130991,1.6450783,-0.38991347,-0.23210526,1.561077,0.050202265,0.0,0.1016912,0.033995483,0.01698081,0.059418883,0.0338917,inf,inf,inf,inf,1,1,1,1,4,3,2,3,4,0,0,1
2135133224,0,0.0,0.0,0.99252725,1.0004079,-0.0735395,1.1408086,0.91646695,-0.5153563,0.009411132,0.00076378195,-0.016821938,-0.016405413,0.0075655105,0.026621034,-0.08130991,-1.102875,-0.07015978,0.13068183,1.562198,0.050202265,0.0,0.10191102,0.033887982,0.01698081,0.05932737,0.033891704,inf,inf,inf,inf,1,1,1,1,4,3,2,3,4,0,0,1
2135163204,0,0.0,0.0,0.9927253,1.0003597,-0.07373762,1.1408086,0.91646695,-0.5153563,0.021356557,-4.3435186e-05,-0.012297497,-0.011858378,0.0075655105,0.026621034,-0.08130991,0.23704624,0.0021432582,-0.6052584,1.5618052,0.050202265,0.0,0.10210914,0.034210008,0.01698081,0.059658542,0.03389171,inf,inf,inf,inf,1,1,1,1,4,3,2,3,4,0,0,1
2135183192,0,0.0,0.0,0.99292654,1.0003105,-0.073997855,1.1408086,0.91646695,-0.5153563,0.0058168317,0.0049587297,-0.011065174,-0.01061187,0.0075655105,0.026621034,-0.08130991,-1.1734902,0.33629155,0.8827201,1.561817,0.050202265,0.0,0.102369376,0.03512543,0.01698081,0.060551982,0.03389171,inf,inf,inf,inf,1,1,1,1,4,3,2,3,4,0,0,1
2135193185,0,0.0,0.0,0.99294174,1.000322,-0.07403831,1.1408086,0.91646695,-0.5153563,0.012976234,0.0071263458,-0.0014815459,-0.0010215443,0.0075655105,0.026621034,-0.08130991,1.2417175,0.006390861,0.61017597,1.5618043,0.050202265,0.0,0.10240983,0.034515657,0.01698081,0.059933256,0.033891723,inf,inf,inf,inf,1,1,1,1,4,3,2,3,4,0,0,1
2135223167,0,0.0,0.0,0.99327993,1.0002245,-0.074374035,1.1408086,0.91646695,-0.5153563,0.019713013,0.005021278,-0.015118508,-0.014639343,0.0075655105,0.026621034,-0.08130991,-0.43702346,0.44254538,0.35278624,1.5623262,0.050202265,0.0,0.102745555,0.034832306,0.01698081,0.060244285,0.03389173,inf,inf,inf,inf,1,1,1,1,4,3,2,3,4,0,0,1
2135243154,0,0.0,0.0,0.9933389,1.0002457,-0.074531436,1.1408086,0.91646695,-0.5153563,0.016480327,0.005911237,-0.0025507717,-0.0020590269,0.0075655105,0.026621034,-0.08130991,2.156192,0.30808878,0.46678945,1.5622802,0.050202265,0.0,0.10290296,0.034698937,0.01698081,0.060104076,0.03389175,inf,inf,inf,inf,1,1,1,1,4,3,2,3,4,0,0,1
2135253148,0,0.0,0.0,0.99350446,1.0002264,-0.07459856,1.1408086,0.91646695,-0.5153563,0.02222401,0.0014557382,-0.015953232,-0.01545513,0.0075655105,0.026621034,-0.08130991,-1.1194142,-0.3427606,-1.8008276,1.561922,0.050202265,0.0,0.10297008,0.03412088,0.01698081,0.05953544,0.033891734,inf,inf,inf,inf,1,1,1,1,4,3,2,3,4,0,0,1
2135273135,0,0.0,0.0,0.9937098,1.0001748,-0.07493074,1.1408086,0.91646695,-0.5153563,0.018514235,0.0071974234,-0.0075708786,-0.0070594004,0.0075655105,0.026621034,-0.08130991,0.2446318,0.60520715,1.6847876,1.5630612,0.050202265,0.0,0.10330226,0.034005113,0.01698081,0.059393845,0.033891734,inf,inf,inf,inf,1,1,1,1,4,3,2,3,4,0,0,1
2135303117,0,0.0,0.0,0.9939325,1.0001101,-0.07508998,1.1408086,0.91646695,-0.5153563,0.024926605,0.0031762407,-0.014356891,-0.013823191,0.0075655105,0.026621034,-0.08130991,-0.35118434,0.49832392,-1.2431884,1.5625172,0.050202265,0.0,0.103461504,0.034346413,0.01698081,0.05976875,0.033891737,inf,inf,inf,inf,1,1,1,1,4,3,2,3,4,0,0,1
2135323105,0,0.0,0.0,0.9940329,1.0000652,-0.07532591,1.1408086,0.91646695,-0.5153563,0.008735675,0.005891097,-0.00095999916,-0.0004093059,0.0075655105,0.026621034,-0.08130991,0.63382137,0.6102012,1.6698172,1.5631247,0.050202265,0.0,0.10369743,0.034243163,0.01698081,0.059648085,0.033891745,inf,inf,inf,inf,1,1,1,1,4,3,2,3,4,0,0,1
2135333099,0,0.0,0.0,0.99411494,1.000087,-0.07527789,1.1408086,0.91646695,-0.5153563,0.019009747,0.006635478,0.0036636826,0.0042236173,0.0075655105,0.026621034,-0.08130991,0.22545382,-0.35210735,-0.22492945,1.5627209,0.050202265,0.0,0.10364941,0.03369854,0.01698081,0.059116576,0.03389177,inf,inf,inf,inf,1,1,1,1,4,3,2,3,4,0,0,1
2135363080,0,0.0,0.0,0.9944751,0.99994594,-0.07551235,1.1408086,0.91646695,-0.5153563,0.019643579,-0.0018082345,-0.014915421,-0.014323743,0.0075655105,0.026621034,-0.08130991,-1.8729728,0.12301672,0.4191529,1.5634986,0.050202265,0.0,0.10388387,0.034055687,0.01698081,0.05947167,0.03389176,inf,inf,inf,inf,1,1,1,1,4,3,2,3,4,0,0,1
2135383067,0,0.0,0.0,0.9945053,0.9998964,-0.07554472,1.1408086,0.91646695,-0.5153563,0.022458162,0.0052993214,0.0052261865,0.0058424133,0.0075655105,0.026621034,-0.08130991,2.5572567,-0.21033786,0.13207294,1.5635276,0.050202265,0.0,0.10391624,0.033970613,0.01698081,0.059433736,0.033891775,inf,inf,inf,inf,1,1,1,1,4,3,2,3,4,0,0,1
2135393061,0,0.0,0.0,0.99464995,0.9998426,-0.07553754,1.1408086,0.91646695,-0.5153563,0.020593643,-0.005358725,-0.008370372,-0.0077407598,0.0075655105,0.026621034,-0.08130991,-0.7463581,-0.9550104,-1.3938454,1.563736,0.050202265,0.0,0.10390906,0.03344611,0.01698081,0.058905326,0.033891782,inf,inf,inf,inf,1,1,1,1,4,3,2,3,4,0,0,1
2135413050,0,0.0,0.0,0.99487144,0.9996407,-0.07569228,1.1408086,0.91646695,-0.5153563,0.029121248,-0.003455928,-0.0034537194,-0.0027949298,0.0075655105,0.026621034,-0.08130991,1.3138667,-0.06735018,0.9834117,1.5641502,0.050202265,0.0,0.1040638,0.034342337,0.01698081,0.05979264,0.03389178,inf,inf,inf,inf,1,1,1,1,4,3,2,3,4,0,0,1
2135443030,0,0.0,0.0,0.9949745,0.99946576,-0.075558566,1.1408086,0.91646695,-0.5153563,0.023709264,-0.004099142,0.0005285997,0.0012361772,0.0075655105,0.026621034,-0.08130991,1.106016,-0.5813595,-0.6880635,1.5645728,0.050202265,0.0,0.103930086,0.034697287,0.01698081,0.060156055,0.033891793,inf,inf,inf,inf,1,1,1,1,4,3,2,3,4,0,0,1
2135463017,0,0.0,0.0,0.99510664,0.9992368,-0.075608276,1.1408086,0.91646695,-0.5153563,0.003444881,-0.0006201585,-0.003650718,-0.0029071732,0.0075655105,0.026621034,-0.08130991,-0.94027096,1.2548076,0.5820154,1.5652431,0.050202265,0.0,0.103979796,0.03457449,0.01698081,0.06001381,0.03389179,inf,inf,inf,inf,1,1,1,1,4,3,2,3,4,0,0,1
