timestamp,q[0],q[1],q[2],q[3],delta_q_reset[0],delta_q_reset[1],delta_q_reset[2],delta_q_reset[3],quat_reset_counter
2131920223,0.71103394,0.0029544572,0.0024810298,0.7031472,0.99968505,-2.974825e-10,4.4255995e-11,0.025098499,4
2131925221,0.71103305,0.0029466741,0.0024809956,0.70314807,0.99968505,-2.974825e-10,4.4255995e-11,0.025098499,4
2131940209,0.7110316,0.0029429486,0.0024801062,0.7031496,0.99968505,-2.974825e-10,4.4255995e-11,0.025098499,4
2131960197,0.7110296,0.0029335448,0.002471138,0.70315164,0.99968505,-2.974825e-10,4.4255995e-11,0.025098499,4
2131980184,0.7110661,0.0029341378,0.0024761732,0.70311475,0.99968505,-2.974825e-10,4.4255995e-11,0.025098499,4
2132000172,0.7109747,0.0029490846,0.0024774806,0.70320714,0.99968505,-2.974825e-10,4.4255995e-11,0.025098499,4
2132020159,0.7110776,0.0029070491,0.0024741758,0.7031032,0.99968505,-2.974825e-10,4.4255995e-11,0.025098499,4
2132040147,0.7110177,0.0029392755,0.0024857062,0.70316356,0.99968505,-2.974825e-10,4.4255995e-11,0.025098499,4
2132060134,0.7110377,0.002943504,0.002472207,0.7031435,0.99968505,-2.974825e-10,4.4255995e-11,0.025098499,4
2132080122,0.71105504,0.0029023357,0.0024884704,0.70312595,0.99968505,-2.974825e-10,4.4255995e-11,0.025098499,4
2132100109,0.71102464,0.0029358657,0.0024839644,0.70315665,0.99968505,-2.974825e-10,4.4255995e-11,0.025098499,4
2132120097,0.711053,0.002910338,0.0024350001,0.7031283,0.99968505,-2.974825e-10,4.4255995e-11,0.025098499,4
2132140085,0.711036,0.0029370429,0.0025309513,0.7031449,0.99968505,-2.974825e-10,4.4255995e-11,0.025098499,4
2132160072,0.71105605,0.0029237992,0.0024538764,0.703125,0.99968505,-2.974825e-10,4.4255995e-11,0.025098499,4
2132180061,0.71103764,0.002934947,0.0025400368,0.7031433,0.99968505,-2.974825e-10,4.4255995e-11,0.025098499,4
2132200047,0.71106505,0.0029457498,0.0025214653,0.7031156,0.99968505,-2.974825e-10,4.4255995e-11,0.025098499,4
2132220035,0.71102834,0.0029195326,0.0024990973,0.70315295,0.99968505,-2.974825e-10,4.4255995e-11,0.025098499,4
2132240022,0.71106017,0.0029009618,0.0025036284,0.7031208,0.99968505,-2.974825e-10,4.4255995e-11,0.025098499,4
2132260010,0.7110683,0.0029034973,0.0025010437,0.70311266,0.99968505,-2.974825e-10,4.4255995e-11,0.025098499,4
2132279998,0.7110064,0.002900516,0.0024926548,0.70317525,0.99968505,-2.974825e-10,4.4255995e-11,0.025098499,4
2132299985,0.71108353,0.0028995646,0.0024910884,0.70309716,0.99968505,-2.974825e-10,4.4255995e-11,0.025098499,4
2132319973,0.71105385,0.0028950998,0.0024738421,0.7031272,0.99968505,-2.974825e-10,4.4255995e-11,0.025098499,4
2132339961,0.7110589,0.0028841663,0.0025166373,0.703122,0.99968505,-2.974825e-10,4.4255995e-11,0.025098499,4
2132359948,0.711059,0.0028976342,0.002523538,0.70312196,0.99968505,-2.974825e-10,4.4255995e-11,0.025098499,4
2132379937,0.7110426,0.0028916001,0.002515281,0.70313853,0.99968505,-2.974825e-10,4.4255995e-11,0.025098499,4
2132399923,0.7110764,0.0028967147,0.0025070556,0.7031044,0.99968505,-2.974825e-10,4.4255995e-11,0.025098499,4
2132419911,0.7110553,0.0028093618,0.002443818,0.7031264,0.99968505,-2.974825e-10,4.4255995e-11,0.025098499,4
2132439898,0.711064,0.0028286504,0.0024357333,0.7031175,0.99968505,-2.974825e-10,4.4255995e-11,0.025098499,4
2132459885,0.7111078,0.0028237703,0.0024302748,0.7030732,0.99968505,-2.974825e-10,4.4255995e-11,0.025098499,4
2132479874,0.7110664,0.0028951056,0.0024603382,0.7031146,0.99968505,-2.974825e-10,4.4255995e-11,0.025098499,4
2132499861,0.71105134,0.0028303557,0.0024105704,0.7031303,0.99968505,-2.974825e-10,4.4255995e-11,0.025098499,4
2132519849,0.71112335,0.002825667,0.0024062782,0.7030576,0.99968505,-2.974825e-10,4.4255995e-11,0.025098499,4
2132539836,0.7110398,0.002884788,0.002481632,0.7031415,0.99968505,-2.974825e-10,4.4255995e-11,0.025098499,4
2132559824,0.7110761,0.0027838447,0.0024318493,0.7031054,0.99968505,-2.974825e-10,4.4255995e-11,0.025098499,4
2132579811,0.711104,0.0028348356,0.0023806468,0.70307714,0.99968505,-2.974825e-10,4.4255995e-11,0.025098499,4
2132599799,0.7109871,0.002819085,0.0023434588,0.7031956,0.99968505,-2.974825e-10,4.4255995e-11,0.025098499,4
2132619787,0.7111759,0.0028207705,0.0023606552,0.7030046,0.99968505,-2.974825e-10,4.4255995e-11,0.025098499,4
2132639774,0.7110838,0.0028367226,0.0024210203,0.70309734,0.99968505,-2.974825e-10,4.4255995e-11,0.025098499,4
2132659761,0.7109996,0.0028629522,0.0023913626,0.7031825,0.99968505,-2.974825e-10,4.4255995e-11,0.025098499,4
2132679750,0.7112479,0.002762523,0.0024184356,0.7029317,0.99968505,-2.974825e-10,4.4255995e-11,0.025098499,4
2132699737,0.71093273,0.0028807302,0.0023753059,0.7032501,0.99968505,-2.974825e-10,4.4255995e-11,0.025098499,4
2132719724,0.71106327,0.0027948474,0.002333763,0.70311874,0.99968505,-2.974825e-10,4.4255995e-11,0.025098499,4
2132739712,0.7112945,0.0027673985,0.0023222987,0.7028849,0.99968505,-2.974825e-10,4.4255995e-11,0.025098499,4
2132759699,0.71081585,0.002897772,0.0023880228,0.7033682,0.99968505,-2.974825e-10,4.4255995e-11,0.025098499,4
2132779690,0.71137327,0.0027986995,0.0023912601,0.70280474,0.99968505,-2.974825e-10,4.4255995e-11,0.025098499,4
2132799674,0.71108234,0.0028233698,0.0023694234,0.7030992,0.99968505,-2.974825e-10,4.4255995e-11,0.025098499,4
2132819662,0.71085733,0.0028870518,0.0024553617,0.703326,0.99968505,-2.974825e-10,4.4255995e-11,0.025098499,4
2132839649,0.7115282,0.0027376637,0.0022573927,0.7026487,0.99968505,-2.974825e-10,4.4255995e-11,0.025098499,4
2132859637,0.7106751,0.0028305547,0.002321386,0.7035109,0.99968505,-2.974825e-10,4.4255995e-11,0.025098499,4
2132879624,0.71148986,0.002800483,0.0022951819,0.70268714,0.99968505,-2.974825e-10,4.4255995e-11,0.025098499,4
2132899612,0.7110384,0.0028225007,0.0023171897,0.7031437,0.99968505,-2.974825e-10,4.4255995e-11,0.025098499,4
2132924597,0.7106243,0.0028325212,0.0023512735,0.70356214,0.99968505,-2.974825e-10,4.4255995e-11,0.025098499,4
2132939587,0.7115239,0.002728714,0.0022277622,0.7026531,0.99968505,-2.974825e-10,4.4255995e-11,0.025098499,4
2132959575,0.71062946,0.0028717075,0.0023743792,0.70355666,0.99968505,-2.974825e-10,4.4255995e-11,0.025098499,4
2132979563,0.7116315,0.0027874182,0.0021800406,0.7025441,0.99968505,-2.974825e-10,4.4255995e-11,0.025098499,4
2132999550,0.710842,0.0028674544,0.0023709387,0.7033419,0.99968505,-2.974825e-10,4.4255995e-11,0.025098499,4
2133019537,0.7111834,0.0028772375,0.0022658645,0.702997,0.99968505,-2.974825e-10,4.4255995e-11,0.025098499,4
2133039526,0.71136516,0.0027269602,0.0022984028,0.70281357,0.99968505,-2.974825e-10,4.4255995e-11,0.025098499,4
2133059513,0.71068114,0.002941298,0.0024319845,0.7035039,0.99968505,-2.974825e-10,4.4255995e-11,0.025098499,4
2133079501,0.71160215,0.0026801773,0.002202659,0.7025742,0.99968505,-2.974825e-10,4.4255995e-11,0.025098499,4
2133099490,0.710868,0.0029095926,0.0022866614,0.70331573,0.99968505,-2.974825e-10,4.4255995e-11,0.025098499,4
2133119475,0.7111655,0.0027853244,0.0021955783,0.70301574,0.99968505,-2.974825e-10,4.4255995e-11,0.025098499,4
2133139462,0.71135885,0.0028389343,0.0023260477,0.7028194,0.99968505,-2.974825e-10,4.4255995e-11,0.025098499,4
2133159450,0.7107415,0.0028064554,0.002260457,0.7034441,0.99968505,-2.974825e-10,4.4255995e-11,0.025098499,4
2133179438,0.7114322,0.0028656179,0.0023659512,0.70274496,0.99968505,-2.974825e-10,4.4255995e-11,0.025098499,4
2133199426,0.7109848,0.0028126733,0.002327629,0.70319796,0.99968505,-2.974825e-10,4.4255995e-11,0.025098499,4
2133219413,0.71099645,0.0028625268,0.0022615308,0.70318615,0.99968505,-2.974825e-10,4.4255995e-11,0.025098499,4
2133239400,0.7114592,0.0028144417,0.0022781773,0.7027181,0.99968505,-2.974825e-10,4.4255995e-11,0.025098499,4
2133259389,0.710776,0.0028343908,0.0022355858,0.7034092,0.99968505,-2.974825e-10,4.4255995e-11,0.025098499,4
2133279376,0.7113778,0.0028274239,0.002297438,0.70280033,0.99968505,-2.974825e-10,4.4255995e-11,0.025098499,4
2133299366,0.7111831,0.002808755,0.002283578,0.70299757,0.99968505,-2.974825e-10,4.4255995e-11,0.025098499,4
2133319351,0.71081704,0.002906935,0.0023833755,0.703367,0.99968505,-2.974825e-10,4.4255995e-11,0.025098499,4
2133339338,0.71147764,0.0027671473,0.002243003,0.70269984,0.99968505,-2.974825e-10,4.4255995e-11,0.025098499,4
2133359326,0.710897,0.0028796154,0.0022771808,0.7032866,0.99968505,-2.974825e-10,4.4255995e-11,0.025098499,4
2133379313,0.71118087,0.0027505762,0.0022284721,0.70300025,0.99968505,-2.974825e-10,4.4255995e-11,0.025098499,4
2133399303,0.7113632,0.0028624886,0.0022891054,0.70281506,0.99968505,-2.974825e-10,4.4255995e-11,0.025098499,4
2133419288,0.7107639,0.0027993603,0.0022881343,0.7034215,0.99968505,-2.974825e-10,4.4255995e-11,0.025098499,4
2133439276,0.71143,0.0028073923,0.0023047617,0.7027476,0.99968505,-2.974825e-10,4.4255995e-11,0.025098499,4
2133459264,0.71102357,0.0027844172,0.0023037035,0.7031589,0.99968505,-2.974825e-10,4.4255995e-11,0.025098499,4
2133479253,0.7109432,0.0028598486,0.0022987092,0.70323986,0.99968505,-2.974825e-10,4.4255995e-11,0.025098499,4
2133499238,0.71147156,0.0027619733,0.002280826,0.7027058,0.99968505,-2.974825e-10,4.4255995e-11,0.025098499,4
2133519226,0.71076626,0.0028349147,0.0022939043,0.70341885,0.99968505,-2.974825e-10,4.4255995e-11,0.025098499,4
2133539214,0.71135503,0.0028580131,0.0022334384,0.7028236,0.99968505,-2.974825e-10,4.4255995e-11,0.025098499,4
2133559201,0.71118945,0.002786819,0.0022527992,0.70299137,0.99968505,-2.974825e-10,4.4255995e-11,0.025098499,4
2133579191,0.7108631,0.0029429044,0.0023231863,0.70332044,0.99968505,-2.974825e-10,4.4255995e-11,0.025098499,4
2133599178,0.7115389,0.002765765,0.00236448,0.7026374,0.99968505,-2.974825e-10,4.4255995e-11,0.025098499,4
2133619165,0.71080244,0.002925296,0.0023618576,0.7033817,0.99968505,-2.974825e-10,4.4255995e-11,0.025098499,4
2133639152,0.71125096,0.002729218,0.002331043,0.70292914,0.99968505,-2.974825e-10,4.4255995e-11,0.025098499,4
2133659140,0.71125567,0.0028880946,0.0023322857,0.7029237,0.99968505,-2.974825e-10,4.4255995e-11,0.025098499,4
2133679127,0.710825,0.0028139108,0.0022570475,0.7033597,0.99968505,-2.974825e-10,4.4255995e-11,0.025098499,4
2133699115,0.71154,0.0028236792,0.0023139846,0.7026362,0.99968505,-2.974825e-10,4.4255995e-11,0.025098499,4
2133719103,0.710915,0.0027979119,0.002204037,0.7032689,0.99968505,-2.974825e-10,4.4255995e-11,0.025098499,4
2133739090,0.7111445,0.0028785516,0.0023407417,0.7030362,0.99968505,-2.974825e-10,4.4255995e-11,0.025098499,4
2133759077,0.7113846,0.0026664566,0.0022694473,0.7027943,0.99968505,-2.974825e-10,4.4255995e-11,0.025098499,4
2133779065,0.7107653,0.0029412797,0.0024079036,0.7034191,0.99968505,-2.974825e-10,4.4255995e-11,0.025098499,4
2133799052,0.71145445,0.0027231113,0.0023187844,0.7027232,0.99968505,-2.974825e-10,4.4255995e-11,0.025098499,4
2133819039,0.7109776,0.0028432163,0.0023728244,0.70320493,0.99968505,-2.974825e-10,4.4255995e-11,0.025098499,4
2133839028,0.71101385,0.002804328,0.0023026986,0.7031687,0.99968505,-2.974825e-10,4.4255995e-11,0.025098499,4
2133859016,0.71148145,0.0028095732,0.0022851042,0.7026956,0.99968505,-2.974825e-10,4.4255995e-11,0.025098499,4
2133879002,0.7107114,0.0027983969,0.0022267662,0.70347464,0.99968505,-2.974825e-10,4.4255995e-11,0.025098499,4
2133903988,0.7110939,0.0028142203,0.0023169834,0.7030877,0.99968505,-2.974825e-10,4.4255995e-11,0.025098499,4
2133918979,0.7110433,0.0028163,0.0022479696,0.70313907,0.99968505,-2.974825e-10,4.4255995e-11,0.025098499,4
2133938966,0.71100366,0.0027661095,0.0022980608,0.7031791,0.99968505,-2.974825e-10,4.4255995e-11,0.025098499,4
2133958953,0.71151847,0.00278399,0.002323587,0.70265806,0.99968505,-2.974825e-10,4.4255995e-11,0.025098499,4
2133978941,0.7107283,0.0028175109,0.002329604,0.70345724,0.99968505,-2.974825e-10,4.4255995e-11,0.025098499,4
2133998928,0.71140933,0.002864964,0.0023443482,0.70276815,0.99968505,-2.974825e-10,4.4255995e-11,0.025098499,4
2134018915,0.7110966,0.0027592413,0.0022765852,0.70308524,0.99968505,-2.974825e-10,4.4255995e-11,0.025098499,4
2134038905,0.7109519,0.0029255832,0.0023736118,0.70323056,0.99968505,-2.974825e-10,4.4255995e-11,0.025098499,4
2134058893,0.71156126,0.0026811995,0.002162493,0.70261574,0.99968505,-2.974825e-10,4.4255995e-11,0.025098499,4
2134078879,0.7107118,0.002945183,0.002266397,0.7034735,0.99968505,-2.974825e-10,4.4255995e-11,0.025098499,4
2134098867,0.71143293,0.0027878063,0.0022181228,0.70274496,0.99968505,-2.974825e-10,4.4255995e-11,0.025098499,4
2134123851,0.71150327,0.002771811,0.0023353,0.70267355,0.99968505,-2.974825e-10,4.4255995e-11,0.025098499,4
2134138841,0.7109625,0.0028320043,0.0022412117,0.7032207,0.99968505,-2.974825e-10,4.4255995e-11,0.025098499,4
2134158828,0.71154076,0.0028125618,0.002267246,0.70263565,0.99968505,-2.974825e-10,4.4255995e-11,0.025098499,4
2134178817,0.71078813,0.002833832,0.002353587,0.70339656,0.99968505,-2.974825e-10,4.4255995e-11,0.025098499,4
2134203803,0.7110387,0.0028578697,0.0022500844,0.70314354,0.99968505,-2.974825e-10,4.4255995e-11,0.025098499,4
2134218791,0.7111343,0.0027983256,0.0023615365,0.7030467,0.99968505,-2.974825e-10,4.4255995e-11,0.025098499,4
2134238779,0.71090424,0.0028642523,0.0022922843,0.7032793,0.99968505,-2.974825e-10,4.4255995e-11,0.025098499,4
2134263763,0.71155566,0.0027996993,0.0022814285,0.70262045,0.99968505,-2.974825e-10,4.4255995e-11,0.025098499,4
2134278756,0.7107401,0.0028048228,0.002258871,0.7034455,0.99968505,-2.974825e-10,4.4255995e-11,0.025098499,4
2134298741,0.7114574,0.0027910422,0.002198027,0.7027203,0.99968505,-2.974825e-10,4.4255995e-11,0.025098499,4
2134318729,0.7111378,0.002767918,0.002266392,0.7030437,0.99968505,-2.974825e-10,4.4255995e-11,0.025098499,4
2134343715,0.7107512,0.0028775043,0.0023237406,0.7034338,0.99968505,-2.974825e-10,4.4255995e-11,0.025098499,4
2134358704,0.7115814,0.0027997398,0.002336562,0.7025943,0.99968505,-2.974825e-10,4.4255995e-11,0.025098499,4
2134378692,0.7106926,0.0028014015,0.0022501494,0.7034936,0.99968505,-2.974825e-10,4.4255995e-11,0.025098499,4
2134403676,0.71114,0.0028438608,0.0023717694,0.7030408,0.99968505,-2.974825e-10,4.4255995e-11,0.025098499,4
2134418668,0.71106106,0.0028187893,0.0023136332,0.7031209,0.99968505,-2.974825e-10,4.4255995e-11,0.025098499,4
2134438657,0.71105987,0.0027713624,0.00236211,0.7031221,0.99968505,-2.974825e-10,4.4255995e-11,0.025098499,4
2134458644,0.7114236,0.0026907055,0.0022597827,0.70275474,0.99968505,-2.974825e-10,4.4255995e-11,0.025098499,4
2134478638,0.7108541,0.0027020362,0.0021941836,0.70333093,0.99968505,-2.974825e-10,4.4255995e-11,0.025098499,4
2134498617,0.7113168,0.002809735,0.0020693003,0.7028629,0.99968505,-2.974825e-10,4.4255995e-11,0.025098499,4
2134518607,0.7108273,0.0026951707,0.0020229684,0.7033586,0.99968505,-2.974825e-10,4.4255995e-11,0.025098499,4
2134543589,0.7114883,0.002377576,0.0018047697,0.7026917,0.99968505,-2.974825e-10,4.4255995e-11,0.025098499,4
2134558585,0.7107825,0.002806591,0.001880699,0.7034038,0.99968505,-2.974825e-10,4.4255995e-11,0.025098499,4
2134578569,0.71126586,0.0022262016,0.0016674548,0.70291764,0.99968505,-2.974825e-10,4.4255995e-11,0.025098499,4
2134598555,0.71083766,0.0027862252,0.001889208,0.70334804,0.99968505,-2.974825e-10,4.4255995e-11,0.025098499,4
2134618542,0.7107795,0.002854189,0.0020552324,0.70340616,0.99968505,-2.974825e-10,4.4255995e-11,0.025098499,4
2134638530,0.71096784,0.0024360067,0.0017555935,0.70321816,0.99968505,-2.974825e-10,4.4255995e-11,0.025098499,4
2134658518,0.710797,0.0028715245,0.0019636222,0.7033887,0.99968505,-2.974825e-10,4.4255995e-11,0.025098499,4
2134683504,0.7106947,0.0025149672,0.0016343707,0.70349425,0.99968505,-2.974825e-10,4.4255995e-11,0.025098499,4
2134698493,0.710875,0.0024640253,0.0015937089,0.7033123,0.99968505,-2.974825e-10,4.4255995e-11,0.025098499,4
2134718481,0.71065927,0.0027210866,0.0017094001,0.70352906,0.99968505,-2.974825e-10,4.4255995e-11,0.025098499,4
2134743465,0.7106006,0.0025236572,0.0016874057,0.70358914,0.99968505,-2.974825e-10,4.4255995e-11,0.025098499,4
2134763453,0.7109335,0.0025076726,0.0018641974,0.7032523,0.99968505,-2.974825e-10,4.4255995e-11,0.025098499,4
2134778445,0.71051884,0.0025501663,0.0018504622,0.7036712,0.99968505,-2.974825e-10,4.4255995e-11,0.025098499,4
2134803430,0.7108925,0.002034846,0.0014715629,0.7032963,0.99968505,-2.974825e-10,4.4255995e-11,0.025098499,4
2134818422,0.710513,0.0026492567,0.0016661438,0.7036772,0.99968505,-2.974825e-10,4.4255995e-11,0.025098499,4
2134838406,0.710943,0.0022906673,0.0014531596,0.70324445,0.99968505,-2.974825e-10,4.4255995e-11,0.025098499,4
2134858393,0.7105325,0.002794948,0.0016521551,0.703657,0.99968505,-2.974825e-10,4.4255995e-11,0.025098499,4
2134883378,0.7106756,0.0023538922,0.0014588928,0.70351446,0.99968505,-2.974825e-10,4.4255995e-11,0.025098499,4
2134898371,0.7105282,0.0028248162,0.0017701231,0.70366085,0.99968505,-2.974825e-10,4.4255995e-11,0.025098499,4
2134918358,0.7107542,0.0022740427,0.0016987046,0.70343477,0.99968505,-2.974825e-10,4.4255995e-11,0.025098499,4
2134943341,0.71067667,0.0025827792,0.0018586466,0.7035116,0.99968505,-2.974825e-10,4.4255995e-11,0.025098499,4
2134963329,0.710535,0.0023796035,0.0017490312,0.7036557,0.99968505,-2.974825e-10,4.4255995e-11,0.025098499,4
2134978319,0.71053153,0.002801566,0.0016833562,0.7036578,0.99968505,-2.974825e-10,4.4255995e-11,0.025098499,4
2134998307,0.71063125,0.0020948744,0.0013341154,0.7035603,0.99968505,-2.974825e-10,4.4255995e-11,0.025098499,4
2135023292,0.7106749,0.0023019293,0.0014588442,0.7035153,0.99968505,-2.974825e-10,4.4255995e-11,0.025098499,4
2135043280,0.7104088,0.002141613,0.0013719763,0.70378464,0.99968505,-2.974825e-10,4.4255995e-11,0.025098499,4
2135058269,0.7103141,0.0026393142,0.0014423317,0.7038785,0.99968505,-2.974825e-10,4.4255995e-11,0.025098499,4
2135083254,0.710264,0.0020567116,0.0011662315,0.7039315,0.99968505,-2.974825e-10,4.4255995e-11,0.025098499,4
2135103242,0.7105022,0.0026105815,0.0011200415,0.7036893,0.99968505,-2.974825e-10,4.4255995e-11,0.025098499,4
2135118232,0.7104731,0.0019323343,0.0011319915,0.7037208,0.99968505,-2.974825e-10,4.4255995e-11,0.025098499,4
2135138220,0.7101707,0.002536487,0.0014176666,0.70402354,0.99968505,-2.974825e-10,4.4255995e-11,0.025098499,4
2135163204,0.7102759,0.0019251158,0.0010040071,0.7039201,0.99968505,-2.974825e-10,4.4255995e-11,0.025098499,4
2135183192,0.71027005,0.0024622,0.0012160159,0.703924,0.99968505,-2.974825e-10,4.4255995e-11,0.025098499,4
2135198183,0.7103007,0.0023805494,0.0011534119,0.7038935,0.99968505,-2.974825e-10,4.4255995e-11,0.025098499,4
2135223167,0.7100922,0.0020320767,0.0009318923,0.7041052,0.99968505,-2.974825e-10,4.4255995e-11,0.025098499,4
2135243154,0.71010715,0.0024318316,0.0012940692,0.70408833,0.99968505,-2.974825e-10,4.4255995e-11,0.025098499,4
2135258145,0.7100751,0.0016946793,0.000595322,0.7041238,0.99968505,-2.974825e-10,4.4255995e-11,0.025098499,4
2135278132,0.70986253,0.0023369524,0.000666207,0.7043361,0.99968505,-2.974825e-10,4.4255995e-11,0.025098499,4
2135303117,0.7100261,0.0015787532,0.0003428638,0.70417356,0.99968505,-2.974825e-10,4.4255995e-11,0.025098499,4
2135323105,0.7098101,0.002346755,0.0010218835,0.7043885,0.99968505,-2.974825e-10,4.4255995e-11,0.025098499,4
2135338095,0.7099466,0.0017916275,0.0004543084,0.70425314,0.99968505,-2.974825e-10,4.4255995e-11,0.025098499,4
2135363080,0.709681,0.0013100168,5.8162836e-06,0.70452195,0.99968505,-2.974825e-10,4.4255995e-11,0.025098499,4
2135383067,0.7096704,0.001488426,3.4572964e-05,0.70453227,0.99968505,-2.974825e-10,4.4255995e-11,0.025098499,4
2135398061,0.7095719,0.0005142271,-0.00059865916,0.7046327,0.99968505,-2.974825e-10,4.4255995e-11,0.025098499,4
2135418046,0.7094082,0.00023988904,-0.00083238696,0.7047974,0.99968505,-2.974825e-10,4.4255995e-11,0.025098499,4
2135443030,0.70930374,-3.8218286e-06,-0.0010859572,0.70490223,0.99968505,-2.974825e-10,4.4255995e-11,0.025098499,4
2135463017,0.70906746,-7.047477e-05,-0.0008379954,0.70514023,0.99968505,-2.974825e-10,4.4255995e-11,0.025098499,4
2135478009,0.7088973,9.906406e-05,-0.001216051,0.7053107,0.99968505,-2.974825e-10,4.4255995e-11,0.025098499,4
2135502993,0.7088009,-0.0005804675,-0.0016425905,0.7054065,0.99968505,-2.974825e-10,4.4255995e-11,0.025098499,4
2135522981,0.70868754,-0.00042221948,-0.0018012403,0.7055201,0.99968505,-2.974825e-10,4.4255995e-11,0.025098499,4
2135537970,0.70872915,-0.0010025265,-0.0025413884,0.7054755,0.99968505,-2.974825e-10,4.4255995e-11,0.025098499,4
2135557959,0.7087322,-0.0020777066,-0.0035902865,0.7054655,0.99968505,-2.974825e-10,4.4255995e-11,0.025098499,4
2135582944,0.70871854,-0.0025481477,-0.0042688525,0.70547384,0.99968505,-2.974825e-10,4.4255995e-11,0.025098499,4
2135602931,0.70885044,-0.0037428741,-0.0050464277,0.7053309,0.99968505,-2.974825e-10,4.4255995e-11,0.025098499,4
2135617921,0.70850974,-0.0038528102,-0.005181784,0.70567155,0.99968505,-2.974825e-10,4.4255995e-11,0.025098499,4
2135642907,0.7084062,-0.004416226,-0.0056791767,0.70576835,0.99968505,-2.974825e-10,4.4255995e-11,0.025098499,4
2135662893,0.70799667,-0.0046083434,-0.005932633,0.70617586,0.99968505,-2.974825e-10,4.4255995e-11,0.025098499,4
2135677885,0.7077745,-0.0044366503,-0.006169737,0.7063976,0.99968505,-2.974825e-10,4.4255995e-11,0.025098499,4
2135697871,0.70770293,-0.0054526837,-0.007083681,0.70645356,0.99968505,-2.974825e-10,4.4255995e-11,0.025098499,4
2135722856,0.707371,-0.005665043,-0.008108642,0.70677334,0.99968505,-2.974825e-10,4.4255995e-11,0.025098499,4
2135742845,0.7075307,-0.0070757386,-0.009008384,0.7065899,0.99968505,-2.974825e-10,4.4255995e-11,0.025098499,4
2135757834,0.7073947,-0.0077341194,-0.0092242155,0.7067162,0.99968505,-2.974825e-10,4.4255995e-11,0.025098499,4
2135782822,0.7070869,-0.00832202,-0.010528919,0.70699924,0.99968505,-2.974825e-10,4.4255995e-11,0.025098499,4
2135802809,0.7069961,-0.008755507,-0.010891125,0.70707947,0.99968505,-2.974825e-10,4.4255995e-11,0.025098499,4
2135817797,0.70683795,-0.0082524195,-0.011176313,0.70723915,0.99968505,-2.974825e-10,4.4255995e-11,0.025098499,4
2135837785,0.70682687,-0.008971374,-0.012039971,0.7072273,0.99968505,-2.974825e-10,4.4255995e-11,0.025098499,4
2135862769,0.70641106,-0.008640149,-0.011949089,0.7076483,0.99968505,-2.974825e-10,4.4255995e-11,0.025098499,4
2135882757,0.70639366,-0.010059551,-0.0128106065,0.7076318,0.99968505,-2.974825e-10,4.4255995e-11,0.025098499,4
2135897747,0.7059359,-0.01006103,-0.013195782,0.7080814,0.99968505,-2.974825e-10,4.4255995e-11,0.025098499,4
2135922731,0.7057858,-0.010941755,-0.013787298,0.7082066,0.99968505,-2.974825e-10,4.4255995e-11,0.025098499,4
2135942725,0.70550764,-0.011430682,-0.014232739,0.70846725,0.99968505,-2.974825e-10,4.4255995e-11,0.025098499,4
2135957710,0.70536333,-0.0108277295,-0.014297851,0.70861906,0.99968505,-2.974825e-10,4.4255995e-11,0.025098499,4
2135977700,0.70495296,-0.011172711,-0.015238086,0.7090023,0.99968505,-2.974825e-10,4.4255995e-11,0.025098499,4
2136002682,0.7044273,-0.010935573,-0.016408792,0.7095022,0.99968505,-2.974825e-10,4.4255995e-11,0.025098499,4
2136022676,0.7042578,-0.011199049,-0.017309336,0.70964503,0.99968505,-2.974825e-10,4.4255995e-11,0.025098499,4
2136037660,0.7040287,-0.010127013,-0.017094256,0.7098935,0.99968505,-2.974825e-10,4.4255995e-11,0.025098499,4
2136062645,0.7039959,-0.010875685,-0.017737197,0.7098993,0.99968505,-2.974825e-10,4.4255995e-11,0.025098499,4
2136082632,0.7038385,-0.010470258,-0.017835282,0.710059,0.99968505,-2.974825e-10,4.4255995e-11,0.025098499,4
2136097623,0.7037862,-0.010576791,-0.018310454,0.71009713,0.99968505,-2.974825e-10,4.4255995e-11,0.025098499,4
2136117611,0.7033128,-0.010739668,-0.018566074,0.7105569,0.99968505,-2.974825e-10,4.4255995e-11,0.025098499,4
2136137599,0.703044,-0.010027222,-0.018229539,0.71084195,0.99968505,-2.974825e-10,4.4255995e-11,0.025098499,4
2136157587,0.7030573,-0.0099437395,-0.018551363,0.7108217,0.99968505,-2.974825e-10,4.4255995e-11,0.025098499,4
2136177575,0.7027699,-0.008353377,-0.019428974,0.7111029,0.99968505,-2.974825e-10,4.4255995e-11,0.025098499,4
2136202558,0.7027957,-0.008191084,-0.020414403,0.71105164,0.99968505,-2.974825e-10,4.4255995e-11,0.025098499,4
2136222545,0.7028781,-0.008761984,-0.020093573,0.7109725,0.99968505,-2.974825e-10,4.4255995e-11,0.025098499,4
2136237536,0.70297086,-0.0076847104,-0.02036297,0.7108856,0.99968505,-2.974825e-10,4.4255995e-11,0.025098499,4
2136257524,0.7030884,-0.005593258,-0.02191936,0.7107426,0.99968505,-2.974825e-10,4.4255995e-11,0.025098499,4
2136282508,0.7033053,-0.0048299693,-0.02225302,0.7105232,0.99968505,-2.974825e-10,4.4255995e-11,0.025098499,4
2136302495,0.7035734,-0.004861649,-0.023255121,0.71022534,0.99968505,-2.974825e-10,4.4255995e-11,0.025098499,4
2136317486,0.70354384,-0.0047803004,-0.024883423,0.7102,0.99968505,-2.974825e-10,4.4255995e-11,0.025098499,4
2136342472,0.70385075,-0.0031574578,-0.02837667,0.7097739,0.99968505,-2.974825e-10,4.4255995e-11,0.025098499,4
2136362458,0.70401186,-0.0013909059,-0.029641531,0.7095681,0.99968505,-2.974825e-10,4.4255995e-11,0.025098499,4
2136377451,0.7042383,-0.00078346423,-0.0294931,0.7093504,0.99968505,-2.974825e-10,4.4255995e-11,0.025098499,4
2136397437,0.70469064,-0.0009342887,-0.029315535,0.7089082,0.99968505,-2.974825e-10,4.4255995e-11,0.025098499,4
2136422421,0.70542455,-0.0006991892,-0.029998548,0.7081497,0.99968505,-2.974825e-10,4.4255995e-11,0.025098499,4
2136442410,0.70606637,0.0003954128,-0.030853622,0.70747316,0.99968505,-2.974825e-10,4.4255995e-11,0.025098499,4
2136457399,0.70633477,0.0017604305,-0.031159291,0.7071896,0.99968505,-2.974825e-10,4.4255995e-11,0.025098499,4
2136482386,0.70683265,0.0041721375,-0.031080563,0.7066854,0.99968505,-2.974825e-10,4.4255995e-11,0.025098499,4
2136502371,0.7073773,0.005172226,-0.03174844,0.70610386,0.99968505,-2.974825e-10,4.4255995e-11,0.025098499,4
2136517362,0.70770526,0.0048577883,-0.032819252,0.7057285,0.99968505,-2.974825e-10,4.4255995e-11,0.025098499,4
2136542346,0.7082037,0.0035402658,-0.03384363,0.7051878,0.99968505,-2.974825e-10,4.4255995e-11,0.025098499,4
2136562334,0.7086286,0.0031714235,-0.03364995,0.7047717,0.99968505,-2.974825e-10,4.4255995e-11,0.025098499,4
2136582324,0.70931435,0.0033683956,-0.032899242,0.70411617,0.99968505,-2.974825e-10,4.4255995e-11,0.025098499,4
2136597314,0.7096227,0.0034199657,-0.032688294,0.703815,0.99968505,-2.974825e-10,4.4255995e-11,0.025098499,4
2136622298,0.7099034,0.00443471,-0.032561343,0.703532,0.99968505,-2.974825e-10,4.4255995e-11,0.025098499,4
2136642286,0.7101906,0.0061581377,-0.031907104,0.70325917,0.99968505,-2.974825e-10,4.4255995e-11,0.025098499,4
2136657275,0.7104128,0.006992266,-0.03172274,0.7030352,0.99968505,-2.974825e-10,4.4255995e-11,0.025098499,4
2136682262,0.71083206,0.0070013576,-0.031583127,0.7026176,0.99968505,-2.974825e-10,4.4255995e-11,0.025098499,4
2136702247,0.710912,0.0066626584,-0.031164164,0.70255864,0.99968505,-2.974825e-10,4.4255995e-11,0.025098499,4
2136722238,0.71123874,0.0073750233,-0.030397497,0.7022543,0.99968505,-2.974825e-10,4.4255995e-11,0.025098499,4
2136737231,0.711478,0.00816702,-0.030016745,0.7020195,0.99968505,-2.974825e-10,4.4255995e-11,0.025098499,4
2136762210,0.71170455,0.008624022,-0.030336734,0.70177066,0.99968505,-2.974825e-10,4.4255995e-11,0.025098499,4
2136782199,0.71190983,0.009018019,-0.030423045,0.70155376,0.99968505,-2.974825e-10,4.4255995e-11,0.025098499,4
2136797192,0.7120739,0.009376278,-0.030101733,0.70139635,0.99968505,-2.974825e-10,4.4255995e-11,0.025098499,4
2136822179,0.7124303,0.009190479,-0.03045477,0.7010215,0.99968505,-2.974825e-10,4.4255995e-11,0.025098499,4
2136842160,0.7127024,0.009054211,-0.03150741,0.70070016,0.99968505,-2.974825e-10,4.4255995e-11,0.025098499,4
2136862151,0.7129668,0.010354818,-0.031330753,0.70042104,0.99968505,-2.974825e-10,4.4255995e-11,0.025098499,4
2136877140,0.713218,0.011728116,-0.030100098,0.7001975,0.99968505,-2.974825e-10,4.4255995e-11,0.025098499,4
2136902123,0.7136904,0.0133875655,-0.0280322,0.6997721,0.99968505,-2.974825e-10,4.4255995e-11,0.025098499,4
2136922112,0.7141952,0.01291373,-0.026853116,0.69931215,0.99968505,-2.974825e-10,4.4255995e-11,0.025098499,4
2136937102,0.71458626,0.011735262,-0.026724441,0.69893825,0.99968505,-2.974825e-10,4.4255995e-11,0.025098499,4
2136962086,0.71500117,0.010486543,-0.027823292,0.6984908,0.99968505,-2.974825e-10,4.4255995e-11,0.025098499,4
2136982074,0.71532595,0.012500866,-0.027309353,0.69814533,0.99968505,-2.974825e-10,4.4255995e-11,0.025098499,4
2137002062,0.7158119,0.0149245905,-0.026576355,0.69762766,0.99968505,-2.974825e-10,4.4255995e-11,0.025098499,4
2137017055,0.7159393,0.016201355,-0.026355546,0.69747674,0.99968505,-2.974825e-10,4.4255995e-11,0.025098499,4
2137042037,0.716376,0.016353117,-0.025360933,0.6970616,0.99968505,-2.974825e-10,4.4255995e-11,0.025098499,4
2137062025,0.7169339,0.014584112,-0.025264043,0.6965306,0.99968505,-2.974825e-10,4.4255995e-11,0.025098499,4
2137077014,0.71727186,0.01426214,-0.025581408,0.6961776,0.99968505,-2.974825e-10,4.4255995e-11,0.025098499,4
2137102000,0.7175774,0.017258761,-0.024770958,0.6958242,0.99968505,-2.974825e-10,4.4255995e-11,0.025098499,4
2137121988,0.71786606,0.019151432,-0.023676792,0.6955149,0.99968505,-2.974825e-10,4.4255995e-11,0.025098499,4
2137141975,0.71810806,0.019919666,-0.022382556,0.6952864,0.99968505,-2.974825e-10,4.4255995e-11,0.025098499,4
2137156964,0.7182769,0.019625356,-0.022517731,0.695116,0.99968505,-2.974825e-10,4.4255995e-11,0.025098499,4
2137181951,0.7185021,0.018054508,-0.023033703,0.6949088,0.99968505,-2.974825e-10,4.4255995e-11,0.025098499,4
2137201938,0.71848595,0.018108731,-0.02123964,0.6949813,0.99968505,-2.974825e-10,4.4255995e-11,0.025098499,4
2137216927,0.71867186,0.018270692,-0.019941334,0.69482327,0.99968505,-2.974825e-10,4.4255995e-11,0.025098499,4
2137241913,0.71896744,0.018726306,-0.01912163,0.6945284,0.99968505,-2.974825e-10,4.4255995e-11,0.025098499,4
2137261900,0.7188404,0.020031847,-0.018696101,0.69463503,0.99968505,-2.974825e-10,4.4255995e-11,0.025098499,4
2137281889,0.71871394,0.018599845,-0.018681498,0.694806,0.99968505,-2.974825e-10,4.4255995e-11,0.025098499,4
2137301876,0.7187089,0.017285472,-0.018900054,0.6948393,0.99968505,-2.974825e-10,4.4255995e-11,0.025098499,4
2137321867,0.7187533,0.017789837,-0.018512158,0.694791,0.99968505,-2.974825e-10,4.4255995e-11,0.025098499,4
2137341851,0.7187377,0.018108904,-0.018084897,0.69481015,0.99968505,-2.974825e-10,4.4255995e-11,0.025098499,4
2137356842,0.71862036,0.017913677,-0.017649937,0.6949477,0.99968505,-2.974825e-10,4.4255995e-11,0.025098499,4
2137381827,0.7185393,0.017028116,-0.016361492,0.69508547,0.99968505,-2.974825e-10,4.4255995e-11,0.025098499,4
2137401815,0.7184964,0.01570011,-0.01651992,0.6951573,0.99968505,-2.974825e-10,4.4255995e-11,0.025098499,4
2137416808,0.71844506,0.015327494,-0.016867394,0.6952103,0.99968505,-2.974825e-10,4.4255995e-11,0.025098499,4
2137441789,0.7181183,0.016533105,-0.016553586,0.6955277,0.99968505,-2.974825e-10,4.4255995e-11,0.025098499,4
2137461775,0.7178935,0.016339198,-0.016056456,0.6957761,0.99968505,-2.974825e-10,4.4255995e-11,0.025098499,4
2137481771,0.7178009,0.014652755,-0.015608722,0.6959192,0.99968505,-2.974825e-10,4.4255995e-11,0.025098499,4
2137496759,0.71774846,0.013584404,-0.015725972,0.69599235,0.99968505,-2.974825e-10,4.4255995e-11,0.025098499,4
2137521738,0.7176599,0.01347121,-0.016138056,0.6960765,0.99968505,-2.974825e-10,4.4255995e-11,0.025098499,4
2137541725,0.71746075,0.013770552,-0.016678277,0.69626313,0.99968505,-2.974825e-10,4.4255995e-11,0.025098499,4
2137556718,0.71722656,0.01390244,-0.016624844,0.69650304,0.99968505,-2.974825e-10,4.4255995e-11,0.025098499,4
2137581701,0.7171416,0.012991651,-0.015971165,0.69662327,0.99968505,-2.974825e-10,4.4255995e-11,0.025098499,4
2137601690,0.71717036,0.0117043955,-0.016283514,0.6966093,0.99968505,-2.974825e-10,4.4255995e-11,0.025098499,4
2137621680,0.71701,0.010754399,-0.017072633,0.6967708,0.99968505,-2.974825e-10,4.4255995e-11,0.025098499,4
2137636668,0.7168387,0.010639841,-0.017351547,0.6969419,0.99968505,-2.974825e-10,4.4255995e-11,0.025098499,4
2137661652,0.7167367,0.011058311,-0.016866509,0.6970522,0.99968505,-2.974825e-10,4.4255995e-11,0.025098499,4
2137681640,0.7168033,0.010279768,-0.01664416,0.69700104,0.99968505,-2.974825e-10,4.4255995e-11,0.025098499,4
2137701626,0.7167307,0.008626045,-0.017192507,0.69708484,0.99968505,-2.974825e-10,4.4255995e-11,0.025098499,4
2137721616,0.71653223,0.007959219,-0.01738849,0.6972918,0.99968505,-2.974825e-10,4.4255995e-11,0.025098499,4
2137741606,0.7163765,0.008222095,-0.01697413,0.69745904,0.99968505,-2.974825e-10,4.4255995e-11,0.025098499,4
2137761591,0.71636665,0.007724799,-0.017335875,0.69746596,0.99968505,-2.974825e-10,4.4255995e-11,0.025098499,4
2137781576,0.7163458,0.006381564,-0.018132992,0.6974807,0.99968505,-2.974825e-10,4.4255995e-11,0.025098499,4
2137801564,0.7162016,0.0053529353,-0.018513342,0.69762737,0.99968505,-2.974825e-10,4.4255995e-11,0.025098499,4
2137821551,0.7160606,0.0050144573,-0.018497996,0.69777507,0.99968505,-2.974825e-10,4.4255995e-11,0.025098499,4
2137841539,0.71593547,0.004199176,-0.01868835,0.69790375,0.99968505,-2.974825e-10,4.4255995e-11,0.025098499,4
2137861526,0.7159525,0.003338469,-0.018692603,0.69789076,0.99968505,-2.974825e-10,4.4255995e-11,0.025098499,4
2137881520,0.7158621,0.0028167458,-0.0187426,0.6979844,0.99968505,-2.974825e-10,4.4255995e-11,0.025098499,4
2137901502,0.7156346,0.0021827666,-0.019268695,0.6982057,0.99968505,-2.974825e-10,4.4255995e-11,0.025098499,4
2137916497,0.7155579,0.0018590533,-0.019440318,0.6982805,0.99968505,-2.974825e-10,4.4255995e-11,0.025098499,4
2137941477,0.7156056,0.001581158,-0.019542746,0.6982294,0.99968505,-2.974825e-10,4.4255995e-11,0.025098499,4
2137961464,0.7155726,0.0003390835,-0.02013395,0.6982481,0.99968505,-2.974825e-10,4.4255995e-11,0.025098499,4
2137981452,0.7153802,-0.00046217287,-0.020778675,0.6984263,0.99968505,-2.974825e-10,4.4255995e-11,0.025098499,4
2138001439,0.71533704,-0.00027365968,-0.02048392,0.69847924,0.99968505,-2.974825e-10,4.4255995e-11,0.025098499,4
2138021427,0.7154754,-0.0013757154,-0.0201543,0.69834584,0.99968505,-2.974825e-10,4.4255995e-11,0.025098499,4
2138041415,0.7153412,-0.0031459501,-0.020601498,0.6984645,0.99968505,-2.974825e-10,4.4255995e-11,0.025098499,4
2138061402,0.7151718,-0.002911737,-0.020510443,0.6986417,0.99968505,-2.974825e-10,4.4255995e-11,0.025098499,4
2138081390,0.7151541,-0.002468145,-0.020756667,0.6986543,0.99968505,-2.974825e-10,4.4255995e-11,0.025098499,4
2138101377,0.715149,-0.002411306,-0.02119979,0.69864637,0.99968505,-2.974825e-10,4.4255995e-11,0.025098499,4
2138121365,0.7151086,-0.0022967518,-0.0211306,0.69869024,0.99968505,-2.974825e-10,4.4255995e-11,0.025098499,4
2138141352,0.71494836,-0.002984409,-0.021251129,0.6988479,0.99968505,-2.974825e-10,4.4255995e-11,0.025098499,4
2138161340,0.714829,-0.004782199,-0.020939242,0.69896936,0.99968505,-2.974825e-10,4.4255995e-11,0.025098499,4
2138181329,0.7148855,-0.00507429,-0.02026674,0.6989295,0.99968505,-2.974825e-10,4.4255995e-11,0.025098499,4
2138201315,0.71493846,-0.0042893905,-0.020540455,0.69887245,0.99968505,-2.974825e-10,4.4255995e-11,0.025098499,4
2138221302,0.7147538,-0.003292299,-0.021373224,0.6990417,0.99968505,-2.974825e-10,4.4255995e-11,0.025098499,4
2138241290,0.7146645,-0.0035258331,-0.021169772,0.6991381,0.99968505,-2.974825e-10,4.4255995e-11,0.025098499,4
2138261278,0.7146205,-0.0054444107,-0.021478234,0.6991614,0.99968505,-2.974825e-10,4.4255995e-11,0.025098499,4
2138281266,0.7145427,-0.0061201015,-0.021665055,0.69922954,0.99968505,-2.974825e-10,4.4255995e-11,0.025098499,4
2138301253,0.71458447,-0.0047175633,-0.02080463,0.6992239,0.99968505,-2.974825e-10,4.4255995e-11,0.025098499,4
2138321244,0.7146449,-0.0046096705,-0.020638647,0.6991678,0.99968505,-2.974825e-10,4.4255995e-11,0.025098499,4
2138341229,0.7146087,-0.004096458,-0.020619366,0.6992084,0.99968505,-2.974825e-10,4.4255995e-11,0.025098499,4
2138361216,0.7145495,-0.0032987292,-0.020743093,0.6992696,0.99968505,-2.974825e-10,4.4255995e-11,0.025098499,4
2138381203,0.7144292,-0.0046635256,-0.020734169,0.6993849,0.99968505,-2.974825e-10,4.4255995e-11,0.025098499,4
2138401194,0.7143462,-0.0055115498,-0.020909712,0.6994584,0.99968505,-2.974825e-10,4.4255995e-11,0.025098499,4
2138421178,0.71433455,-0.0047960267,-0.020939805,0.69947463,0.99968505,-2.974825e-10,4.4255995e-11,0.025098499,4
2138441166,0.7143151,-0.0045723217,-0.021123901,0.69949037,0.99968505,-2.974825e-10,4.4255995e-11,0.025098499,4
2138461154,0.7143389,-0.003942084,-0.02034976,0.6994929,0.99968505,-2.974825e-10,4.4255995e-11,0.025098499,4
2138481141,0.71423876,-0.0034676096,-0.020356731,0.69959754,0.99968505,-2.974825e-10,4.4255995e-11,0.025098499,4
2138501129,0.71402216,-0.0034131627,-0.02070411,0.6998086,0.99968505,-2.974825e-10,4.4255995e-11,0.025098499,4
2138521117,0.7140445,-0.0034822205,-0.02009953,0.6998031,0.99968505,-2.974825e-10,4.4255995e-11,0.025098499,4
2138541104,0.7140714,-0.003874339,-0.019891366,0.6997795,0.99968505,-2.974825e-10,4.4255995e-11,0.025098499,4
2138561092,0.7140498,-0.0034127983,-0.02004457,0.6997996,0.99968505,-2.974825e-10,4.4255995e-11,0.025098499,4
2138581079,0.714099,-0.0019670255,-0.019343236,0.69977474,0.99968505,-2.974825e-10,4.4255995e-11,0.025098499,4
2138601067,0.71413255,-0.0023840503,-0.01919398,0.6997434,0.99968505,-2.974825e-10,4.4255995e-11,0.025098499,4
2138621054,0.7139743,-0.001963414,-0.019523317,0.6998969,0.99968505,-2.974825e-10,4.4255995e-11,0.025098499,4
2138641042,0.71384853,-0.001074976,-0.018755961,0.70004815,0.99968505,-2.974825e-10,4.4255995e-11,0.025098499,4
2138661030,0.71383476,-0.0016173176,-0.018363174,0.7000715,0.99968505,-2.974825e-10,4.4255995e-11,0.025098499,4
2138681017,0.7139041,-0.0012237341,-0.018590737,0.69999564,0.99968505,-2.974825e-10,4.4255995e-11,0.025098499,4
2138701005,0.7139889,-0.0001498556,-0.019100599,0.6998964,0.99968505,-2.974825e-10,4.4255995e-11,0.025098499,4
2138720992,0.7139145,-6.914875e-05,-0.019150248,0.69997096,0.99968505,-2.974825e-10,4.4255995e-11,0.025098499,4
2138740980,0.7138551,0.0005337467,-0.018113304,0.700059,0.99968505,-2.974825e-10,4.4255995e-11,0.025098499,4
2138760967,0.7137037,0.0014626192,-0.01765285,0.70022374,0.99968505,-2.974825e-10,4.4255995e-11,0.025098499,4
2138780956,0.7138063,0.0019575886,-0.017201075,0.70012933,0.99968505,-2.974825e-10,4.4255995e-11,0.025098499,4
2138800943,0.71383476,0.00248352,-0.016944798,0.70010483,0.99968505,-2.974825e-10,4.4255995e-11,0.025098499,4
2138820930,0.7135746,0.0026872898,-0.017551329,0.7003543,0.99968505,-2.974825e-10,4.4255995e-11,0.025098499,4
2138840918,0.7135397,0.0030894428,-0.017140664,0.70039827,0.99968505,-2.974825e-10,4.4255995e-11,0.025098499,4
2138860905,0.71356493,0.0034685656,-0.016641865,0.70038295,0.99968505,-2.974825e-10,4.4255995e-11,0.025098499,4
2138880895,0.7134503,0.0037590452,-0.017209074,0.70048445,0.99968505,-2.974825e-10,4.4255995e-11,0.025098499,4
2138900881,0.7132939,0.0047424776,-0.016725253,0.7006495,0.99968505,-2.974825e-10,4.4255995e-11,0.025098499,4
2138920868,0.71321195,0.004550293,-0.016293846,0.7007443,0.99968505,-2.974825e-10,4.4255995e-11,0.025098499,4
2138940856,0.71312815,0.004908,-0.016676618,0.7008182,0.99968505,-2.974825e-10,4.4255995e-11,0.025098499,4
2138960843,0.71304417,0.006780959,-0.016264217,0.7008977,0.99968505,-2.974825e-10,4.4255995e-11,0.025098499,4
2138980831,0.71285784,0.0071747126,-0.015659276,0.7010971,0.99968505,-2.974825e-10,4.4255995e-11,0.025098499,4
2139000818,0.7127827,0.0066408105,-0.016049802,0.70116985,0.99968505,-2.974825e-10,4.4255995e-11,0.025098499,4
2139020806,0.7127741,0.0070149805,-0.01611666,0.7011734,0.99968505,-2.974825e-10,4.4255995e-11,0.025098499,4
2139040794,0.71260417,0.006981433,-0.015421321,0.70136213,0.99968505,-2.974825e-10,4.4255995e-11,0.025098499,4
2139060782,0.71245146,0.006882106,-0.01516129,0.7015239,0.99968505,-2.974825e-10,4.4255995e-11,0.025098499,4
2139080769,0.7122834,0.0087057715,-0.014968176,0.7016784,0.99968505,-2.974825e-10,4.4255995e-11,0.025098499,4
2139100756,0.71221644,0.009203354,-0.015235306,0.7017343,0.99968505,-2.974825e-10,4.4255995e-11,0.025098499,4
2139120744,0.7122726,0.008547451,-0.015706256,0.70167524,0.99968505,-2.974825e-10,4.4255995e-11,0.025098499,4
2139140733,0.7121248,0.009578337,-0.015855977,0.7018085,0.99968505,-2.974825e-10,4.4255995e-11,0.025098499,4
2139160720,0.71199244,0.010496157,-0.015492368,0.7019378,0.99968505,-2.974825e-10,4.4255995e-11,0.025098499,4
2139180707,0.7119687,0.010172342,-0.014936298,0.7019786,0.99968505,-2.974825e-10,4.4255995e-11,0.025098499,4
2139200694,0.71195227,0.010553513,-0.014654398,0.7019956,0.99968505,-2.974825e-10,4.4255995e-11,0.025098499,4
2139220682,0.7118796,0.011437175,-0.014721892,0.7020541,0.99968505,-2.974825e-10,4.4255995e-11,0.025098499,4
2139240669,0.71180356,0.011052212,-0.014748694,0.7021369,0.99968505,-2.974825e-10,4.4255995e-11,0.025098499,4
2139260657,0.7115724,0.011658476,-0.01473628,0.7023616,0.99968505,-2.974825e-10,4.4255995e-11,0.025098499,4
2139280645,0.71134806,0.012364086,-0.015021552,0.7025706,0.99968505,-2.974825e-10,4.4255995e-11,0.025098499,4
2139300632,0.7113585,0.0115407435,-0.015413298,0.70256555,0.99968505,-2.974825e-10,4.4255995e-11,0.025098499,4
2139320620,0.71130925,0.011360269,-0.015715651,0.7026117,0.99968505,-2.974825e-10,4.4255995e-11,0.025098499,4
2139340607,0.7111493,0.012139045,-0.01569854,0.70276093,0.99968505,-2.974825e-10,4.4255995e-11,0.025098499,4
2139360595,0.7110658,0.012199973,-0.015251204,0.7028542,0.99968505,-2.974825e-10,4.4255995e-11,0.025098499,4
2139380586,0.7110717,0.011912268,-0.014623721,0.70286644,0.99968505,-2.974825e-10,4.4255995e-11,0.025098499,4
2139400570,0.71111387,0.012418846,-0.014930888,0.7028086,0.99968505,-2.974825e-10,4.4255995e-11,0.025098499,4
2139420557,0.7109216,0.012591047,-0.015588597,0.70298576,0.99968505,-2.974825e-10,4.4255995e-11,0.025098499,4
2139440545,0.7108602,0.012143504,-0.015233019,0.7030636,0.99968505,-2.974825e-10,4.4255995e-11,0.025098499,4
2139460532,0.710818,0.012160378,-0.014905648,0.70311296,0.99968505,-2.974825e-10,4.4255995e-11,0.025098499,4
2139480520,0.7107149,0.012187837,-0.015212853,0.7032102,0.99968505,-2.974825e-10,4.4255995e-11,0.025098499,4
2139500508,0.7107097,0.012571377,-0.015102514,0.70321095,0.99968505,-2.974825e-10,4.4255995e-11,0.025098499,4
2139520495,0.71055806,0.012720508,-0.014845909,0.703367,0.99968505,-2.974825e-10,4.4255995e-11,0.025098499,4
2139540483,0.71037483,0.0128077725,-0.015263875,0.7035415,0.99968505,-2.974825e-10,4.4255995e-11,0.025098499,4
2139560470,0.7103376,0.012376014,-0.01536196,0.70358473,0.99968505,-2.974825e-10,4.4255995e-11,0.025098499,4
2139580459,0.71041137,0.011708234,-0.014966738,0.7035301,0.99968505,-2.974825e-10,4.4255995e-11,0.025098499,4
2139600445,0.7102442,0.011969606,-0.015368894,0.7036859,0.99968505,-2.974825e-10,4.4255995e-11,0.025098499,4
2139620433,0.70998615,0.012310596,-0.016100002,0.7039239,0.99968505,-2.974825e-10,4.4255995e-11,0.025098499,4
2139640421,0.709929,0.0122299455,-0.015871055,0.70398825,0.99968505,-2.974825e-10,4.4255995e-11,0.025098499,4
2139660408,0.7099549,0.011545545,-0.016136143,0.7039677,0.99968505,-2.974825e-10,4.4255995e-11,0.025098499,4
2139680396,0.7099934,0.011140059,-0.016591577,0.7039248,0.99968505,-2.974825e-10,4.4255995e-11,0.025098499,4
2139700384,0.70987374,0.011086589,-0.01615026,0.70405656,0.99968505,-2.974825e-10,4.4255995e-11,0.025098499,4
2139720371,0.70981157,0.0109116975,-0.015140029,0.70414436,0.99968505,-2.974825e-10,4.4255995e-11,0.025098499,4
2139740358,0.7097406,0.010316685,-0.015511614,0.70421684,0.99968505,-2.974825e-10,4.4255995e-11,0.025098499,4
2139760346,0.7096826,0.009906786,-0.016345555,0.7042623,0.99968505,-2.974825e-10,4.4255995e-11,0.025098499,4
2139780336,0.70959246,0.009909155,-0.016582701,0.7043476,0.99968505,-2.974825e-10,4.4255995e-11,0.025098499,4
2139800321,0.7093967,0.009752639,-0.017027868,0.7045362,0.99968505,-2.974825e-10,4.4255995e-11,0.025098499,4
2139820309,0.709172,0.009868692,-0.01718934,0.7047569,0.99968505,-2.974825e-10,4.4255995e-11,0.025098499,4
2139840297,0.7091666,0.009511974,-0.016640851,0.70478046,0.99968505,-2.974825e-10,4.4255995e-11,0.025098499,4
2139860284,0.7092672,0.008596764,-0.016345432,0.70469785,0.99968505,-2.974825e-10,4.4255995e-11,0.025098499,4
2139880271,0.7093236,0.008036172,-0.01682139,0.7046366,0.99968505,-2.974825e-10,4.4255995e-11,0.025098499,4
2139900259,0.70928454,0.008334031,-0.016980018,0.7046686,0.99968505,-2.974825e-10,4.4255995e-11,0.025098499,4
2139920247,0.709286,0.008606446,-0.01652654,0.70467466,0.99968505,-2.974825e-10,4.4255995e-11,0.025098499,4
2139940234,0.70926946,0.008096066,-0.016787032,0.7046911,0.99968505,-2.974825e-10,4.4255995e-11,0.025098499,4
2139960222,0.70924646,0.0076871854,-0.017520895,0.70470107,0.99968505,-2.974825e-10,4.4255995e-11,0.025098499,4
2139980210,0.7093307,0.006988849,-0.017667934,0.7046199,0.99968505,-2.974825e-10,4.4255995e-11,0.025098499,4
2140000197,0.709526,0.0065560252,-0.017733421,0.70442563,0.99968505,-2.974825e-10,4.4255995e-11,0.025098499,4
2140020184,0.7094219,0.0064298925,-0.01806514,0.70452327,0.99968505,-2.974825e-10,4.4255995e-11,0.025098499,4
2140040173,0.70943946,0.0059541883,-0.017270347,0.70452964,0.99968505,-2.974825e-10,4.4255995e-11,0.025098499,4
2140060160,0.7094604,0.0053428225,-0.01650299,0.70453185,0.99968505,-2.974825e-10,4.4255995e-11,0.025098499,4
2140080148,0.70935875,0.004886469,-0.017106151,0.7046231,0.99968505,-2.974825e-10,4.4255995e-11,0.025098499,4
2140100135,0.70932776,0.00465693,-0.017918766,0.7046356,0.99968505,-2.974825e-10,4.4255995e-11,0.025098499,4
2140120123,0.70937717,0.0041611143,-0.018250052,0.70458055,0.99968505,-2.974825e-10,4.4255995e-11,0.025098499,4
2140140111,0.70945716,0.0035789888,-0.018634599,0.7044931,0.99968505,-2.974825e-10,4.4255995e-11,0.025098499,4
2140160099,0.7093412,0.0037025253,-0.018386684,0.7046157,0.99968505,-2.974825e-10,4.4255995e-11,0.025098499,4
2140180086,0.709354,0.0036639627,-0.017305315,0.70463043,0.99968505,-2.974825e-10,4.4255995e-11,0.025098499,4
2140200074,0.7094707,0.0029857527,-0.017669138,0.7045071,0.99968505,-2.974825e-10,4.4255995e-11,0.025098499,4
2140220061,0.70945925,0.0025047169,-0.019352099,0.7044763,0.99968505,-2.974825e-10,4.4255995e-11,0.025098499,4
2140240048,0.70945436,0.0025840616,-0.019634847,0.70447314,0.99968505,-2.974825e-10,4.4255995e-11,0.025098499,4
2140260036,0.7094856,0.0021409444,-0.01936069,0.7044507,0.99968505,-2.974825e-10,4.4255995e-11,0.025098499,4
2140280024,0.7095067,0.0013462424,-0.01952203,0.70442706,0.99968505,-2.974825e-10,4.4255995e-11,0.025098499,4
2140300011,0.70965207,0.0012828592,-0.019072115,0.70429295,0.99968505,-2.974825e-10,4.4255995e-11,0.025098499,4
2140319998,0.7096862,0.0010734199,-0.018299064,0.7042794,0.99968505,-2.974825e-10,4.4255995e-11,0.025098499,4
2140339988,0.7095159,0.00069533294,-0.01847265,0.7044469,0.99968505,-2.974825e-10,4.4255995e-11,0.025098499,4
2140359973,0.7094322,0.0016654223,-0.018424435,0.70453095,0.99968505,-2.974825e-10,4.4255995e-11,0.025098499,4
2140379961,0.7095561,0.0017670152,-0.018112017,0.70441395,0.99968505,-2.974825e-10,4.4255995e-11,0.025098499,4
2140399949,0.70952904,0.0009282364,-0.019113932,0.7044164,0.99968505,-2.974825e-10,4.4255995e-11,0.025098499,4
2140419938,0.7093573,0.00039775562,-0.020206032,0.70455927,0.99968505,-2.974825e-10,4.4255995e-11,0.025098499,4
2140439926,0.7093704,0.0005969036,-0.01952516,0.7045652,0.99968505,-2.974825e-10,4.4255995e-11,0.025098499,4
2140459912,0.70950305,0.00019287442,-0.019003877,0.70444614,0.99968505,-2.974825e-10,4.4255995e-11,0.025098499,4
2140479901,0.7095884,-3.1386797e-05,-0.019056547,0.70435864,0.99968505,-2.974825e-10,4.4255995e-11,0.025098499,4
2140499887,0.7094577,0.00060497556,-0.018736526,0.70449877,0.99968505,-2.974825e-10,4.4255995e-11,0.025098499,4
2140519875,0.7094602,0.0003388561,-0.018623171,0.7044994,0.99968505,-2.974825e-10,4.4255995e-11,0.025098499,4
2140539862,0.7095195,-0.0002719947,-0.019733204,0.7044094,0.99968505,-2.974825e-10,4.4255995e-11,0.025098499,4
2140559849,0.7094418,0.00042486098,-0.020058176,0.70447844,0.99968505,-2.974825e-10,4.4255995e-11,0.025098499,4
2140579837,0.70938474,0.00068745005,-0.019019855,0.7045645,0.99968505,-2.974825e-10,4.4255995e-11,0.025098499,4
2140599825,0.7094401,-0.00013498709,-0.018821366,0.7045144,0.99968505,-2.974825e-10,4.4255995e-11,0.025098499,4
2140619812,0.7093711,-0.0001280043,-0.019155927,0.7045749,0.99968505,-2.974825e-10,4.4255995e-11,0.025098499,4
2140644797,0.70935607,-0.00015992296,-0.018779559,0.70460016,0.99968505,-2.974825e-10,4.4255995e-11,0.025098499,4
2140659787,0.70934373,-0.00081255176,-0.018583832,0.7046173,0.99968505,-2.974825e-10,4.4255995e-11,0.025098499,4
2140679775,0.70918566,-0.0008204161,-0.01871493,0.70477295,0.99968505,-2.974825e-10,4.4255995e-11,0.025098499,4
2140699763,0.7092358,9.711343e-05,-0.01901318,0.704715,0.99968505,-2.974825e-10,4.4255995e-11,0.025098499,4
2140719753,0.7093863,-0.00012881205,-0.019150268,0.70455974,0.99968505,-2.974825e-10,4.4255995e-11,0.025098499,4
2140739738,0.70932007,-0.0005412482,-0.019504443,0.7046165,0.99968505,-2.974825e-10,4.4255995e-11,0.025098499,4
2140759725,0.70919186,0.00090808904,-0.018867854,0.70476246,0.99968505,-2.974825e-10,4.4255995e-11,0.025098499,4
2140784710,0.709211,0.00064230396,-0.017873164,0.70476943,0.99968505,-2.974825e-10,4.4255995e-11,0.025098499,4
2140799705,0.70914507,-0.00032962408,-0.018822495,0.7048113,0.99968505,-2.974825e-10,4.4255995e-11,0.025098499,4
2140819688,0.7091101,-0.000759741,-0.020176824,0.7048087,0.99968505,-2.974825e-10,4.4255995e-11,0.025098499,4
2140839676,0.7090459,-0.00030144624,-0.019982317,0.7048791,0.99968505,-2.974825e-10,4.4255995e-11,0.025098499,4
2140859663,0.7091084,-0.00043405188,-0.01939474,0.7048326,0.99968505,-2.974825e-10,4.4255995e-11,0.025098499,4
2140879652,0.7091842,0.00044609964,-0.018901277,0.70476973,0.99968505,-2.974825e-10,4.4255995e-11,0.025098499,4
2140899638,0.70920837,0.0022301835,-0.018187104,0.7047608,0.99968505,-2.974825e-10,4.4255995e-11,0.025098499,4
2140919626,0.7091841,0.0020379184,-0.017549435,0.7048019,0.99968505,-2.974825e-10,4.4255995e-11,0.025098499,4
2140939613,0.70898396,0.0012147366,-0.018366849,0.70498437,0.99968505,-2.974825e-10,4.4255995e-11,0.025098499,4
2140959601,0.7090171,0.0016419977,-0.018381564,0.7049498,0.99968505,-2.974825e-10,4.4255995e-11,0.025098499,4
2140984587,0.70902145,0.0016961059,-0.017587785,0.7049656,0.99968505,-2.974825e-10,4.4255995e-11,0.025098499,4
2140999576,0.70893955,0.00122136,-0.01751527,0.70505077,0.99968505,-2.974825e-10,4.4255995e-11,0.025098499,4
2141019564,0.7089886,0.0014520052,-0.017466078,0.7050021,0.99968505,-2.974825e-10,4.4255995e-11,0.025098499,4
2141039551,0.7091104,0.0018760584,-0.01707133,0.70488834,0.99968505,-2.974825e-10,4.4255995e-11,0.025098499,4
2141059544,0.70900565,0.0012550906,-0.017364152,0.70498794,0.99968505,-2.974825e-10,4.4255995e-11,0.025098499,4
2141079529,0.70889413,0.0020119748,-0.01745921,0.70509595,0.99968505,-2.974825e-10,4.4255995e-11,0.025098499,4
2141099514,0.708934,0.0043917466,-0.016497977,0.7050682,0.99968505,-2.974825e-10,4.4255995e-11,0.025098499,4
2141119503,0.7090285,0.0051482352,-0.015660552,0.7049871,0.99968505,-2.974825e-10,4.4255995e-11,0.025098499,4
2141139490,0.70876026,0.0047492287,-0.016158884,0.7052484,0.99968505,-2.974825e-10,4.4255995e-11,0.025098499,4
2141159477,0.7088792,0.00428592,-0.01614135,0.7051323,0.99968505,-2.974825e-10,4.4255995e-11,0.025098499,4
2141179465,0.7089398,0.0036102063,-0.0155716585,0.7050879,0.99968505,-2.974825e-10,4.4255995e-11,0.025098499,4
2141199452,0.70883596,0.0030783992,-0.015495877,0.70519644,0.99968505,-2.974825e-10,4.4255995e-11,0.025098499,4
2141219439,0.7089016,0.0045106835,-0.015281743,0.7051274,0.99968505,-2.974825e-10,4.4255995e-11,0.025098499,4
2141239429,0.70891273,0.005888871,-0.014568026,0.70512116,0.99968505,-2.974825e-10,4.4255995e-11,0.025098499,4
2141259415,0.7087628,0.005764687,-0.014680994,0.7052706,0.99968505,-2.974825e-10,4.4255995e-11,0.025098499,4
2141279404,0.7087905,0.0060597695,-0.015677458,0.7052188,0.99968505,-2.974825e-10,4.4255995e-11,0.025098499,4
2141299390,0.7088497,0.0056585707,-0.016150847,0.705152,0.99968505,-2.974825e-10,4.4255995e-11,0.025098499,4
2141319378,0.7087182,0.0052214633,-0.016460065,0.7052804,0.99968505,-2.974825e-10,4.4255995e-11,0.025098499,4
2141344364,0.70872945,0.005713473,-0.016640373,0.705261,0.99968505,-2.974825e-10,4.4255995e-11,0.025098499,4
2141359353,0.70882165,0.0064706826,-0.015917355,0.7051785,0.99968505,-2.974825e-10,4.4255995e-11,0.025098499,4
2141379340,0.7088483,0.006060392,-0.015264515,0.70516974,0.99968505,-2.974825e-10,4.4255995e-11,0.025098499,4
2141399328,0.70873874,0.0052321292,-0.015549915,0.70528024,0.99968505,-2.974825e-10,4.4255995e-11,0.025098499,4
2141419316,0.70882404,0.005588485,-0.015453947,0.7051939,0.99968505,-2.974825e-10,4.4255995e-11,0.025098499,4
2141439304,0.7088901,0.006185863,-0.015303593,0.70512587,0.99968505,-2.974825e-10,4.4255995e-11,0.025098499,4
2141459293,0.70876133,0.0061239065,-0.016000718,0.70524037,0.99968505,-2.974825e-10,4.4255995e-11,0.025098499,4
2141484275,0.7086343,0.007241165,-0.015715718,0.7053638,0.99968505,-2.974825e-10,4.4255995e-11,0.025098499,4
2141499266,0.70884377,0.007285008,-0.014904932,0.70517045,0.99968505,-2.974825e-10,4.4255995e-11,0.025098499,4
2141519255,0.708802,0.0067028645,-0.015034022,0.7052155,0.99968505,-2.974825e-10,4.4255995e-11,0.025098499,4
2141544239,0.7086778,0.006765119,-0.015850484,0.7053217,0.99968505,-2.974825e-10,4.4255995e-11,0.025098499,4
2141559229,0.7087337,0.0069196257,-0.015902596,0.705263,0.99968505,-2.974825e-10,4.4255995e-11,0.025098499,4
2141579218,0.7087397,0.006769678,-0.016018761,0.70525575,0.99968505,-2.974825e-10,4.4255995e-11,0.025098499,4
2141599204,0.70858234,0.0067834314,-0.016295284,0.7054074,0.99968505,-2.974825e-10,4.4255995e-11,0.025098499,4
2141624189,0.7085818,0.006361363,-0.015713815,0.705425,0.99968505,-2.974825e-10,4.4255995e-11,0.025098499,4
2141639179,0.70866424,0.006068683,-0.015634445,0.7053466,0.99968505,-2.974825e-10,4.4255995e-11,0.025098499,4
2141659167,0.7085865,0.0059124185,-0.01638907,0.7054089,0.99968505,-2.974825e-10,4.4255995e-11,0.025098499,4
2141684151,0.7084223,0.006494591,-0.01571081,0.7055841,0.99968505,-2.974825e-10,4.4255995e-11,0.025098499,4
2141699142,0.70848316,0.006959609,-0.014706238,0.70554024,0.99968505,-2.974825e-10,4.4255995e-11,0.025098499,4
2141719129,0.7086076,0.006609546,-0.014761492,0.70541745,0.99968505,-2.974825e-10,4.4255995e-11,0.025098499,4
2141739117,0.7084798,0.0064188675,-0.015999192,0.7055205,0.99968505,-2.974825e-10,4.4255995e-11,0.025098499,4
2141764104,0.70835555,0.0059663597,-0.016730899,0.7056323,0.99968505,-2.974825e-10,4.4255995e-11,0.025098499,4
2141779094,0.70837647,0.0055954745,-0.017068231,0.7056063,0.99968505,-2.974825e-10,4.4255995e-11,0.025098499,4
2141799080,0.70838255,0.005347734,-0.017835597,0.7055831,0.99968505,-2.974825e-10,4.4255995e-11,0.025098499,4
2141824064,0.70835173,0.0060347817,-0.017531415,0.7056162,0.99968505,-2.974825e-10,4.4255995e-11,0.025098499,4
2141839055,0.7083692,0.005941148,-0.016747475,0.7056185,0.99968505,-2.974825e-10,4.4255995e-11,0.025098499,4
2141859043,0.7083888,0.0052319514,-0.016787339,0.7056034,0.99968505,-2.974825e-10,4.4255995e-11,0.025098499,4
2141879031,0.70843756,0.005859562,-0.017398188,0.70553476,0.99968505,-2.974825e-10,4.4255995e-11,0.025098499,4
2141904016,0.70848554,0.0069320155,-0.017550075,0.70547307,0.99968505,-2.974825e-10,4.4255995e-11,0.025098499,4
2141919005,0.7084085,0.0062216828,-0.018064536,0.70554405,0.99968505,-2.974825e-10,4.4255995e-11,0.025098499,4
2141938993,0.7083843,0.00560672,-0.018902114,0.7055517,0.99968505,-2.974825e-10,4.4255995e-11,0.025098499,4
2141963977,0.7084235,0.006034367,-0.018029874,0.70553154,0.99968505,-2.974825e-10,4.4255995e-11,0.025098499,4
2141978968,0.7083933,0.00594274,-0.017240515,0.7055823,0.99968505,-2.974825e-10,4.4255995e-11,0.025098499,4
2141998955,0.70823747,0.005677665,-0.017355414,0.70573807,0.99968505,-2.974825e-10,4.4255995e-11,0.025098499,4
2142018943,0.7080132,0.006565168,-0.017744707,0.70594573,0.99968505,-2.974825e-10,4.4255995e-11,0.025098499,4
2142043928,0.7080847,0.0065058577,-0.017772097,0.7058739,0.99968505,-2.974825e-10,4.4255995e-11,0.025098499,4
2142058918,0.7081611,0.005767238,-0.017969634,0.7057987,0.99968505,-2.974825e-10,4.4255995e-11,0.025098499,4
2142078907,0.7080107,0.0053998386,-0.018401287,0.7059414,0.99968505,-2.974825e-10,4.4255995e-11,0.025098499,4
2142103891,0.7079556,0.006441779,-0.0175185,0.70601034,0.99968505,-2.974825e-10,4.4255995e-11,0.025098499,4
2142118881,0.7080982,0.00617203,-0.017241217,0.7058765,0.99968505,-2.974825e-10,4.4255995e-11,0.025098499,4
2142138869,0.70822644,0.005224628,-0.01775876,0.70574266,0.99968505,-2.974825e-10,4.4255995e-11,0.025098499,4
2142158856,0.70816296,0.005699572,-0.018227438,0.70579076,0.99968505,-2.974825e-10,4.4255995e-11,0.025098499,4
2142178844,0.70806444,0.0063514602,-0.017672934,0.7058981,0.99968505,-2.974825e-10,4.4255995e-11,0.025098499,4
2142198831,0.70816165,0.005403341,-0.017662797,0.7058087,0.99968505,-2.974825e-10,4.4255995e-11,0.025098499,4
2142218820,0.70818913,0.00494679,-0.01833863,0.70576733,0.99968505,-2.974825e-10,4.4255995e-11,0.025098499,4
2142243805,0.70808667,0.005010101,-0.018148992,0.7058746,0.99968505,-2.974825e-10,4.4255995e-11,0.025098499,4
2142258794,0.7080921,0.0040756897,-0.01811094,0.7058761,0.99968505,-2.974825e-10,4.4255995e-11,0.025098499,4
2142278783,0.70812756,0.0033409891,-0.018613994,0.70583135,0.99968505,-2.974825e-10,4.4255995e-11,0.025098499,4
2142298769,0.7080441,0.004234462,-0.018360699,0.7059168,0.99968505,-2.974825e-10,4.4255995e-11,0.025098499,4
2142323754,0.7079549,0.0038960914,-0.018038072,0.7060166,0.99968505,-2.974825e-10,4.4255995e-11,0.025098499,4
2142338747,0.7080503,0.003276681,-0.018094093,0.7059226,0.99968505,-2.974825e-10,4.4255995e-11,0.025098499,4
2142358732,0.70809495,0.0035250485,-0.018173551,0.70587456,0.99968505,-2.974825e-10,4.4255995e-11,0.025098499,4
2142383717,0.7079794,0.0035983908,-0.018186163,0.70598984,0.99968505,-2.974825e-10,4.4255995e-11,0.025098499,4
2142398708,0.7078949,0.0027704875,-0.018260026,0.70607626,0.99968505,-2.974825e-10,4.4255995e-11,0.025098499,4
2142418696,0.7079121,0.0023497303,-0.018317295,0.70605916,0.99968505,-2.974825e-10,4.4255995e-11,0.025098499,4
2142438682,0.70791847,0.002728234,-0.01804162,0.7060584,0.99968505,-2.974825e-10,4.4255995e-11,0.025098499,4
2142463669,0.70776665,0.0025829566,-0.017012376,0.7062367,0.99968505,-2.974825e-10,4.4255995e-11,0.025098499,4
2142478658,0.70779794,0.002309764,-0.01647417,0.7062191,0.99968505,-2.974825e-10,4.4255995e-11,0.025098499,4
2142498647,0.70781994,0.00217655,-0.016625997,0.70619386,0.99968505,-2.974825e-10,4.4255995e-11,0.025098499,4
2142523630,0.7076997,0.0014605796,-0.016409846,0.70632136,0.99968505,-2.974825e-10,4.4255995e-11,0.025098499,4
2142538622,0.707649,0.001729303,-0.015235361,0.70639783,0.99968505,-2.974825e-10,4.4255995e-11,0.025098499,4
2142558608,0.70762956,0.0029994943,-0.014101173,0.7064366,0.99968505,-2.974825e-10,4.4255995e-11,0.025098499,4
2142578599,0.70761746,0.0034384725,-0.014438324,0.7064399,0.99968505,-2.974825e-10,4.4255995e-11,0.025098499,4
2142603581,0.7074607,0.0017878643,-0.013625262,0.70661914,0.99968505,-2.974825e-10,4.4255995e-11,0.025098499,4
2142618571,0.7074178,0.0018437243,-0.012541875,0.70668197,0.99968505,-2.974825e-10,4.4255995e-11,0.025098499,4
2142638558,0.707401,0.0019366989,-0.011336455,0.70671886,0.99968505,-2.974825e-10,4.4255995e-11,0.025098499,4
2142663543,0.7073907,0.0015337361,-0.009474304,0.7067576,0.99968505,-2.974825e-10,4.4255995e-11,0.025098499,4
2142678534,0.7073294,0.0015844589,-0.008364939,0.7068329,0.99968505,-2.974825e-10,4.4255995e-11,0.025098499,4
2142698523,0.7072116,0.0017420519,-0.007057,0.70696455,0.99968505,-2.974825e-10,4.4255995e-11,0.025098499,4
2142718509,0.7072394,0.0013860642,-0.0053409054,0.70695263,0.99968505,-2.974825e-10,4.4255995e-11,0.025098499,4
2142743493,0.70726264,0.0009786771,-0.0039243423,0.70693934,0.99968505,-2.974825e-10,4.4255995e-11,0.025098499,4
