timestamp,gyro_rad[0],gyro_rad[1],gyro_rad[2],gyro_integral_dt,accelerometer_timestamp_relative,accelerometer_m_s2[0],accelerometer_m_s2[1],accelerometer_m_s2[2],accelerometer_integral_dt,accelerometer_clipping
2131920223,-0.0074392045,7.783621e-06,-0.011306132,4997,0,0.032256797,-0.05748308,-9.80862,4997,0
2131925221,-0.009603126,0.0003381161,-0.010707389,4998,0,0.016315416,-0.0725239,-9.846755,4998,0
2131940209,-0.009573404,-0.0012774471,-0.010236996,4997,0,0.03795079,-0.053715438,-9.833857,4997,0
2131960197,-0.010147019,-0.0014574439,-0.010898614,4996,0,0.045648925,-0.061786022,-9.843467,4996,0
2131980184,-0.007891396,-0.0012059258,-0.022623628,4997,0,0.079071656,-0.07990422,-9.8046055,4997,0
2132000172,-0.007822837,-0.0037742346,0.0094647985,4997,0,-0.11926803,-0.16477701,-9.838768,4997,0
2132020159,-0.010268361,0.001654215,-0.02111849,4997,0,0.20491694,-0.118455246,-9.660603,4997,0
2132040147,-0.004675822,-0.0031371652,-0.020418733,4997,0,0.09316358,-0.25742945,-9.7755575,4997,0
2132060134,-0.0050803577,-0.0031732337,0.0067807417,4997,0,0.021085188,-0.035133824,-9.778466,4997,0
2132080122,-0.017734267,-2.5478585e-05,-0.025478238,4992,0,0.057434574,-0.1051159,-9.8824215,4992,0
2132100109,-0.0046327435,-0.0048260703,-0.0058938535,4997,0,0.043741833,-0.14947185,-9.862754,4997,0
2132120097,-0.009451195,-0.017211856,-0.009516119,4996,0,0.118333355,-0.08023709,-9.884948,4996,0
2132140085,-0.011780461,0.00866093,-0.015709903,4998,0,-0.048387613,-0.21035273,-9.816417,4998,0
2132160072,-0.011646213,-0.016994338,-0.008184153,4997,0,0.13986968,-0.0429647,-9.824792,4997,0
2132180061,0.012583319,-0.0006296401,-0.013599311,4998,0,0.19376206,-0.07836226,-9.980089,4998,0
2132200047,0.021463314,-0.007827409,-0.013405035,4997,0,-0.07537593,0.035006654,-10.072778,4997,0
2132220035,0.007485144,-0.008919466,-0.013588954,4997,0,0.043367274,0.13035938,-9.97535,4997,0
2132240022,-0.002493061,-0.007862568,3.191868e-05,4995,0,0.032852303,-0.122728676,-9.965575,4995,0
2132260010,-0.004333193,0.00038494804,-0.03276303,4997,0,0.07101714,-0.046680868,-9.821127,4997,0
2132279998,-0.008272541,-0.0007870457,0.0074157026,4997,0,0.016723363,0.021306558,-9.852654,4997,0
2132299985,-0.0077806367,-2.9031093e-05,-0.0074469484,4996,0,-0.1352202,-0.07522618,-9.922003,4996,0
2132319973,-0.010726513,-0.010231697,-0.025766447,4995,0,-0.03219324,-0.14624724,-9.807451,4995,0
2132339961,-0.014020537,-0.007922045,-0.017100282,4998,0,-0.050323155,-0.15615682,-9.8910475,4998,0
2132359948,-0.003256913,-0.004045751,-0.02693135,4997,0,-0.13903712,-0.2373697,-9.754459,4997,0
2132379937,-0.0015654307,-0.00693497,-0.018088557,4999,0,-0.022853889,-0.14859056,-9.781903,4999,0
2132399923,-0.004634613,-0.010347659,-0.031774472,4996,0,0.110769235,0.095242,-9.708077,4996,0
2132419911,-0.040081937,0.0034714327,0.004704903,4997,0,-0.00849585,0.04343192,-9.808055,4997,0
2132439898,-0.014702194,0.018116275,0.017155388,4997,0,0.12673968,0.84143287,-9.503807,4997,0
2132459885,-0.028400132,-0.0030475357,-0.007912089,4996,0,0.026598457,-0.21587928,-9.72839,4996,0
2132479874,-0.01719656,-0.009556605,-0.035332162,4998,0,0.18096519,-0.82207423,-9.900813,4998,0
2132499861,0.0039425325,-0.012705215,0.011769837,4997,0,-0.41433576,1.1559284,-9.846497,4997,0
2132519849,-0.02092197,0.012010562,-0.030990452,4997,0,-0.7680652,0.022115335,-9.5760975,4997,0
2132539836,0.01921107,-0.0012917214,-0.002952771,4997,0,0.41044632,0.39174485,-9.860478,4997,0
2132559824,-0.009491839,0.017405815,0.023748428,4997,0,0.458074,-0.73569614,-9.614673,4997,0
2132579811,-0.025332563,-0.013092866,-0.05539897,4997,0,0.5423551,-1.5051285,-9.667013,4997,0
2132599799,-0.02378308,-0.021361342,0.01941182,4997,0,0.33483255,0.64781874,-9.892931,4997,0
2132619787,-0.031685498,0.016642822,-0.025989171,4998,0,-1.0773873,-0.14111805,-10.040705,4998,0
2132639774,-0.008775686,-0.0019116048,-0.0596155,4997,0,-0.08252353,1.6290984,-9.807584,4997,0
2132659761,0.020114437,0.010604505,0.069563866,4997,0,-0.37541738,0.26080638,-9.666395,4997,0
2132679750,-0.016629657,0.010514245,-0.05234515,4998,0,1.1789865,-1.225527,-10.198848,4998,0
2132699737,-0.0038327163,-0.01121407,-0.021856317,4998,0,0.7371016,-0.57688,-9.5710535,4998,0
2132719724,-0.014133499,-0.025051441,0.0830467,4997,0,-0.11249288,-0.9228737,-10.057273,4997,0
2132739712,-0.038586978,-0.009731398,-0.15963033,4998,0,0.45911804,0.8548499,-10.05376,4998,0
2132759699,-0.0012772882,0.005780263,0.051299807,4997,0,-1.8123127,0.9117303,-9.71572,4997,0
2132779690,0.025610363,0.0075458707,0.049913034,5000,0,0.6887825,0.5031028,-9.802986,5000,0
2132799674,-0.02115336,0.022219297,-0.17285886,4996,0,0.12080699,-0.012904798,-9.630644,4996,0
2132819662,0.024314325,-0.0076886686,0.20779182,4997,0,0.5533575,-1.8141873,-10.096926,4997,0
2132839649,-0.04755203,-0.0124495635,-0.18130158,4996,0,1.3611878,0.031487007,-9.720489,4996,0
2132859637,-0.046952978,-0.00019901426,0.01216374,4997,0,-1.4945115,-0.46713677,-9.740764,4997,0
2132879624,0.024325216,-0.018051147,0.08229542,4996,0,0.29500818,1.1988487,-10.248385,4996,0
2132899612,-0.01530481,0.024106834,-0.22770783,4997,0,-1.3354686,0.89514005,-9.374021,4997,0
2132924597,-0.028384862,-0.009565556,0.17003785,4997,0,-0.45243272,-0.79136515,-9.540161,4997,0
2132939587,-0.03684331,0.0061765104,-0.23802917,4997,0,1.6295357,-0.45404968,-9.930122,4997,0
2132959575,-0.02945392,-0.0015221398,0.10761609,4995,0,-0.6618846,-1.8875272,-9.53001,4995,0
2132979563,-0.015353803,-0.04264437,-0.0058546998,4996,0,0.9550024,0.35127786,-9.970826,4996,0
2132999550,-0.022276748,0.025493866,-0.17762606,4997,0,-1.5022796,0.50647795,-9.971306,4997,0
2133019537,0.050254617,-0.011467979,0.23141277,4997,0,-0.0039381096,0.52292347,-10.088779,4997,0
2133039526,-0.049188584,0.035041098,-0.272965,4998,0,0.5258168,0.3050213,-9.266807,4998,0
2133059513,0.032545045,0.008981315,0.20719893,4998,0,-0.14845824,-1.7273548,-9.83976,4998,0
2133079501,-0.050036058,-0.008723555,-0.08035215,4998,0,2.0616755,-0.46080282,-10.270016,4998,0
2133099490,-0.016880708,0.006928967,-0.12407386,4999,0,-1.6158931,-0.60453117,-9.709147,4999,0
2133119475,-0.007436643,-0.031091144,0.16869102,4997,0,-0.25040105,0.67684025,-9.979624,4997,0
2133139462,-0.00839104,0.03313441,-0.20706072,4996,0,-0.7145902,0.737083,-9.463677,4996,0
2133159450,0.023316924,0.0048724697,0.124200225,4996,0,-0.081240036,-0.22760929,-9.978483,4996,0
2133179438,0.014375564,0.007247587,0.01477378,4996,0,1.3269477,-0.39109457,-9.471079,4996,0
2133199426,-0.024320781,0.0119909905,-0.15093459,4997,0,-0.61658174,-1.9274275,-9.806785,4997,0
2133219413,-0.03256167,-0.032671057,0.1881456,4997,0,1.4369684,-0.015914546,-10.18323,4997,0
2133239400,-0.008609393,0.013124224,-0.19252923,4996,0,-1.1555067,-0.51194996,-10.105993,4996,0
2133259389,-0.024807097,-0.026458966,0.032670446,4998,0,-0.21437627,1.6264652,-9.738349,4998,0
2133279376,0.013699292,0.017613601,0.08282645,4996,0,-0.90561324,0.84952164,-9.559312,4996,0
2133299366,-0.017859342,-0.004870184,-0.1835295,4999,0,0.61147463,0.15959217,-9.988417,4999,0
2133319351,0.02531095,0.010302904,0.18634824,4997,0,0.3954435,-0.2681609,-9.50484,4997,0
2133339338,-0.020747349,-0.015993861,-0.08917668,4996,0,0.7234037,-1.7237179,-9.834197,4996,0
2133359326,-0.046982944,-0.01500157,-0.081036024,4997,0,1.1486448,0.22485805,-9.683882,4997,0
2133379313,-0.024480104,-0.019932788,0.13229647,4996,0,-0.68525815,-1.122538,-10.261848,4996,0
2133399303,-0.015630197,0.009420665,-0.19539128,4999,0,0.63796705,1.9903272,-9.944465,4999,0
2133419288,-0.009827404,0.0048660873,0.09496789,4996,0,-2.1441433,0.46819958,-9.752437,4996,0
2133439276,0.011279005,0.0070673386,0.02218352,4997,0,1.2567979,0.7437853,-9.70036,4997,0
2133459264,-0.006804855,0.015437836,-0.15306722,4997,0,-0.4701395,-0.6706442,-9.495716,4997,0
2133479253,0.0024764894,-0.006755749,0.20672709,4998,0,0.7841562,-1.3431215,-9.607369,4998,0
2133499238,-0.021080475,-0.006631013,-0.1706705,4996,0,0.75027275,-0.62507135,-9.894279,4996,0
2133519226,-0.029462822,-0.020434227,0.0075009274,4996,0,-0.23526534,-0.90550184,-10.18256,4996,0
2133539214,-0.013436985,-0.029278148,0.08717348,4996,0,0.69365764,0.53882986,-10.392941,4996,0
2133559201,-0.029015863,0.011235052,-0.21926376,4996,0,-2.1032789,0.06571422,-10.0364685,4996,0
2133579191,0.037380055,-0.02223855,0.18728513,4994,0,0.16965714,2.0348537,-9.914778,4994,0
2133599178,0.006996663,0.03301773,-0.13033748,4998,0,-1.0469846,-0.7310266,-9.6089525,4998,0
2133619165,0.01866724,-0.0010651498,-0.010037198,4997,0,0.91847724,0.8574499,-10.061969,4997,0
2133639152,-0.014914154,0.012186472,0.1434362,4997,0,-0.24519476,-2.110601,-9.452353,4997,0
2133659140,-0.0140130315,-0.023149755,-0.20126334,4997,0,2.0599334,-0.10391687,-9.662813,4997,0
2133679127,-0.027712006,-0.014660696,0.13403492,4995,0,-0.07358832,-1.0968255,-9.9686365,4995,0
2133699115,-0.011085621,-0.03560761,-0.0714646,4997,0,1.0967883,0.08661483,-10.453153,4997,0
2133719103,-0.040062338,-0.014394305,-0.11277727,4998,0,-1.0101833,0.43717825,-9.519357,4998,0
2133739090,0.027783081,-0.009397894,0.16092944,4997,0,-0.5441334,0.88796055,-10.04339,4997,0
2133759077,-0.035445053,0.028437668,-0.20282526,4996,0,0.035943788,1.3293018,-9.699924,4996,0
2133779065,0.051840883,0.017175894,0.11080155,4997,0,-0.77916276,-0.30688307,-10.044642,4997,0
2133799052,0.009945308,0.01620405,0.020274945,4996,0,1.1886303,0.12098092,-9.637011,4996,0
2133819039,-0.0096027795,0.016544152,-0.14065607,4996,0,-0.5590171,-1.5981154,-9.410718,4996,0
2133839028,-0.0033830951,-0.010981336,0.2083029,4995,0,1.5744057,-0.12054029,-9.911726,4995,0
2133859016,-0.01508596,0.0053439927,-0.20452383,4998,0,-0.45862177,-1.830338,-10.015327,4998,0
2133879002,-0.047970746,-0.03488327,0.07759997,4996,0,0.67571336,1.0239819,-10.056781,4996,0
2133903988,0.025248423,0.0065634334,0.19453657,4998,0,0.33319846,1.7937984,-10.052302,4998,0
2133918979,-0.030285235,-0.017784966,-0.17816319,4998,0,0.5450751,2.3084779,-9.968165,4998,0
2133938966,0.013080631,0.012079111,0.18249552,4997,0,-1.3538743,0.059745025,-9.971212,4997,0
2133958953,0.0010614059,-0.0025666323,-0.17448576,4997,0,1.058029,1.6384298,-9.874183,4997,0
2133978941,0.012160782,0.02183917,0.059349045,4997,0,-1.2205846,-0.5242407,-9.3347225,4997,0
2133998928,0.0310977,4.8832677e-05,0.075533316,4994,0,1.6631777,-0.44165182,-9.544532,4994,0
2134018915,-0.021191964,0.020582857,-0.18554531,4997,0,0.27354342,-1.1800506,-9.577917,4997,0
2134038905,0.006792319,-0.014715407,0.2055401,4999,0,0.791725,-1.2645334,-10.253854,4999,0
2134058893,-0.072911784,-0.012807144,-0.20121165,4999,0,0.4134839,-0.9279428,-9.610229,4999,0
2134078879,0.019042782,-0.016643608,0.044195138,4997,0,-1.0817475,0.102250546,-9.87596,4997,0
2134098867,-0.032922696,-0.014101672,0.048970357,4998,0,0.24408899,1.0854285,-10.1071615,4998,0
2134123851,0.0034377545,0.032772407,-0.21119934,4997,0,-0.034038883,-0.47289,-9.454873,4997,0
2134138841,0.0119476365,-0.0039091497,0.20274712,4994,0,-0.34232852,1.3808281,-9.764782,4994,0
2134158828,0.041942958,-4.7275054e-05,-0.16198337,4996,0,-0.6708574,-0.08238172,-9.818246,4996,0
2134178817,-0.019461691,0.026509784,0.040170275,4997,0,0.6373684,1.1682066,-9.772663,4997,0
2134203803,-0.00037455128,-0.022163514,0.20756134,4998,0,0.23802195,-0.8899758,-9.983846,4998,0
2134218791,-0.03205472,0.014631813,-0.19682308,4996,0,2.0065072,-0.10449167,-9.980323,4996,0
2134238779,0.017101577,-0.00803139,0.21196888,4996,0,-0.5541729,-2.4670928,-9.706869,4996,0
2134263763,0.008569703,-0.012165232,0.0021458254,4995,0,-0.62387884,0.5416601,-10.317423,4995,0
2134278756,-0.046218447,-0.00945956,0.018275987,4999,0,-1.2984793,-1.0750998,-9.8916645,4999,0
2134298741,-0.027353354,-0.01727026,0.07460767,4997,0,1.2373996,1.373964,-10.325149,4997,0
2134318729,-0.037426922,0.012511918,-0.21452129,4997,0,-2.3577259,0.037434332,-10.047234,4997,0
2134343715,0.0334572,0.017233996,0.123841874,4998,0,-0.7175098,-0.42705426,-9.594152,4998,0
2134358704,0.005314207,0.01773583,-0.2028787,4992,0,-1.6157982,-0.7129279,-9.655017,4992,0
2134378692,0.009274017,0.004225012,0.099270485,4996,0,0.7352229,2.5157404,-9.976539,4996,0
2134403676,0.017992662,-0.003481442,0.21846126,4995,0,1.4198889,-0.69138145,-9.881491,4995,0
2134418668,-0.014057465,-0.013737899,-0.1644543,4996,0,1.9667482,0.9268789,-10.044897,4996,0
2134438657,0.04253812,0.025424123,0.20948121,4999,0,-1.2062128,-2.9323418,-9.5338745,4999,0
2134458644,-0.049197845,0.09561172,-0.27986422,4999,0,-0.8201938,-2.9936125,-9.837107,4999,0
2134478638,-0.11379603,0.04220648,0.0578495,5006,0,-0.572045,-2.8253284,-10.348265,5006,0
2134498617,0.109355226,0.071744695,-0.08145099,4997,0,0.1312025,0.073114894,-9.264003,4997,0
2134518607,0.13583873,-0.02562195,0.22541882,4998,0,0.43506876,4.641287,-9.226689,4998,0
2134543589,-0.0062854337,-0.023153907,0.1543551,4997,0,0.073396735,2.8906054,-10.931822,4997,0
2134558585,-0.048833072,-0.042677697,-0.060323987,5001,0,0.44333106,-1.817678,-9.295669,5001,0
2134578569,-0.0331157,0.011716218,0.09933326,4998,0,1.4746575,-0.3050235,-10.002024,4998,0
2134598555,-0.06059453,0.059115488,-0.087164804,4997,0,-0.8599754,-2.758324,-9.61754,4997,0
2134618542,0.17068414,-0.003954846,0.11630718,4996,0,-0.0005479751,-0.29262218,-7.9463177,4996,0
2134638530,-0.103410706,0.018971117,-0.035817128,4997,0,-0.76989675,-0.114281744,-10.632608,4997,0
2134658518,0.00989049,-0.05620504,-0.017388893,4997,0,-1.0706258,-2.563079,-9.974199,4997,0
2134683504,0.073261835,-0.025992725,-0.01719218,4999,0,0.17091636,-0.15597698,-9.02192,4999,0
2134698493,-0.03762999,-0.013881551,-0.057156358,4997,0,-0.032463633,-0.9360653,-10.905944,4997,0
2134718481,0.08869083,-0.05304993,-0.07661117,4997,0,1.5187682,0.49834728,-9.08382,4997,0
2134743465,0.13380462,-0.045581967,0.08510554,4997,0,0.692614,2.7151325,-9.567949,4997,0
2134763453,-0.08776897,0.01559903,-0.07586927,4997,0,0.013497817,0.60998315,-10.793116,4997,0
2134778445,0.010456492,-0.021347934,0.085502334,4997,0,0.82541424,0.54316443,-8.970819,4997,0
2134803430,-0.1538291,0.028143082,0.010187129,4999,0,-0.11276902,0.75530934,-10.752344,4999,0
2134818422,0.10891878,-0.050564125,0.041727655,4996,0,0.3512082,-0.22125463,-8.862176,4996,0
2134838406,-0.05533195,0.02213025,-0.042527307,4996,0,-0.590537,-0.09633352,-10.747163,4996,0
2134858393,0.12651305,-0.02104415,-0.02366916,4996,0,0.32051006,0.5865063,-9.660708,4996,0
2134883378,0.09623006,-0.018768199,0.114967495,4995,0,0.020431852,2.2215707,-10.121814,4995,0
2134898371,-0.029183146,-0.027355278,-0.071840286,4999,0,0.8322075,-0.49528775,-8.87632,4999,0
2134918358,-0.052270014,0.032324713,0.030856937,4998,0,0.85235757,-0.26792762,-10.041649,4998,0
2134943341,-0.12595706,0.017215839,-0.10792097,4997,0,0.066487744,-1.4538556,-9.697105,4997,0
2134963329,0.035405338,0.0003041529,0.10012868,4998,0,0.94693434,-0.052587662,-8.951899,4998,0
2134978319,-0.025333868,-0.023650412,-0.089731105,4997,0,-0.91697055,-0.84693474,-10.028222,4997,0
2134998307,0.028900785,-0.040878464,0.050211225,4997,0,0.7277829,1.147705,-10.496595,4997,0
2135023292,-0.092170015,0.04197633,-0.12972695,4997,0,-0.108951196,-0.5411454,-11.182905,4997,0
2135043280,0.035081163,-0.06101143,0.07990877,4997,0,1.844888,0.8618708,-9.50434,4997,0
2135058269,0.015164582,0.019675368,-0.050183315,4997,0,-0.5989558,0.28015107,-9.166774,4997,0
2135083254,0.053363092,0.019504031,0.13974904,4997,0,-0.13338672,0.6793164,-10.387075,4997,0
2135103242,-0.027059274,-0.022444615,-0.08249622,4996,0,-0.8462948,0.42472884,-9.883976,4996,0
2135118232,-0.095842764,0.0013464113,0.02207041,4997,0,0.6697011,-0.5289084,-10.491493,4997,0
2135138220,0.09095365,0.0011643833,-0.03137826,4996,0,0.63232476,0.10348843,-8.64323,4996,0
2135163204,-0.10519603,0.03860337,0.041346844,4996,0,0.043459788,-0.2603462,-10.43985,4996,0
2135183192,0.12003615,0.027384486,-0.018080246,4997,0,0.36276558,1.149809,-8.959507,4997,0
2135198183,-0.11634981,-0.020861655,-0.026073646,4998,0,-0.38392383,-1.0888146,-10.348504,4998,0
2135223167,0.018762138,-0.041889943,0.005174805,4996,0,0.47685963,0.42088938,-9.485327,4996,0
2135243154,-0.031402513,0.026066726,-0.054411363,4993,0,0.3642324,-2.1829145,-9.35793,4993,0
2135258145,-0.031362668,0.018909866,0.07957005,4997,0,0.122307636,1.1533045,-11.234717,4997,0
2135278132,-0.04030225,-0.08498392,-0.028242728,4997,0,0.49602315,0.8349042,-9.178536,4997,0
2135303117,-0.16725941,-0.054197997,0.033691157,4997,0,0.5288067,0.34494647,-11.080677,4997,0
2135323105,0.045560107,-0.0155860465,-0.028843395,4997,0,0.652554,-0.6481974,-8.163951,4997,0
2135338095,-0.09679837,0.02328963,-0.0075302674,4996,0,-1.0036877,1.1987305,-10.981588,4996,0
2135363080,-0.054270346,-0.01392603,0.027923375,4997,0,0.14471665,1.875992,-9.42029,4997,0
2135383067,-0.21970372,-0.037858766,-0.017527005,4997,0,-0.1589302,-2.5599334,-9.697757,4997,0
2135398061,-0.015830668,0.06777563,0.0034279586,5000,0,-0.122221105,1.3774555,-10.850243,5000,0
2135418046,-0.1010763,-0.05078553,0.013615155,4996,0,0.52657104,1.9669653,-9.461459,4996,0
2135443030,-0.26235056,-0.016786223,0.031577777,4997,0,-0.5379286,-1.0738428,-10.52473,4997,0
2135463017,0.15670888,-0.025788192,0.026626656,4996,0,1.2921896,0.9786765,-9.254018,4996,0
2135478009,-0.13440017,-0.026042236,0.005420232,4998,0,-0.18949671,-0.058911923,-9.579727,4998,0
2135502993,-0.08040685,-0.039839577,0.02831268,4997,0,0.30737492,-0.87392443,-10.674614,4997,0
2135522981,0.011523251,-0.02791806,-0.034046017,4998,0,0.8023262,0.5826737,-9.279901,4998,0
2135537970,-0.22332816,-0.006346144,-0.018885052,4994,0,-0.26737243,-2.0874429,-10.260192,4994,0
2135557959,-0.04160952,-0.05212812,-0.044304755,4997,0,0.14927724,0.41427067,-9.690056,4997,0
2135582944,-0.14818156,-0.017951628,-0.01739826,4997,0,-0.34175894,-0.57082504,-9.252416,4997,0
2135602931,-0.08341713,0.01699729,0.018921608,4997,0,0.4349822,-0.039569978,-10.662013,4997,0
2135617921,-0.025071463,-0.018139958,0.04643308,4994,0,0.7792687,1.0394452,-8.46313,4994,0
2135642907,-0.126049,0.026064504,-0.028516466,4998,0,0.045980148,-0.28579623,-10.416357,4998,0
2135662893,0.016464945,-0.029185716,0.073271856,4996,0,1.2695602,0.45616043,-9.34305,4996,0
2135677885,-0.050725695,-0.03517108,-0.017611837,4997,0,0.17414835,0.2461461,-9.675658,4997,0
2135697871,-0.16943994,0.01333506,0.014074134,4996,0,0.043913566,-0.97259605,-11.073722,4996,0
2135722856,-0.07346545,-0.03346026,-0.007139323,4997,0,-0.17040798,0.57322526,-9.522049,4997,0
2135742845,-0.19465844,0.07245631,-0.05141434,4995,0,-0.9934494,-0.05692727,-10.530608,4995,0
2135757834,-0.035313997,-0.0127699915,0.041097384,4997,0,0.65157473,1.7139599,-8.677502,4997,0
2135782822,-0.19418773,-0.017592443,-0.025761863,5000,0,-0.81363374,0.2427323,-11.206873,5000,0
2135802809,0.033168714,-0.042093158,0.041640498,5000,0,1.0429827,1.5996685,-9.289236,5000,0
2135817797,-0.057695687,-0.045319643,-0.030718304,4996,0,-1.2305181,-0.43559584,-9.259027,4996,0
2135837785,-0.08576773,0.0071372963,-0.0004860516,4996,0,0.011677047,0.10818177,-10.50401,4996,0
2135862769,-0.023845607,0.0403183,0.007050387,4997,0,-0.4745674,-0.015769884,-9.195916,4997,0
2135882757,-0.19461256,0.069933265,0.018416792,4997,0,-0.493463,-0.70963037,-10.706736,4997,0
2135897747,0.016861537,-0.10847123,0.067980684,4997,0,0.22647518,0.9786194,-8.429064,4997,0
2135922731,-0.1950702,0.12556368,0.006855907,4996,0,-0.20330976,-0.033048626,-10.990437,4996,0
2135942725,0.059463564,-0.069240116,0.04052871,5002,0,1.0693129,1.7909424,-10.079363,5002,0
2135957710,-0.049165733,-0.04952271,-0.008931095,4995,0,0.40097108,-0.91936636,-9.548447,4995,0
2135977700,-0.020545326,-0.070806086,0.066715375,4999,0,0.27612817,1.1091082,-10.328674,4999,0
2136002682,-0.1313347,-0.034317087,0.024153763,4996,0,-0.67099905,-0.53728724,-9.64725,4996,0
2136022676,0.011825652,-0.06576362,0.03224082,5003,0,-0.5415743,0.9551368,-9.914544,5003,0
2136037660,0.0974551,-0.094314545,0.019646691,4997,0,-0.24023782,0.84216607,-8.465625,4997,0
2136062645,-0.1132725,0.034951396,-0.00037570522,4997,0,-0.5818145,0.44899333,-10.641941,4997,0
2136082632,0.011543261,-0.06553916,-0.0029970012,4997,0,-0.87869173,0.5063491,-8.944565,4997,0
2136097623,-0.07321925,-0.043320294,0.0025998405,4997,0,-0.8399678,-0.38617542,-10.303309,4997,0
2136117611,0.033595074,-0.07384656,0.058104396,4998,0,0.18919654,0.9746773,-10.166012,4998,0
2136137599,0.09183841,-0.041300546,0.016579246,4998,0,0.11621184,0.90077245,-9.025164,4998,0
2136157587,-0.046225924,-0.08115991,-0.012930805,4998,0,-0.21771841,-0.35379568,-11.579516,4998,0
2136177575,0.05036081,-0.25956073,0.03782486,4997,0,0.10893746,0.9511238,-8.211617,4997,0
2136202558,-0.10470869,0.06349616,-0.04043847,4997,0,-0.8939342,-0.37524834,-10.261323,4997,0
2136222545,0.02052618,-0.007389857,-0.043652646,4995,0,-0.54664296,0.620301,-10.149379,4995,0
2136237536,0.095517516,-0.21714494,-0.030245088,4997,0,0.8138915,1.2952061,-9.627024,4997,0
2136257524,0.010666045,-0.21625361,-0.008793434,4997,0,0.117789604,0.77020866,-9.933999,4997,0
2136282508,-0.023312978,-0.043421052,-0.09478482,4997,0,-0.7570046,-0.32313722,-11.588004,4997,0
2136302495,-0.15105744,-0.092334315,-0.03350809,4996,0,-0.74932593,0.08182585,-9.270861,4996,0
2136317486,-0.17237318,-0.20481746,-0.03300059,4995,0,-0.4437704,0.819793,-9.0411215,4995,0
2136342472,-0.045979165,-0.3482539,-0.07219007,4998,0,-0.38928255,0.7479142,-8.620206,4998,0
2136362458,0.04283838,-0.1720527,-0.046191435,4997,0,-0.19144717,0.28232777,-10.160729,4997,0
2136377451,0.05615754,0.00052102434,-0.07272876,4998,0,-0.16371338,-0.00044857452,-10.34844,4998,0
2136397437,-0.051839817,-1.32077985e-05,-0.08494844,4996,0,-0.3715365,0.40437883,-10.877723,4996,0
2136422421,0.004289358,-0.105591856,-0.11754003,4997,0,-0.86472064,0.36847287,-10.929787,4997,0
2136442410,0.0055542337,-0.1533201,-0.10009859,4997,0,-0.7435772,0.31246376,-10.342956,4997,0
2136457399,0.13906187,-0.16973685,-0.0513801,4997,0,-0.237882,0.58226967,-9.960072,4997,0
2136482386,0.11869704,-0.14058097,-0.0999172,4999,0,-0.6433148,0.7800844,-9.938342,4999,0
2136502371,-0.06051069,-0.100727044,-0.06368497,4995,0,-0.094508916,0.7798279,-9.752226,4995,0
2136517362,-0.16943587,-0.041735366,-0.08547594,4996,0,-0.30337042,0.2550615,-9.7882185,4996,0
2136542346,-0.107853465,0.013773676,-0.041336324,4995,0,0.021431478,-0.478887,-9.758597,4995,0
2136562334,0.008986312,0.0024007682,-0.08524177,4996,0,-0.39813423,0.5993391,-10.7241535,4996,0
2136582324,0.07733184,0.01305966,-0.10456021,4997,0,-0.10322922,0.76740724,-10.935576,4997,0
2136597314,-0.026249815,0.019593423,-0.055576116,4997,0,-0.06686852,0.41814184,-9.3018875,4997,0
2136622298,0.13331862,-0.07799529,-0.03823777,4998,0,-0.13132295,1.1433971,-9.726161,4998,0
2136642286,0.12678872,-0.08870113,-0.04586292,4997,0,-0.3506247,0.2605237,-10.239722,4997,0
2136657275,0.0639943,-0.04448162,-0.07496075,4997,0,-0.22968183,0.51408947,-10.012179,4997,0
2136682262,0.002609708,0.037185024,-0.033509444,4998,0,-0.917297,-0.3074782,-9.704383,4998,0
2136702247,0.021612568,0.031527277,-0.011696444,4991,0,-0.025163397,0.0583236,-10.367143,4991,0
2136722238,0.15224811,-0.042988446,-0.0632426,5000,0,0.091322474,0.72302276,-10.882311,5000,0
2136737231,0.08822644,-0.06735955,-0.04555587,5002,0,-0.3989924,0.3085793,-10.352412,5002,0
2136762210,-0.012510541,-0.066298835,-0.044493612,4993,0,-0.47606117,0.10918095,-10.024636,4993,0
2136782199,0.04591119,-0.028208569,-0.02452997,4997,0,0.32428744,0.17919734,-10.082652,4997,0
2136797192,0.05222825,-0.004442936,-0.055065896,5000,0,0.062351014,0.76503634,-10.179364,5000,0
2136822179,-0.092014186,-0.04237299,-0.054433677,5003,0,0.08435299,0.3998624,-9.423908,5003,0
2136842160,-0.06706761,-0.1035498,-0.038613796,4997,0,0.08150336,0.4582579,-9.240899,4997,0
2136862151,0.17965186,-0.07320692,-0.052241918,4999,0,-0.17619802,0.67365366,-10.566527,4999,0
2136877140,0.24297446,-0.0018085291,-0.07832496,4996,0,0.4890198,0.30227527,-9.972007,4996,0
2136902123,0.15077294,0.06229798,-0.077784784,4997,0,-0.4885676,0.41779128,-8.550529,4997,0
2136922112,-0.011748555,0.14849618,-0.07316993,4998,0,-0.9792029,-0.11695895,-10.0873165,4998,0
2136937102,-0.15587007,0.09356987,-0.08084789,4996,0,-0.508269,0.0042842613,-10.794913,4996,0
2136962086,-0.064452626,-0.03578784,-0.03936514,4992,0,-0.24501836,0.5072921,-10.135618,4992,0
2136982074,0.2777753,-0.13531613,-0.0852157,4996,0,-0.5584431,0.030774612,-10.912474,4996,0
2137002062,0.15578257,-0.10281281,-0.07265135,4993,0,0.13917097,0.34355935,-8.767925,4993,0
2137017055,0.1367644,-0.07965318,-0.03561068,4999,0,-0.18345758,0.72883713,-8.766641,4999,0
2137042037,-0.009724505,0.13359755,-0.067058586,4997,0,-0.8341071,-0.38892713,-11.001176,4997,0
2137062025,-0.1502651,0.08992353,-0.074141994,4998,0,-0.16439664,0.13385974,-9.840815,4998,0
2137077014,0.01550787,-0.057221573,-0.069507495,4995,0,0.056776438,1.1768652,-10.536412,4995,0
2137102000,0.20502613,-0.10665939,-0.030647516,4997,0,0.109231144,0.58275896,-8.202453,4997,0
2137121988,0.20251706,-0.03705472,-0.07302226,4993,0,-0.8839341,0.31750008,-9.254695,4993,0
2137141975,0.06912833,0.053712137,-0.027942803,4996,0,-0.3361404,-0.1298027,-11.774545,4996,0
2137156964,-0.093145326,0.003195122,-0.042739492,4996,0,0.04689575,0.8712175,-8.8959055,4996,0
2137181951,-0.076089785,0.08748035,-0.018583609,4999,0,-0.7009188,0.5059916,-9.398936,4999,0
2137201938,0.18149354,0.11709317,-0.021397993,4998,0,-0.55385464,-0.21854755,-11.433174,4998,0
2137216927,0.097627014,0.10696384,-0.058639128,4996,0,-0.610217,-0.22524416,-10.005764,4996,0
2137241913,0.111916065,-0.057622153,-0.03914651,4997,0,0.023891395,1.3371041,-9.459451,4997,0
2137261900,0.06516484,-0.024811953,0.017805303,4998,0,-0.23434724,0.4412238,-9.255714,4998,0
2137281889,-0.17912906,0.12136669,0.015894476,4995,0,-0.7636102,-0.64955795,-10.551156,4995,0
2137301876,-0.0516427,0.03856735,-0.021767728,4997,0,0.076329894,0.5596915,-10.312958,4997,0
2137321867,0.093469426,-0.017224202,-0.015842473,5002,0,-0.04269643,1.0160623,-9.954517,5002,0
2137341851,0.023184137,0.028623387,0.016083311,4998,0,-0.5690047,0.5504735,-8.623351,4998,0
2137356842,0.009611775,0.07751923,0.010908819,4998,0,-0.9742468,0.4606743,-9.204524,4998,0
2137381827,-0.042505953,0.11623646,-0.0028691161,4998,0,-0.6104766,-0.40450412,-11.254866,4998,0
2137401815,-0.1413373,0.057798415,0.0052270405,5000,0,-0.2668858,0.061142527,-9.331974,5000,0
2137416808,-0.030526023,-0.021876344,-0.005498146,5000,0,-0.20246969,0.80917615,-9.163141,5000,0
2137441789,0.09943685,-0.03494244,0.031694934,4994,0,-0.62557966,0.9371145,-9.339668,4994,0
2137461775,-0.03968415,0.103684455,0.027410785,4997,0,-0.7178056,-0.39975846,-9.508411,4997,0
2137481771,-0.122303456,0.14551671,-0.0035445588,5004,0,-0.4884984,-0.4442152,-10.4966755,5004,0
2137496759,-0.1017315,0.05191997,0.0009200538,5002,0,0.034001082,0.31239256,-10.5289135,5002,0
2137521738,-0.003688912,-0.055118553,0.014227379,4995,0,0.13571548,0.5951379,-9.915942,4995,0
2137541725,-0.024363643,-0.05365306,0.024289723,4996,0,-0.2336025,0.40580502,-8.0361595,4996,0
2137556718,0.029139275,0.02646948,0.019944936,4999,0,-0.49140844,0.5441094,-8.335224,4999,0
2137581701,-0.078012854,0.11022064,-0.00983508,4998,0,-0.6356939,-0.07368257,-10.517215,4998,0
2137601690,-0.13221608,0.039094415,-0.0068101324,4999,0,-0.631469,-0.14160003,-9.9638195,4999,0
2137621680,-0.11664646,-0.0019344332,0.011169115,5000,0,0.042838916,0.3349924,-8.763832,5000,0
2137636668,0.005481956,-0.018493554,0.029183438,4996,0,-0.1222551,1.0162805,-8.893855,4996,0
2137661652,0.04621582,0.03653108,-0.014348904,4998,0,-0.5744487,0.5010734,-9.294356,4998,0
2137681640,-0.099540204,0.08807966,-0.025484879,4997,0,-0.6616977,-0.36537394,-10.192878,4997,0
2137701626,-0.17331474,0.054124992,0.02605189,4996,0,-0.26047912,0.04312226,-10.066476,4996,0
2137721616,-0.00028535302,0.024621084,0.010180947,4998,0,-0.013084463,1.1169838,-9.328804,4998,0
2137741606,0.020325711,0.0032549994,0.0060461485,5002,0,-0.23845223,0.3433595,-9.299886,5002,0
2137761591,-0.11692573,0.020271434,-0.008201772,4995,0,-0.6317232,-0.6528046,-9.487339,4995,0
2137781576,-0.16228318,0.045458864,-0.0050324327,4995,0,-0.67632324,-0.2550437,-10.62623,4995,0
2137801564,-0.06398058,0.036226496,0.017645324,4996,0,-0.13826433,0.844579,-9.921796,4996,0
2137821551,-0.030737976,0.024310233,0.01484173,4993,0,-0.19480087,0.59789735,-8.467892,4993,0
2137841539,-0.09948618,0.045079138,-0.009653055,4997,0,-0.72604537,0.062353045,-8.380834,4997,0
2137861526,-0.059034463,0.056455113,-0.021493796,4995,0,-0.5381488,-0.045536373,-10.764798,4995,0
2137881520,-0.05996566,0.0017916394,0.017064413,5003,0,0.14858024,0.0071764644,-10.754975,5003,0
2137901502,-0.09876814,0.017341295,0.009353865,4997,0,0.16414008,0.5432861,-8.047802,4997,0
2137916497,-0.0325232,0.008081293,-0.004713973,4998,0,-0.29121044,0.37156555,-9.157387,4998,0
2137941477,-0.05765396,0.0270648,-0.012414887,4996,0,-0.8879036,-0.65873295,-10.875304,4996,0
2137961464,-0.17353389,0.04680677,0.0075338953,4997,0,-0.28210387,-0.27750242,-9.586374,4997,0
2137981452,-0.046478417,-0.0047555026,0.002955711,4996,0,-0.051375303,0.86711454,-8.785936,4996,0
2138001439,0.035488505,0.037496552,-0.008516452,4995,0,-0.6078341,0.6346003,-9.518653,4995,0
2138021427,-0.13843183,0.121560425,-0.028265843,4995,0,-0.5810582,-0.711601,-10.404926,4995,0
2138041415,-0.118819445,0.055440083,0.016209893,4998,0,0.09588125,0.3961416,-10.153848,4998,0
2138061402,0.07088769,-0.033455413,0.011560698,4996,0,0.5093643,0.71739066,-9.626164,4996,0
2138081390,-0.05200384,-0.056009308,-0.018861948,4996,0,-0.44876042,-0.49763256,-8.539509,4996,0
2138101377,-0.0105511965,-0.02028227,-0.018331416,4995,0,-0.7610815,-0.10804398,-10.390717,4995,0
2138121365,-0.004096727,-0.0050214366,0.012716008,4996,0,-0.08156196,0.42037725,-10.505166,4996,0
2138141352,-0.10467513,0.08856964,0.004187961,4995,0,-0.28591508,0.5795542,-7.753995,4995,0
2138161340,-0.10024258,0.16282275,0.002534894,4995,0,-0.6101587,-0.044233862,-9.999655,4995,0
2138181329,0.06778155,-0.009165943,-0.023350121,4997,0,-0.06898475,-0.28628618,-11.775093,4997,0
2138201315,-0.023599692,-0.105651006,-0.021531442,4997,0,0.2657809,-0.25579047,-9.359264,4997,0
2138221302,0.04412891,-0.11069046,0.01053495,4994,0,-0.22025917,1.0763824,-8.174825,4994,0
2138241290,-0.06634382,0.108070396,0.005434797,4994,0,-1.0606605,-0.2992814,-11.174495,4994,0
2138261278,-0.1892938,0.098211005,-0.004400538,4995,0,0.33616677,0.258814,-9.230414,4995,0
2138281266,0.037849836,-0.015925739,-0.004850202,4995,0,0.29991892,0.74596673,-9.6104355,4995,0
2138301253,0.14886269,-0.03190912,-0.025746714,4997,0,-0.35768077,-0.58564675,-10.246772,4997,0
2138321244,-0.023650428,0.02428344,-0.0298387,4998,0,-0.62665224,-0.7619143,-9.990705,4998,0
2138341229,0.068996094,-0.08055102,-0.0024855337,4997,0,0.36943164,1.061853,-9.713059,4997,0
2138361216,0.008368798,-0.026497541,0.00516773,4997,0,-0.38414568,0.35844198,-8.940441,4997,0
2138381203,-0.15847354,0.12042448,0.005163083,4991,0,-0.7306899,-1.0597644,-10.710781,4991,0
2138401194,-0.008578394,-0.009311065,-0.0033372983,4998,0,0.54216075,0.5478473,-10.643246,4998,0
2138421178,0.032480437,-0.069528684,-0.0114303045,4995,0,-0.18145499,0.2135551,-9.062186,4995,0
2138441166,0.012783218,-0.013952539,-0.019824898,4995,0,-0.7377458,0.25532225,-8.47713,4995,0
2138461154,0.11334971,-9.6921816e-05,-0.0073077395,4996,0,-0.35961425,0.13447855,-11.927541,4996,0
2138481141,-0.036579214,-0.060177177,0.013894742,4994,0,0.2750055,0.5803002,-9.008449,4994,0
2138501129,-0.006886653,0.005519384,-0.003910151,4995,0,-0.31073642,0.05917488,-9.340982,4995,0
2138521117,0.021383734,0.06273424,-0.019407792,4997,0,-0.50172,-0.8539217,-11.409929,4997,0
2138541104,-0.03650181,0.020516185,-0.018779168,4997,0,0.19942667,-0.107422814,-9.24504,4997,0
2138561092,0.08891121,-0.07085743,-0.020566488,4992,0,0.21789737,1.5198766,-8.695691,4992,0
2138581079,0.13600014,-0.019865826,-0.010880452,4997,0,-1.1687568,0.007635351,-10.179768,4997,0
2138601067,-0.08779707,0.03265536,-0.010124846,4997,0,-0.19732103,-0.67005557,-11.070427,4997,0
2138621054,0.0838783,-0.08014562,0.008601832,4996,0,0.2858745,1.1704857,-9.284114,4996,0
2138641042,0.088118315,0.045236744,0.00834377,4996,0,-0.7490658,-0.3951575,-9.300825,4996,0
2138661030,-0.040877275,0.041946355,-0.025179217,4997,0,-0.42036414,-0.30783334,-10.298064,4997,0
2138681017,0.048358846,-0.10477836,-0.016155045,4997,0,0.35597977,1.0933349,-10.008184,4997,0
2138701005,0.003229479,-0.08485256,-0.022561891,4997,0,-0.15920277,0.26893926,-8.646109,4997,0
2138720992,0.025315246,0.035724476,-0.0017627125,4997,0,-0.7822716,-0.37547654,-10.825657,4997,0
2138740980,0.14931814,0.00012841415,0.011111923,4997,0,0.2397976,0.2981286,-11.309645,4997,0
2138760967,0.047614038,-0.035844013,-0.008559607,4997,0,0.1466622,0.39183623,-7.974601,4997,0
2138780956,0.08466678,0.0075779147,-0.02922628,4998,0,-0.84770757,-0.0072114496,-10.223395,4998,0
2138800943,0.019775586,-0.044656534,-0.001377907,4997,0,0.1803173,0.2276935,-10.830442,4997,0
2138820930,-0.026030086,-0.031888105,0.019414706,4997,0,-0.3355237,0.69467825,-7.825393,4997,0
2138840918,0.10109167,0.014017678,-0.0072068456,4997,0,-0.390483,-0.105888925,-11.2087755,4997,0
2138860905,-0.010517605,-0.0043089907,-0.02163004,4997,0,-0.40468138,-0.58108443,-10.812651,4997,0
2138880895,0.00028226728,-0.086052924,0.015700035,4999,0,0.46629983,0.93161607,-8.222763,4999,0
2138900881,0.12737225,0.015077123,0.0065879123,4998,0,-1.1185337,0.33079815,-10.144375,4998,0
2138920868,-0.058186747,0.022666184,-0.0052795396,4997,0,0.18217649,-0.37847435,-10.536859,4997,0
2138940856,0.06939242,-0.10984672,0.004433968,4998,0,0.19127437,1.1107076,-9.327139,4998,0
2138960843,0.17535533,-0.07360001,-0.0016202983,4997,0,-0.29202536,0.3335394,-10.194706,4997,0
2138980831,-0.029608296,0.04670463,0.013736639,4997,0,-0.9873485,-0.8269825,-10.346114,4997,0
2139000818,-0.07340907,-0.029793179,0.00033682512,4997,0,0.24089757,0.9224339,-8.762852,4997,0
2139020806,0.06870811,-0.0095999995,-0.014802621,4997,0,-0.6361453,0.620908,-9.744224,4997,0
2139040794,-0.010594776,0.08351911,0.012701845,4998,0,-0.5450001,-0.7834877,-10.512677,4998,0
2139060782,0.06717864,-0.044863064,0.019666139,4998,0,0.099407,0.4974826,-10.716025,4998,0
2139080769,0.13033284,-0.1292434,0.0061664106,4996,0,0.20556255,1.0384235,-9.102214,4996,0
2139100756,-0.065947756,-0.005290374,-0.0224062,4997,0,-1.2960712,-0.5543313,-8.755388,4997,0
2139120744,-0.052331146,-0.013179937,0.0035362556,4997,0,-0.15406528,0.00049625174,-10.882409,4997,0
2139140733,0.11140756,-0.10508354,0.00042609926,4998,0,0.3588978,1.223699,-9.427354,4998,0
2139160720,0.046470273,0.017600672,-0.0022722136,4998,0,-0.62873733,-0.08780136,-8.938394,4998,0
2139180707,0.0023084371,0.059831813,0.0022013907,4997,0,-0.5351556,-0.73426515,-11.276142,4997,0
2139200694,0.06319426,-0.06267575,-0.022996139,4997,0,0.066565014,0.8303195,-9.955982,4997,0
2139220682,0.01586639,-0.034677025,-0.0011305184,4997,0,-0.60740775,0.35898128,-8.02665,4997,0
2139240669,-0.038408432,0.030976372,0.016025208,4997,0,-0.8570369,-0.313612,-10.962521,4997,0
2139260657,0.071627975,-0.08508846,0.011154964,4997,0,0.6504978,0.68197274,-10.351412,4997,0
2139280645,-0.03272492,-0.026446376,0.014167741,4998,0,-0.521116,-0.17137037,-8.925242,4998,0
2139300632,-0.10568789,0.03987866,-0.030683454,4997,0,-0.44275498,-0.37346485,-10.382157,4997,0
2139320620,0.01929833,-0.046400398,0.0006712532,4997,0,-0.19833827,0.8535658,-10.341761,4997,0
2139340607,0.054234695,-0.030409342,0.019810019,4997,0,-0.09871537,0.70126706,-8.332033,4997,0
2139360595,0.040231332,0.06657405,-0.01320748,4997,0,-1.0062,-0.29125986,-9.394432,4997,0
2139380586,0.013664049,0.04398059,-0.014024293,4999,0,-0.19413632,-0.014153148,-11.7852745,4999,0
2139400570,-0.00033401046,-0.09973117,-0.002472181,4997,0,0.2904846,0.60637206,-9.936977,4997,0
2139420557,-0.048288647,-0.008635015,0.007766012,4996,0,-0.6915757,0.17536065,-7.8106923,4996,0
2139440545,0.015539461,0.061672777,-0.0002913772,4997,0,-0.5403256,-0.11228424,-11.465311,4997,0
2139460532,0.0001532364,-0.0071841367,-0.003170718,4996,0,0.090818696,0.8659151,-9.5687275,4996,0
2139480520,-0.018594177,-0.01965737,-0.010112232,4995,0,0.122251175,0.8184499,-8.625274,4995,0
2139500508,0.05913277,-0.008696635,0.0034738143,4997,0,-0.79683304,-0.32520506,-11.206317,4997,0
2139520495,-0.004179294,-0.00690751,0.015001144,4996,0,0.031788193,-0.16136505,-10.4074135,4996,0
2139540483,-0.04240615,-0.041701347,0.00086626015,4997,0,-0.29314634,0.6676799,-7.8791323,4997,0
2139560470,-0.034742713,0.07535389,-0.0068727355,4996,0,-0.8867808,0.25218186,-9.346908,4996,0
2139580459,-0.002358226,0.03823693,-0.02149259,4998,0,-0.10256759,0.0021640076,-11.894333,4998,0
2139600445,-0.03782265,-0.09222588,0.014948442,4996,0,0.34661096,0.39185187,-9.273107,4996,0
2139620433,-0.010333216,-0.0475199,0.019592421,4996,0,-0.3345959,0.15008524,-8.769059,4996,0
2139640421,-0.030389035,0.041152317,-0.028422792,4997,0,-0.89906067,-0.09101042,-11.035114,4997,0
2139660408,-0.08436362,0.009190998,-0.019196765,4996,0,0.180877,0.67255706,-9.512179,4996,0
2139680396,-0.043501068,-0.012197297,-0.001741073,4997,0,-0.17489317,0.67635894,-8.443662,4997,0
2139700384,0.06925137,0.058580115,-0.0031223355,4997,0,-0.3585825,-0.019476462,-10.754504,4997,0
2139720371,0.014454665,0.07107949,0.01251046,4997,0,-0.50484216,-0.10408385,-11.248716,4997,0
2139740358,-0.11144797,-0.020966604,-0.0010992644,4996,0,0.2507681,0.66418797,-8.408621,4996,0
2139760346,-0.07336527,-0.028198907,-0.014721499,4997,0,-0.7984695,0.5625904,-8.701947,4997,0
2139780336,-0.015017437,-0.019144027,0.013597967,4999,0,-0.39599985,-0.085334204,-11.657667,4999,0
2139800321,-0.058658775,-0.032507163,0.006493024,4996,0,0.11086393,0.14266159,-9.684812,4996,0
2139820309,0.015951741,0.0016151456,0.014690322,4997,0,0.12405724,0.43297446,-8.657834,4997,0
2139840297,-0.019118099,0.08780508,-0.017050264,4997,0,-0.999392,-0.47403792,-10.471739,4997,0
2139860284,-0.07718256,0.06923556,-0.046738595,4996,0,0.0629787,0.09940256,-10.282885,4996,0
2139880271,-0.06566013,-0.029672425,0.0018752381,4994,0,0.14763676,0.7430717,-8.835865,4994,0
2139900259,0.044880155,-0.026697667,-0.015288344,4996,0,-0.30303946,0.25773335,-10.04193,4996,0
2139920247,0.009870007,0.03219883,-0.015471259,4997,0,-0.93193865,-0.75818336,-11.001579,4997,0
2139940234,-0.091916144,-0.0043718982,0.009289438,4996,0,0.13457645,0.5967618,-8.818839,4996,0
2139960222,-0.08689231,-0.011116592,-0.021752005,4996,0,-0.6679709,0.56928515,-8.048165,4996,0
2139980210,-0.060547933,0.05848791,-0.02904726,4996,0,-0.608847,-0.15227398,-11.317567,4996,0
2140000197,-0.04504582,-0.017410357,-0.02404286,4996,0,0.34383217,0.3823849,-10.982789,4996,0
2140020184,-0.030399647,0.01027388,0.0021732692,4996,0,-0.26537174,0.5057618,-7.956043,4996,0
2140040173,0.03909594,0.12248273,-0.0069715036,4997,0,-0.5456272,-0.14564763,-10.6689205,4997,0
2140060160,-0.042249475,0.06504202,-0.022258516,4997,0,-0.2298654,0.25131196,-10.030729,4997,0
2140080148,-0.09785521,-0.03908446,0.010467522,4996,0,0.4641498,0.59874254,-8.230391,4996,0
2140100135,-0.070815526,-0.023850212,-0.017368674,4996,0,-0.72498393,-0.30356863,-10.543607,4996,0
2140120123,-0.08164283,0.032096747,-0.0297612,4997,0,-0.4261352,-0.37928745,-11.24335,4997,0
2140140111,-0.06285382,-0.0064132223,-0.0030928913,4997,0,0.1893803,0.46630076,-8.80112,4997,0
2140160099,0.061432432,0.033865217,-0.007806371,4998,0,-0.44632408,0.70313233,-8.409839,4998,0
2140180086,0.030095268,0.093253195,-0.012530728,4997,0,-0.59055763,-0.43396184,-11.506133,4997,0
2140200074,-0.13748878,-0.034454104,-0.025123704,4998,0,0.36505985,0.032621693,-10.64595,4998,0
2140220061,-0.13068151,-0.07736057,-0.019028455,4997,0,-0.20749527,0.5020874,-8.083656,4997,0
2140240048,0.038916133,0.019840175,-0.0054413686,4996,0,-0.69507056,-0.07784198,-10.682595,4996,0
2140260036,-0.07355457,0.05952843,-0.020862741,4997,0,-0.44086108,-0.3404113,-10.189735,4997,0
2140280024,-0.062390003,0.02647104,-0.029842058,4995,0,0.29649416,1.0015196,-8.411601,4995,0
2140300011,0.058377713,0.04237925,-0.020116862,4997,0,-0.72269,0.090249486,-10.748039,4997,0
2140319998,-0.019253679,0.071238056,-0.013828703,4995,0,-0.35625517,-0.9247009,-10.904247,4995,0
2140339988,-0.023660155,-0.034842964,0.017711574,4998,0,0.25556403,0.6026193,-8.7330065,4998,0
2140359973,0.09198566,-0.047374003,-0.0033664035,4996,0,-0.15273105,0.84788364,-8.8614235,4996,0
2140379961,-0.04055109,0.035408765,-0.039369892,4997,0,-0.5590511,-0.8257758,-11.404659,4997,0
2140399949,-0.17701185,-0.049104553,0.0052461163,4997,0,0.47311223,0.2033651,-9.802392,4997,0
2140419938,-0.05090242,-0.016643453,0.013550458,4999,0,-0.06630536,0.52613497,-8.621747,4999,0
2140439926,0.06648029,0.06423624,-0.03329682,4999,0,-0.7372896,-0.18856989,-10.880253,4999,0
2140459912,-0.03123426,0.060585376,-0.021293191,4997,0,-0.31969514,-0.21480879,-9.586278,4997,0
2140479901,0.008432816,-0.017082714,-0.009213623,4999,0,0.30411375,1.1260614,-8.785437,4999,0
2140499887,0.07344733,-0.006415206,0.0019242588,4997,0,-0.6141473,0.12164554,-10.946171,4997,0
2140519875,-0.08923703,0.023132049,0.002079026,4998,0,-0.5126283,-0.47153175,-10.652894,4998,0
2140539862,-0.10795955,-0.07365194,-0.029969737,4997,0,0.3416037,0.5252442,-8.836578,4997,0
2140559849,0.08759659,-0.03996306,0.00017330829,4997,0,-0.4078006,0.6134744,-9.004034,4997,0
2140579837,0.028170846,0.098099016,-0.0049824705,4995,0,-0.6511075,-0.60566705,-11.026821,4995,0
2140599825,-0.081383064,0.029510308,-0.02135708,4997,0,0.50520486,0.55565894,-9.366809,4997,0
2140619812,0.0004629369,-0.027294453,-0.0051346645,4996,0,-0.03154424,0.2785515,-9.540939,4996,0
2140644797,-0.011923047,0.056100164,0.0045479448,4997,0,-1.1139957,-0.53608257,-10.660247,4997,0
2140659787,-0.054592274,0.06886085,-0.009573905,4997,0,-0.41925707,-0.15579702,-9.382464,4997,0
2140679775,0.0075748847,-0.06550818,0.0030350487,4994,0,0.25404313,1.2419219,-8.818272,4994,0
2140699763,0.03489697,-0.07444959,-0.031142872,4998,0,-0.5611418,-0.1529539,-10.508595,4998,0
2140719753,-0.078631155,0.04390103,-0.035969067,5000,0,-0.6193826,-0.70563376,-10.947249,5000,0
2140739738,0.0047838897,-0.035565306,0.010272527,4997,0,0.39579043,0.77050686,-9.364622,4997,0
2140759725,0.19144003,-0.030983718,0.009966943,4992,0,-0.78313845,0.92504567,-9.215524,4992,0
2140784710,-0.11755241,0.079272546,-0.023483086,4997,0,-0.22719052,-0.6116255,-10.673551,4997,0
2140799705,-0.20514803,-0.03704721,0.00868988,5001,0,0.42371848,0.53765875,-9.346262,5001,0
2140819688,-0.05822956,-0.07424289,-0.006875678,4996,0,0.11833005,0.8929573,-9.659324,4996,0
2140839676,0.06600602,0.028049529,-0.009282547,4995,0,-0.9299616,-0.54762876,-10.363348,4995,0
2140859663,0.011613707,0.031760164,-0.022603614,4996,0,-0.2923312,-0.34484407,-9.956089,4996,0
2140879652,0.14611107,-0.06919806,-0.033533826,4997,0,-0.020691032,1.3091044,-9.200948,4997,0
2140899638,0.16108747,-0.042632982,-0.00854934,4997,0,-0.7950144,0.73892313,-9.089479,4997,0
2140919626,-0.054375377,0.074780785,0.019226061,4995,0,-0.51067394,-0.762645,-11.263484,4995,0
2140939613,-0.09308034,-0.04534121,0.009730125,4996,0,0.3718113,0.6654483,-8.776053,4996,0
2140959601,0.09660907,-0.017217364,-0.024246672,4997,0,-0.58871335,0.5599231,-9.828832,4997,0
2140984587,-0.014067998,0.07889039,0.009349999,4996,0,-0.5859878,-0.573568,-10.468568,4996,0
2140999576,-0.046456918,0.04070606,-0.011059731,4997,0,0.02506786,0.52494913,-9.037135,4997,0
2141019564,0.05872055,-0.037945427,-0.021697486,4997,0,0.040173646,0.7497876,-9.741919,4997,0
2141039551,0.024942609,0.023043249,-0.021880716,4997,0,-0.59350693,-0.46879447,-10.741466,4997,0
2141059544,-0.0877639,0.015255363,0.007659313,5002,0,-0.4481887,-0.6341508,-9.809499,5002,0
2141079529,0.14792657,-0.10146854,0.011610084,5000,0,0.044427466,1.4563282,-9.285821,5000,0
2141099514,0.23296274,-0.06926731,-0.040014744,4997,0,-0.86018765,0.6653538,-8.972816,4997,0
2141119503,0.0065009617,0.03723876,-0.013539033,4998,0,-0.44752765,-0.9860839,-11.32763,4998,0
2141139490,-0.08106016,-0.030179247,0.03179631,4997,0,0.5577281,0.67462546,-8.731874,4997,0
2141159477,-0.006145658,0.076864496,-0.04824393,4997,0,-0.8066957,0.40322405,-10.105128,4997,0
2141179465,-0.027755491,0.0867487,-0.00028304485,4997,0,-0.55703753,-0.36746386,-10.586526,4997,0
2141199452,-0.007103173,-0.0005500945,0.0028586565,4997,0,0.26554558,0.6760165,-8.749981,4997,0
2141219439,0.17693385,-0.1126789,-0.03637663,4996,0,-0.035841856,0.6492654,-9.961548,4996,0
2141239429,0.08073685,0.004167168,-0.014207841,4999,0,-0.53773475,-0.9704073,-10.835551,4999,0
2141259415,-0.06399243,-0.044744283,0.019132148,4996,0,0.27616656,0.42300496,-9.606007,4996,0
2141279404,-0.06213474,-0.088448085,-0.027615843,4998,0,-0.35030717,0.76988435,-8.139485,4998,0
2141299390,-0.065587796,0.020965531,-0.014562019,4997,0,-0.51255935,-0.2967705,-11.503083,4997,0
2141319378,-0.057432115,-0.017693356,-0.0008452763,4996,0,-0.18038638,0.4277913,-10.36639,4996,0
2141344364,0.08957172,-0.045686588,-0.01325855,4999,0,-0.08055311,0.8673036,-9.211448,4999,0
2141359353,0.12001871,0.02651089,-0.03806545,4997,0,-0.9550029,-0.16533849,-10.84856,4997,0
2141379340,-0.062986284,0.088891186,-0.0033240092,4997,0,-0.3618377,-0.22127339,-10.274315,4997,0
2141399328,-0.06627058,0.0048925946,0.010761445,4997,0,0.06508988,1.2870249,-8.17209,4997,0
2141419316,0.06606995,-0.036365908,-0.028970286,4998,0,-0.18435594,0.4887146,-10.327986,4998,0
2141439304,-0.009114518,-0.029611543,-0.02241769,4998,0,-0.5413377,-0.86712533,-11.408912,4998,0
2141459293,-0.052757002,-0.07078235,0.023936616,5000,0,0.38631776,0.43575168,-8.762541,5000,0
2141484275,0.14714514,0.0013390033,-0.020572053,4997,0,-0.5522523,0.5019855,-9.291057,4997,0
2141499266,0.019567225,0.093906015,-0.057919804,4997,0,-0.74426794,-0.4691838,-10.829082,4997,0
2141519255,-0.06682761,-0.022802198,0.020865396,4998,0,0.4991881,0.5526647,-9.387265,4998,0
2141544239,-0.017076034,-0.057227746,-0.012698171,4998,0,-0.4202121,0.038095996,-10.009282,4998,0
2141559229,0.0115303155,-0.014949448,-0.02691639,4997,0,-0.48511258,-0.44241163,-11.455539,4997,0
2141579218,-0.03151813,-0.008316521,0.002820476,4999,0,0.037623625,0.114046425,-9.890235,4999,0
2141599204,-0.008885787,-0.015886033,0.013804959,4997,0,0.027654918,0.7899681,-7.8884068,4997,0
2141624189,-0.0067646443,0.068062015,-0.03247126,4997,0,-0.7616054,-0.13588007,-10.943416,4997,0
2141639179,-0.044073988,-0.0040677316,-0.0176662,4997,0,0.33726877,0.006096426,-11.743227,4997,0
2141659167,-0.070966214,-0.054715265,0.015435204,4997,0,-0.007989286,0.5606785,-8.448271,4997,0
2141684151,0.15748428,0.039206933,-0.018279297,4997,0,-0.69130254,0.34388474,-9.97821,4997,0
2141699142,0.08116838,0.048255954,-0.029726105,4998,0,-0.9367955,-0.36591193,-10.562475,4998,0
2141719129,-0.08094097,-0.030881252,-0.014747567,4996,0,0.45904067,0.5371134,-9.598653,4996,0
2141739117,-0.11017502,-0.071635865,0.009993846,4997,0,-0.32103518,0.48390487,-8.913489,4997,0
2141764104,-0.054683316,0.0037000722,0.0007359166,4999,0,-0.7834175,-0.48447275,-11.170026,4999,0
2141779094,-0.08579068,-0.01004428,-0.02548132,4999,0,-0.2756185,-0.48612702,-10.02834,4999,0
2141799080,-0.057388544,-0.043423314,-0.018418366,4997,0,0.055933572,0.93627363,-8.487691,4997,0
2141824064,0.096290246,0.025444908,-0.0017228032,4996,0,-0.37385875,0.42313045,-9.734963,4996,0
2141839055,0.01813742,0.11159761,-0.027389543,4997,0,-0.7217712,-0.6697837,-11.061548,4997,0
2141859043,-0.07373042,-0.00890371,-0.010854497,4998,0,0.31552598,0.03627661,-9.948475,4998,0
2141879031,0.05080525,-0.11413457,-0.01641334,4996,0,0.3051448,0.95248556,-9.218147,4996,0
2141904016,-0.031369098,-0.009634377,-0.017497664,4998,0,-0.7731048,-0.54779494,-10.211517,4998,0
2141919005,-0.15903793,0.024849217,0.0073468243,4997,0,-0.3075741,-0.3042611,-9.854265,4997,0
2141938993,-0.040832397,-0.03627153,-0.010966088,4997,0,0.29577246,1.0943834,-8.69159,4997,0
2141963977,0.10328758,0.0659731,-0.026107093,4997,0,-0.796042,0.0569604,-10.571339,4997,0
2141978968,0.012175589,0.07084721,0.013003546,4997,0,-0.32892278,-0.8583141,-10.976543,4997,0
2141998955,-0.032493886,-0.04985375,0.016306445,4996,0,0.29616532,0.15604323,-9.652641,4996,0
2142018943,0.04540687,-0.08963111,0.008439177,4997,0,0.12893148,1.0164951,-8.486588,4997,0
2142043928,-0.048018623,0.04408516,-0.02247935,4998,0,-1.0448886,-0.3906875,-10.523228,4998,0
2142058918,-0.107610494,0.030404188,-0.019638825,4996,0,0.033943452,-0.52747625,-10.69027,4996,0
2142078907,0.00019250944,-0.019089924,0.02291604,4998,0,0.13539127,1.1160014,-9.080865,4998,0
2142103891,0.08992319,0.014431227,-0.019666256,4998,0,-0.59680146,0.09220735,-9.884143,4998,0
2142118881,-0.059299536,0.05726861,-0.047763083,4996,0,-0.9722596,-0.5997525,-10.128949,4996,0
2142138869,-0.117573686,-0.012531572,-0.017648648,4997,0,0.07765823,0.6246262,-9.686314,4997,0
2142158856,0.049569555,-0.08293175,0.0062224916,4997,0,0.022031477,1.2908641,-9.312582,4997,0
2142178844,0.036302503,0.049302265,-0.021043546,4994,0,-0.45780492,-0.45897612,-10.491494,4994,0
2142198831,-0.124096975,0.04710422,-0.010263555,4997,0,-0.12521625,-0.7557844,-10.4133215,4997,0
2142218820,-0.04264165,-0.04385059,-0.0103775095,4997,0,0.5116241,1.0902115,-8.751555,4997,0
2142243805,-0.014691165,0.06643917,-0.018215396,4998,0,-0.7777287,-0.14917772,-10.1381445,4998,0
2142258794,-0.1390167,0.08855862,-0.0040001823,4997,0,-0.23497446,-0.5948489,-10.425159,4997,0
2142278783,-0.028359743,-0.03648868,-0.02113143,4998,0,0.21943918,0.7155855,-10.1978035,4998,0
2142298769,0.0902132,-0.025488425,-0.0040517906,4996,0,0.04954792,0.37575677,-9.256674,4996,0
2142323754,-0.07056918,0.08473105,-0.009391087,4997,0,-0.7184546,-0.56866014,-9.842791,4997,0
2142338747,-0.05383247,0.037903305,-0.040497012,5000,0,-0.16284469,0.43176568,-10.014711,5000,0
2142358732,0.04423531,-0.04798203,-0.005307635,4997,0,0.43321195,1.0117382,-9.58034,4997,0
2142383717,-0.0623863,0.036731943,0.013740238,4997,0,-0.8706652,-0.70525837,-9.779891,4997,0
2142398708,-0.08741968,0.07290733,-0.0008529894,4998,0,-0.91310775,-0.59321654,-10.807401,4998,0
2142418696,-0.008878158,0.003984195,-0.010052779,4998,0,0.29725382,0.46611992,-9.994811,4998,0
2142438682,0.057150923,-0.0012037479,-0.017751383,4996,0,-0.23481092,1.0720234,-8.534793,4996,0
2142463669,0.01947102,0.09852657,0.008873449,4999,0,-0.8934144,-0.43993503,-10.588242,4999,0
2142478658,0.010657912,0.053207718,-0.02695317,4997,0,-0.052997667,-0.28904513,-11.962319,4997,0
2142498647,-0.053791676,-0.004348014,-0.0037403652,4999,0,0.21324944,0.78159195,-9.334775,4999,0
2142523630,0.033295278,0.08708516,0.024222175,4997,0,-0.8043848,0.07269815,-8.9495325,4997,0
2142538622,0.181525,0.06910045,-0.00509826,4999,0,-0.35973832,0.0720141,-11.452454,4999,0
2142558608,0.10327433,-0.05424824,-0.0069185714,4997,0,0.13775751,0.30126733,-10.888073,4997,0
2142578599,-0.056757957,-0.00213286,0.004845822,4997,0,-0.17594832,0.40960404,-8.111423,4997,0
2142603581,0.031688288,0.14904256,0.0014013508,4997,0,-0.30872077,0.57833457,-11.740471,4997,0
2142618571,0.119512305,0.07169523,0.0010569469,4997,0,0.50185305,1.038792,-9.918817,4997,0
2142638558,0.0645858,0.089465745,-8.687635e-05,4997,0,-0.46471897,0.09897422,-9.303533,4997,0
2142663543,0.108964615,0.1406346,-0.02556951,4997,0,-0.70567673,-0.08500292,-11.719938,4997,0
2142678534,0.11344027,0.08707461,0.021988176,4998,0,-0.3053749,0.913963,-9.500834,4998,0
2142698523,0.09944612,0.0993282,-0.0030178665,4999,0,-0.35834086,0.35572085,-8.977215,4999,0
2142718509,0.08429936,0.13868216,-0.029932516,4997,0,-0.59299546,-0.34864083,-12.81661,4997,0
2142743493,0.000590368,0.093570024,0.020075165,4997,0,-0.04899093,0.6134152,-7.8934016,4997,0
2142758485,0.08555242,0.17827864,0.004407063,4998,0,-0.8274107,0.38034162,-9.15592,4998,0
2142778476,0.17545798,0.14374107,-0.029191857,5001,0,-0.045820177,-0.47401032,-13.388652,5001,0
2142803456,0.059154317,0.048199862,0.022359017,4992,0,0.07401204,1.0129536,-7.713609,4992,0
2142818446,0.1503758,0.14155088,0.0014594306,4996,0,-0.8686051,0.2821949,-10.484279,4996,0
2142838434,0.06750406,0.12533753,-0.0059527047,4997,0,0.35163853,-0.12047319,-12.100855,4997,0
2142858422,0.010358739,0.10648626,-0.021852283,4997,0,0.143372,0.7715754,-7.858968,4997,0
2142878409,0.21377239,0.21936479,-0.011959376,4997,0,-0.9252484,-0.17012662,-11.689455,4997,0
2142898398,0.11819953,0.14554621,0.004996756,4998,0,0.7798261,0.011381408,-10.150013,4998,0
2142918385,0.22537753,0.11745835,-0.039938543,4997,0,-0.54012495,0.5072166,-9.4369,4997,0
2142943370,0.0032742405,0.19023935,-0.025347933,4998,0,-0.28057113,-0.6667115,-11.355161,4998,0
2142958360,0.09855027,0.011883051,0.03729895,4997,0,0.8103836,0.9447061,-9.786982,4997,0
2142978349,0.17838939,0.12184628,-0.028532643,4997,0,-0.8295355,-0.41010064,-10.274857,4997,0
2143003332,0.15911992,0.1355624,-0.042700056,4996,0,0.90796334,0.85746586,-10.614954,4996,0
2143018324,0.33040982,0.08267617,0.010131156,4999,0,0.43333998,0.8594942,-10.328018,4999,0
2143038310,0.07026426,0.28713638,-0.0045515466,4996,0,-0.96329427,-1.2231601,-10.627254,4996,0
2143058297,0.14978264,0.14257292,-0.03400965,4995,0,0.6417054,1.5086029,-9.821009,4995,0
2143083283,0.08319388,0.12356012,-0.03282337,4996,0,-0.7117443,-1.0167543,-10.318059,4996,0
2143098272,0.012251403,0.18338622,0.015214368,4996,0,-0.46205026,-0.28657016,-10.302009,4996,0
2143118261,0.36316115,0.06820225,-0.002565181,4998,0,0.12880893,1.6048987,-9.842927,4998,0
2143143245,0.11073755,0.238152,-0.02850779,4995,0,-0.66396385,-1.4155762,-11.218465,4995,0
2143158237,0.11556127,0.16143234,-0.0143233435,4999,0,0.3588549,0.7880321,-9.861552,4999,0
2143178223,0.18984163,0.1176582,-0.011656934,4997,0,-0.20782684,-0.06205869,-9.853668,4997,0
2143198213,0.09748868,0.20572183,-0.0070869843,4999,0,-0.20984235,-0.63338715,-11.290517,4999,0
2143223195,0.22002368,0.09208848,-0.016773352,4997,0,0.46943495,0.67353594,-8.749058,4997,0
2143238186,0.12121206,0.14516468,-0.047710534,4997,0,-0.040697042,-0.51535904,-9.693624,4997,0
2143258173,0.15137435,0.17745622,-0.02400553,4993,0,-0.20577608,-0.016451579,-11.967901,4993,0
2143283158,0.107255496,0.15729426,-0.011907304,4997,0,-0.13980143,0.378536,-7.5693707,4997,0
2143298148,0.17032549,0.18870997,-0.05667647,4996,0,-0.631659,-0.15850197,-11.498583,4996,0
2143318138,0.16776617,0.1026501,-0.031047706,4999,0,0.25751054,-0.55572164,-10.995059,4999,0
2143338125,0.16127187,0.06703724,-0.00049010344,4998,0,-0.07214901,0.9695179,-7.620062,4998,0
2143363108,0.15149213,0.14362042,-0.017884377,4995,0,-0.114139035,-0.9373009,-12.2171955,4995,0
2143378102,-0.032531686,0.058111385,-0.016837304,4999,0,0.31516644,0.11101346,-8.86223,4999,0
2143398088,0.18602057,0.06424625,-0.038854565,4998,0,-0.12989524,0.85163844,-9.482737,4998,0
2143423072,0.016254194,0.13718762,-0.024219679,4999,0,0.30192897,-0.67194945,-10.768928,4999,0
2143438064,0.21842346,0.023552194,-0.014829336,4999,0,1.1816363,1.0012809,-9.657649,4999,0
2143458050,0.16337836,0.1392205,-0.044306852,4998,0,-0.8426899,-0.9947099,-9.782694,4998,0
2143478038,0.028950008,0.15402506,-0.06423293,4998,0,0.13822564,0.111892,-10.106681,4998,0
2143503024,0.19287556,0.036786262,-0.04459614,4998,0,0.2613309,0.40586075,-9.0482,4998,0
2143518012,0.02479192,0.16280834,-0.026101261,4997,0,-0.6265744,-1.5445343,-10.260354,4997,0
2143538001,0.14035085,-0.019989036,-0.047431037,4997,0,0.5985368,0.2923245,-11.093213,4997,0
2143562984,0.014463836,-0.034203224,-0.07043709,4997,0,-0.6030491,-0.5726754,-7.451531,4997,0
2143577975,0.04711196,0.069182426,-0.021222932,4996,0,-0.8379443,-0.5002048,-10.8521385,4996,0
2143597962,0.11961173,0.011507034,-0.052667815,4995,0,0.6733907,0.31339043,-9.198862,4995,0
2143622947,0.03486309,0.14843719,-0.054956548,4997,0,-0.3067841,-0.40036276,-9.631128,4997,0
2143642934,0.15497427,0.060251586,-0.046827115,4997,0,0.1855278,-0.55670476,-11.789782,4997,0
2143657927,0.045044415,-0.020374482,-0.02303521,4999,0,0.499879,0.11488388,-8.013919,4999,0
2143677914,0.20693533,-0.0066269124,-0.05190785,4997,0,-0.004470756,0.12152219,-10.324904,4997,0
2143702897,-0.09055245,0.042015914,-0.047729816,4992,0,0.27549267,-0.6848063,-9.388878,4992,0
2143717888,-0.028342515,-0.025286855,-0.031427473,4995,0,0.9371368,0.71113753,-8.102675,4995,0
2143737875,0.109863035,0.058687814,-0.049099367,4996,0,-1.0025325,-0.6074001,-10.447683,4996,0
2143762860,-0.0925943,-0.04685624,-0.046765007,4997,0,0.47904086,0.19108702,-8.951628,4997,0
2143782848,0.13168672,-0.19275008,-0.052443594,4997,0,0.48738378,0.7904972,-8.846702,4997,0
2143797839,-0.024254784,-0.07760832,-0.04288763,4996,0,-0.34231076,-1.1176755,-8.894017,4996,0
2143817826,-0.055862006,-0.054434154,-0.050867144,4995,0,0.12233061,-0.36624205,-10.503045,4995,0
2143842814,0.047549292,-0.07699513,-0.06969667,5000,0,0.06590706,0.46468848,-8.336648,5000,0
2143857801,-0.08700953,0.026861874,-0.033351436,4997,0,-0.91153145,-1.2644458,-9.394758,4997,0
2143877788,-0.024360942,-0.05442373,-0.03268368,4992,0,0.794433,-0.002251963,-10.098022,4992,0
2143902774,0.03137364,-0.15437217,-0.04914377,4998,0,0.3094066,0.0300476,-7.662282,4998,0
2143922761,-0.13999987,-0.052377935,-0.06418833,4996,0,-0.62871206,-1.2792792,-9.738893,4996,0
2143937752,-0.11776897,-0.15910614,-0.011266714,4997,0,0.54621965,0.073628254,-10.457809,4997,0
2143962736,-0.17202173,-0.20474519,-0.045352705,4996,0,-0.086275615,-0.13710319,-6.9545145,4996,0
2143982724,-0.22091916,-0.09706946,-0.04001656,4996,0,-0.45167276,-0.9101235,-9.6986475,4996,0
2143997714,-0.11038567,-0.16970403,-0.002339842,4997,0,0.77794224,-0.08898983,-10.587044,4997,0
2144017703,-0.08699031,-0.21561606,-0.028692419,4999,0,0.3233869,0.027047647,-8.054852,4999,0
2144042686,-0.12115457,-0.10323252,-0.039289538,4997,0,-0.54496557,-0.5867776,-9.44098,4997,0
2144062677,-0.07007867,-0.15391119,-0.010247484,5000,0,0.54223675,0.32714802,-9.754022,5000,0
2144077664,-0.0644514,-0.23080114,0.0059247394,4996,0,0.6629729,0.7069135,-7.1846533,4996,0
2144097653,-0.20128326,-0.11162395,-0.01928956,4997,0,-0.70267844,-0.71971893,-8.386438,4997,0
2144122636,-0.18398856,-0.21069673,-0.0085197305,4996,0,0.6866129,-0.52209514,-10.310053,4996,0
2144137627,-0.18381323,-0.3118834,-0.0008867935,4997,0,0.6938335,0.56153065,-8.489123,4997,0
2144162612,-0.33859873,-0.20806402,-0.0030691903,4997,0,-0.49374056,-1.1019987,-9.605869,4997,0
2144182599,-0.32563314,-0.23657475,-0.013957218,4995,0,0.36565635,-0.30398017,-9.439857,4995,0
2144202587,-0.115615234,-0.27923015,-0.001986598,4997,0,0.3586202,0.7532019,-7.7710757,4997,0
2144217577,-0.14822225,-0.17156763,0.0013606949,4997,0,-0.63528895,-0.59218746,-8.329216,4997,0
2144237565,-0.26789117,-0.10762432,-0.004831006,4993,0,0.3282592,-1.520088,-10.250469,4993,0
2144262550,-0.18211925,-0.29158118,-0.0144077195,4997,0,1.1132034,0.5577343,-8.470412,4997,0
2144277546,-0.14557286,-0.25440106,-0.013081389,5001,0,0.121311784,0.3114156,-8.47584,5001,0
2144302524,-0.31235594,-0.10011749,-0.019158032,4990,0,0.11925015,-1.0545636,-9.208926,4990,0
2144322512,-0.2362951,-0.2268465,0.0023473036,4995,0,0.73738986,0.39436936,-7.9544964,4995,0
2144342500,-0.20140631,-0.23392372,-0.009899116,4997,0,-0.028981455,-0.45525813,-9.283371,4997,0
2144357490,-0.37745675,-0.22159672,-0.028143723,4991,0,0.1404604,-1.2115954,-10.389664,4991,0
2144382477,-0.31008536,-0.30425942,-0.0005556074,4998,0,1.0115626,0.6172197,-7.935118,4998,0
2144402462,-0.08460239,-0.18568382,0.012247192,4995,0,-0.53145915,-0.12002792,-9.58942,4995,0
2144417453,-0.22622477,-0.08969648,-0.009353605,4994,0,-0.18843254,-1.17323,-10.129208,4994,0
2144437442,-0.2532288,-0.17924076,0.009047949,4997,0,0.88920265,-0.17625993,-7.433723,4997,0
2144462425,-0.039789792,-0.07601243,-0.009641308,4997,0,0.18409559,-1.1006485,-10.848239,4997,0
2144482414,0.014916182,-0.11763205,-0.06389972,4998,0,1.2908293,-0.5784562,-8.632664,4998,0
2144497403,-0.03546992,-0.07640452,-0.012732765,4994,0,0.5277623,-0.7248809,-7.153207,4994,0
2144522388,-0.19775404,-0.11105974,-0.00024294965,4997,0,1.4388994,0.005686208,-9.938236,4997,0
2144542377,-0.3794422,-0.1466191,-0.038299352,4997,0,-0.20645916,-0.9510318,-8.616119,4997,0
