timestamp,timestamp_sample,ref_timestamp,ref_lat,ref_lon,x,y,z,delta_xy[0],delta_xy[1],delta_z,vx,vy,vz,z_deriv,delta_vxy[0],delta_vxy[1],delta_vz,ax,ay,az,heading,delta_heading,ref_alt,dist_bottom,eph,epv,evh,evv,vxy_max,vz_max,hagl_min,hagl_max,xy_valid,z_valid,v_xy_valid,v_z_valid,xy_reset_counter,z_reset_counter,vxy_reset_counter,vz_reset_counter,heading_reset_counter,heading_good_for_control,xy_global,z_global,dist_bottom_valid,dist_bottom_sensor_bitfield
859885551,859885172,0,nan,nan,1.52088,1.4528134,-0.34679413,1.0054654,2.6427975,0.24295658,-0.0021263803,0.0015184908,0.0004349809,0.00047849034,-2.4855537,-0.16062875,-0.00048217044,0.01180843,-0.013222876,0.0026036897,1.528258,0.16137503,nan,0.1,0.006727925,0.0047571408,0.010170799,0.007203878,inf,inf,inf,inf,1,1,1,1,8,5,5,2,7,1,0,0,1,0
859894747,859894173,0,nan,nan,1.520876,1.4528178,-0.3467981,1.0054654,2.6427975,0.24295658,-0.0021075131,0.0016464231,0.0005757356,0.0006152785,-2.4855537,-0.16062875,-0.00048217044,-0.015457741,0.013214855,0.02159589,1.528235,0.16137503,nan,0.1,0.0067236223,0.0047541996,0.011146636,0.007897445,inf,inf,inf,inf,1,1,1,1,8,5,5,2,7,1,0,0,1,0
859903604,859903173,0,nan,nan,1.5208699,1.4528235,-0.3467997,1.0054654,2.6427975,0.24295658,-0.0020805816,0.0014155335,0.0007142868,0.00075000577,-2.4855537,-0.16062875,-0.00048217044,-0.022899374,-0.004747074,0.016123874,1.528251,0.16137503,nan,0.1,0.0067206826,0.004752245,0.012050896,0.008540585,inf,inf,inf,inf,1,1,1,1,8,5,5,2,7,1,0,0,1,0
859921696,859921175,0,nan,nan,1.5208592,1.4528272,-0.34680653,1.0054654,2.6427975,0.24295658,-0.00249349,0.0013460919,0.0004292753,0.0004577446,-2.4855537,-0.16062875,-0.00048217044,-0.0076800776,0.011132849,-0.005373778,1.5282356,0.16137503,nan,0.1,0.006719895,0.0047520124,0.013711065,0.009715747,inf,inf,inf,inf,1,1,1,1,8,5,5,2,7,1,0,0,1,0
859948664,859948177,0,nan,nan,1.5208446,1.4528301,-0.34682313,1.0054654,2.6427975,0.24295658,-0.0023226107,0.0013359068,0.00042401417,0.0004425696,-2.4855537,-0.16062875,-0.00048217044,-0.02886898,0.023208369,0.043771498,1.52826,0.16137503,nan,0.1,0.0067352187,0.0047635413,0.015912091,0.011284187,inf,inf,inf,inf,1,1,1,1,8,5,5,2,7,1,0,0,1,0
859957764,859957226,0,nan,nan,1.5208416,1.452831,-0.3468271,1.0054654,2.6427975,0.24295658,-0.0021335927,0.0013511638,0.00040942093,0.00042492582,-2.4855537,-0.16062875,-0.00048217044,0.009149029,0.016918793,-0.0073779,1.528264,0.16137503,nan,0.1,0.0067457175,0.004771259,0.01659145,0.0117688365,inf,inf,inf,inf,1,1,1,1,8,5,5,2,7,1,0,0,1,0
859984775,859984181,0,nan,nan,1.520835,1.4528368,-0.34683686,1.0054654,2.6427975,0.24295658,-0.002175941,0.001387429,0.00013227678,0.00013931489,-2.4855537,-0.16062875,-0.00048217044,0.00954184,-0.0013307966,-0.037915234,1.5282665,0.16137503,nan,0.1,0.0068045524,0.004813972,0.018509617,0.013138057,inf,inf,inf,inf,1,1,1,1,8,5,5,2,7,1,0,0,1,0
860002786,860002230,0,nan,nan,1.5208281,1.4528393,-0.34684828,1.0054654,2.6427975,0.24295658,-0.0023842792,0.0013640334,0.0001347451,0.00013668726,-2.4855537,-0.16062875,-0.00048217044,0.006572916,0.0017279899,0.0038240615,1.528222,0.16137503,nan,0.1,0.0068571325,0.0048520938,0.019706208,0.013993163,inf,inf,inf,inf,1,1,1,1,8,5,5,2,7,1,0,0,1,0
860020687,860020184,0,nan,nan,1.5208254,1.4528383,-0.34686035,1.0054654,2.6427975,0.24295658,-0.0019713154,0.00084805524,0.00019532963,0.00019259818,-2.4855537,-0.16062875,-0.00048217044,0.03881437,-0.015996186,-0.0030749808,1.5281086,0.16137503,nan,0.1,0.0069265165,0.0049022823,0.02085101,0.014811443,inf,inf,inf,inf,1,1,1,1,8,5,5,2,7,1,0,0,1,0
860038623,860038185,0,nan,nan,1.5208182,1.4528222,-0.34687403,1.0054654,2.6427975,0.24295658,-0.0038992465,-0.000604158,-0.00012267605,-0.00012967634,-2.4855537,-0.16062875,-0.00048217044,-0.35307798,-0.111698695,0.011169138,1.5278178,0.16137503,nan,0.1,0.007014196,0.004965606,0.021951513,0.015598359,inf,inf,inf,inf,1,1,1,1,8,5,5,2,7,1,0,0,1,0
860065502,860065188,0,nan,nan,1.5208199,1.4528167,-0.34689587,1.0054654,2.6427975,0.24295658,-0.0010826337,0.0022611201,0.00051204546,0.0004941376,-2.4855537,-0.16062875,-0.00048217044,0.24930747,-0.11970767,0.031542595,1.5284805,0.16137503,nan,0.1,0.0067130458,0.00474644,0.0064934026,0.004591162,inf,inf,inf,inf,1,1,1,1,8,5,5,2,7,1,0,0,1,0
860083639,860083189,0,nan,nan,1.520835,1.4528387,-0.3469051,1.0054654,2.6427975,0.24295658,-0.0008524961,0.0039338386,0.00018426558,0.00015975902,-2.4855537,-0.16062875,-0.00048217044,-0.3862132,-0.107858345,-0.085983895,1.5287943,0.16137503,nan,0.1,0.006700064,0.0047373646,0.009110471,0.0064459164,inf,inf,inf,inf,1,1,1,1,8,5,5,2,7,1,0,0,1,0
860101706,860101191,0,nan,nan,1.5208565,1.4528546,-0.34691483,1.0054654,2.6427975,0.24295658,-0.00037967376,0.004561427,0.00028179007,0.00025122653,-2.4855537,-0.16062875,-0.00048217044,0.17398699,0.61226016,0.005487327,1.527666,0.16137503,nan,0.1,0.0066905855,0.004730843,0.011158858,0.0079002315,inf,inf,inf,inf,1,1,1,1,8,5,5,2,7,1,0,0,1,0
860119712,860119193,0,nan,nan,1.5208875,1.4529319,-0.3469261,1.0054654,2.6427975,0.24295658,-0.0040665846,0.005872651,0.0009628929,0.00092678686,-2.4855537,-0.16062875,-0.00048217044,-0.9192969,0.32475513,0.24854618,1.5284975,0.16137503,nan,0.1,0.0066866027,0.004728292,0.012912435,0.009147143,inf,inf,inf,inf,1,1,1,1,8,5,5,2,7,1,0,0,1,0
860146788,860146195,0,nan,nan,1.5209011,1.453087,-0.34692827,1.0054654,2.6427975,0.24295658,-0.0017630673,0.007036296,0.001204651,0.0011611318,-2.4855537,-0.16062875,-0.00048217044,-0.02329473,-0.27174678,0.122345515,1.529377,0.16137503,nan,0.1,0.0066953297,0.004735045,0.0152106825,0.0107836565,inf,inf,inf,inf,1,1,1,1,8,5,5,2,7,1,0,0,1,0
860169231,860164197,0,nan,nan,1.520961,1.4532325,-0.34693345,1.0054654,2.6427975,0.24295658,0.0029699765,0.011272109,0.00013736796,8.944213e-05,-2.4855537,-0.16062875,-0.00048217044,0.17115888,0.2083692,0.068170026,1.5277592,0.16137503,nan,0.1,0.006721397,0.0047540157,0.016593322,0.011769549,inf,inf,inf,inf,1,1,1,1,8,5,5,2,7,1,0,0,1,0
860178205,860173197,0,nan,nan,1.5209932,1.4533211,-0.3469318,1.0054654,2.6427975,0.24295658,0.0016427047,0.010530224,0.0012593601,0.0012093926,-2.4855537,-0.16062875,-0.00048217044,0.17039697,-0.32033655,0.028270613,1.5271413,0.16137503,nan,0.1,0.006735202,0.004764095,0.017250473,0.012238554,inf,inf,inf,inf,1,1,1,1,8,5,5,2,7,1,0,0,1,0
860205126,860200200,0,nan,nan,1.5210522,1.4536233,-0.34693578,1.0054654,2.6427975,0.24295658,-0.0020324495,0.013190653,0.0011163978,0.0010608688,-2.4855537,-0.16062875,-0.00048217044,0.19917558,-0.47815827,-0.037898764,1.5283064,0.16137503,nan,0.1,0.0068056067,0.0048150416,0.019131895,0.013571999,inf,inf,inf,inf,1,1,1,1,8,5,5,2,7,1,0,0,1,0
860227725,860227249,0,nan,nan,1.5210553,1.4539812,-0.34694213,1.0054654,2.6427975,0.24295658,-0.0003225409,0.015034131,0.0016462209,0.0015860109,-2.4855537,-0.16062875,-0.00048217044,0.2601461,-0.28638008,0.095322914,1.5287919,0.16137503,nan,0.1,0.0069043585,0.004886367,0.020869574,0.014813403,inf,inf,inf,inf,1,1,1,1,8,5,5,2,7,1,0,0,1,0
860245542,860245206,0,nan,nan,1.5211225,1.4542633,-0.3469464,1.0054654,2.6427975,0.24295658,0.0019883956,0.020198682,0.00026229594,0.00019942939,-2.4855537,-0.16062875,-0.00048217044,0.23041816,0.19863328,0.11741485,1.5284861,0.16137503,nan,0.1,0.0070014484,0.004956255,0.021973234,0.015602378,inf,inf,inf,inf,1,1,1,1,8,5,5,2,7,1,0,0,1,0
860263685,860263205,0,nan,nan,1.5212203,1.4545653,-0.3469447,1.0054654,2.6427975,0.24295658,0.0025158003,0.02042499,0.00057382544,0.0005086527,-2.4855537,-0.16062875,-0.00048217044,-0.36726984,0.8602034,0.045787435,1.5278671,0.16137503,nan,0.1,0.0071097175,0.0050342167,0.023037113,0.01636228,inf,inf,inf,inf,1,1,1,1,8,5,5,2,7,1,0,0,1,0
860281773,860281207,0,nan,nan,1.5212412,1.454953,-0.34695306,1.0054654,2.6427975,0.24295658,0.00079280074,0.020762667,0.00057148683,0.00050433265,-2.4855537,-0.16062875,-0.00048217044,0.02764206,-0.45364526,-0.1013013,1.5282491,0.16137503,nan,0.1,0.0072386805,0.0051270016,0.024066146,0.0170982,inf,inf,inf,inf,1,1,1,1,8,5,5,2,7,1,0,0,1,0
860308690,860308209,0,nan,nan,1.5213181,1.4555836,-0.3469733,1.0054654,2.6427975,0.24295658,-2.6353795e-05,0.025561802,0.0013563157,0.0012867812,-2.4855537,-0.16062875,-0.00048217044,-1.4957211,0.6171995,0.6448769,1.5286566,0.16137503,nan,0.1,0.0074725496,0.005295124,0.025555663,0.018162426,inf,inf,inf,inf,1,1,1,1,8,5,5,2,7,1,0,0,1,0
860326731,860326211,0,nan,nan,1.5214114,1.4560708,-0.34697434,1.0054654,2.6427975,0.24295658,0.0034678956,0.027353214,-0.0034480894,-0.003518895,-2.4855537,-0.16062875,-0.00048217044,0.49457705,-0.647547,-0.07556002,1.5283916,0.16137503,nan,0.1,0.0076563735,0.0054271077,0.026540592,0.018849175,inf,inf,inf,inf,1,1,1,1,8,5,5,2,7,1,0,0,1,0
860344800,860344213,0,nan,nan,1.5215482,1.4565713,-0.34696183,1.0054654,2.6427975,0.24295658,0.004674866,0.031256434,-0.0034968376,-0.003568706,-2.4855537,-0.16062875,-0.00048217044,-1.0264374,1.1909438,-1.5143327,1.5275962,0.16137503,nan,0.1,0.00787438,0.005583417,0.027488621,0.019524863,inf,inf,inf,inf,1,1,1,1,8,5,5,2,7,1,0,0,1,0
860362792,860362262,0,nan,nan,1.5216306,1.457112,-0.34698135,1.0054654,2.6427975,0.24295658,0.005656071,0.028779605,0.0051853703,0.0051126643,-2.4855537,-0.16062875,-0.00048217044,1.5622524,-1.0630913,0.14939654,1.5279533,0.16137503,nan,0.1,0.0081028845,0.0057472205,0.028404178,0.020177312,inf,inf,inf,inf,1,1,1,1,8,5,5,2,7,1,0,0,1,0
860380696,860380216,0,nan,nan,1.5217646,1.4576986,-0.34701186,1.0054654,2.6427975,0.24295658,0.0076529244,0.037020765,0.0014413653,0.0013680097,-2.4855537,-0.16062875,-0.00048217044,1.3593427,0.052618816,1.1304116,1.5286576,0.16137503,nan,0.1,0.008353054,0.0059264526,0.029295,0.020813925,inf,inf,inf,inf,1,1,1,1,8,5,5,2,7,1,0,0,1,0
860398706,860398217,0,nan,nan,1.5219359,1.4583082,-0.3469937,1.0054654,2.6427975,0.24295658,0.011521799,0.037312806,-0.0043819263,-0.0044557517,-2.4855537,-0.16062875,-0.00048217044,-0.15900591,0.5829804,-0.9598119,1.5284847,0.16137503,nan,0.1,0.0086242175,0.0061206375,0.030169414,0.02143515,inf,inf,inf,inf,1,1,1,1,8,5,5,2,7,1,0,0,1,0
860425544,860425221,0,nan,nan,1.5222498,1.45929,-0.3470003,1.0054654,2.6427975,0.24295658,0.014866846,0.041156266,-0.0025945283,-0.0026688338,-2.4855537,-0.16062875,-0.00048217044,0.685694,0.55849975,-0.055125237,1.5279202,0.16137503,nan,0.1,0.009087202,0.0064519756,0.031465586,0.022356832,inf,inf,inf,inf,1,1,1,1,8,5,5,2,7,1,0,0,1,0
860443730,860443221,0,nan,nan,1.5224283,1.4600233,-0.34698492,1.0054654,2.6427975,0.24295658,0.009873246,0.041043352,0.0016826004,0.0016080936,-2.4855537,-0.16062875,-0.00048217044,0.7169318,-0.25439554,-0.3031829,1.5282927,0.16137503,nan,0.1,0.009407347,0.0066809403,0.03228523,0.022940343,inf,inf,inf,inf,1,1,1,1,8,5,5,2,7,1,0,0,1,0
860461785,860461224,0,nan,nan,1.5226315,1.4608039,-0.34701034,1.0054654,2.6427975,0.24295658,0.00970209,0.046130925,0.0030212954,0.0029465717,-2.4855537,-0.16062875,-0.00048217044,0.7997487,-0.28074184,0.8630684,1.5285192,0.16137503,nan,0.1,0.009744854,0.006922186,0.033086017,0.023508914,inf,inf,inf,inf,1,1,1,1,8,5,5,2,7,1,0,0,1,0
860479704,860479224,0,nan,nan,1.5229028,1.4616581,-0.34700263,1.0054654,2.6427975,0.24295658,0.013913498,0.05023748,-0.0024393375,-0.0025142727,-2.4855537,-0.16062875,-0.00048217044,-0.7491869,1.027738,0.0038801627,1.5282618,0.16137503,nan,0.1,0.010098349,0.0071747624,0.03387494,0.02406244,inf,inf,inf,inf,1,1,1,1,8,5,5,2,7,1,0,0,1,0
860506706,860506227,0,nan,nan,1.5232869,1.4629431,-0.3470044,1.0054654,2.6427975,0.24295658,0.013060431,0.05243439,-0.0021609343,-0.002236179,-2.4855537,-0.16062875,-0.00048217044,-1.4329324,0.57060903,0.02668381,1.5282216,0.16137503,nan,0.1,0.010656445,0.0075730043,0.035030566,0.02486471,inf,inf,inf,inf,1,1,1,1,8,5,5,2,7,1,0,0,1,0
860524841,860524228,0,nan,nan,1.5235125,1.463856,-0.34698454,1.0054654,2.6427975,0.24295658,0.018054027,0.048638135,-0.00011126147,-0.00018661078,-2.4855537,-0.16062875,-0.00048217044,1.6350017,-0.92282015,-0.93204516,1.5282203,0.16137503,nan,0.1,0.011076848,0.0078728935,0.035817027,0.025417803,inf,inf,inf,inf,1,1,1,1,8,5,5,2,7,1,0,0,1,0
860542829,860542281,0,nan,nan,1.5238194,1.4647963,-0.34700668,1.0054654,2.6427975,0.24295658,0.013518147,0.05640569,0.0022578817,0.0021824718,-2.4855537,-0.16062875,-0.00048217044,-0.02934278,-0.40423262,0.62724787,1.5284323,0.16137503,nan,0.1,0.011476386,0.008157529,0.036512967,0.025915245,inf,inf,inf,inf,1,1,1,1,8,5,5,2,7,1,0,0,1,0
860560776,860560232,0,nan,nan,1.5241482,1.4657506,-0.34700966,1.0054654,2.6427975,0.24295658,0.021901954,0.05891923,-0.00097602146,-0.001051537,-2.4855537,-0.16062875,-0.00048217044,0.8782593,0.8306029,0.27951908,1.528283,0.16137503,nan,0.1,0.011885074,0.008448501,0.03719822,0.026395867,inf,inf,inf,inf,1,1,1,1,8,5,5,2,7,1,0,0,1,0
860587820,860587282,0,nan,nan,1.5246321,1.4672899,-0.34701827,1.0054654,2.6427975,0.24295658,0.018568814,0.06317622,-0.0023962806,-0.002472256,-2.4855537,-0.16062875,-0.00048217044,-0.5419835,1.0521389,-0.23599687,1.528294,0.16137503,nan,0.1,0.012511652,0.00889426,0.038180094,0.02708401,inf,inf,inf,inf,1,1,1,1,8,5,5,2,7,1,0,0,1,0
860605563,860605235,0,nan,nan,1.5249469,1.4684728,-0.34702063,1.0054654,2.6427975,0.24295658,0.017392896,0.060799573,-0.00066192,-0.00073835783,-2.4855537,-0.16062875,-0.00048217044,0.7371571,-0.3719975,-0.5621728,1.5283698,0.16137503,nan,0.1,0.012990468,0.009235047,0.03891281,0.027590368,inf,inf,inf,inf,1,1,1,1,8,5,5,2,7,1,0,0,1,0
860623704,860623237,0,nan,nan,1.5252674,1.4695859,-0.34704518,1.0054654,2.6427975,0.24295658,0.013161619,0.0691597,0.0012520688,0.0011750592,-2.4855537,-0.16062875,-0.00048217044,-0.53885746,0.6504586,0.2694413,1.5283169,0.16137503,nan,0.1,0.013419266,0.009539588,0.039530057,0.028005742,inf,inf,inf,inf,1,1,1,1,8,5,5,2,7,1,0,0,1,0
860641717,860641239,0,nan,nan,1.5256032,1.4707139,-0.34705922,1.0054654,2.6427975,0.24295658,0.018714076,0.07046705,-0.0024770496,-0.0025547843,-2.4855537,-0.16062875,-0.00048217044,-0.81690115,0.5764134,-0.4008372,1.5281876,0.16137503,nan,0.1,0.01385023,0.009845159,0.0400977,0.02840208,inf,inf,inf,inf,1,1,1,1,8,5,5,2,7,1,0,0,1,0
860659774,860659240,0,nan,nan,1.5259126,1.4719014,-0.34705356,1.0054654,2.6427975,0.24295658,0.016949598,0.06860118,0.00032815273,0.0002493448,-2.4855537,-0.16062875,-0.00048217044,0.17603195,-0.42874953,-0.3088602,1.5282507,0.16137503,nan,0.1,0.014281099,0.010150446,0.040652823,0.02877891,inf,inf,inf,inf,1,1,1,1,8,5,5,2,7,1,0,0,1,0
860686873,860686243,0,nan,nan,1.526413,1.4737433,-0.34705696,1.0054654,2.6427975,0.24295658,0.022130843,0.07213417,0.000104579776,2.373639e-05,-2.4855537,-0.16062875,-0.00048217044,1.1001295,-0.5102506,-0.4559405,1.5283161,0.16137503,nan,0.1,0.014923904,0.010605359,0.04142051,0.029306665,inf,inf,inf,inf,1,1,1,1,8,5,5,2,7,1,0,0,1,0
860704723,860704244,0,nan,nan,1.526769,1.4750073,-0.34707108,1.0054654,2.6427975,0.24295658,0.018061696,0.077233635,0.0027887817,0.002706346,-2.4855537,-0.16062875,-0.00048217044,0.19292572,-0.30995876,0.7227162,1.5283118,0.16137503,nan,0.1,0.015439067,0.010970481,0.042055868,0.02974933,inf,inf,inf,inf,1,1,1,1,8,5,5,2,7,1,0,0,1,0
860722801,860722293,0,nan,nan,1.5271522,1.4762754,-0.34706953,1.0054654,2.6427975,0.24295658,0.024345685,0.08127934,-0.0010664227,-0.0011506517,-2.4855537,-0.16062875,-0.00048217044,0.6983124,0.5527202,0.2320657,1.5282973,0.16137503,nan,0.1,0.015857805,0.011266149,0.042495206,0.030049872,inf,inf,inf,inf,1,1,1,1,8,5,5,2,7,1,0,0,1,0
860740706,860740247,0,nan,nan,1.5275532,1.4777119,-0.3470585,1.0054654,2.6427975,0.24295658,0.02647902,0.08014824,0.00087294204,0.00078646286,-2.4855537,-0.16062875,-0.00048217044,1.5823364,-0.12519075,-0.06941988,1.5283015,0.16137503,nan,0.1,0.016269425,0.011556517,0.042918783,0.03033003,inf,inf,inf,inf,1,1,1,1,8,5,5,2,7,1,0,0,1,0
860758746,860758249,0,nan,nan,1.5279241,1.4790623,-0.34707677,1.0054654,2.6427975,0.24295658,0.019830365,0.08599813,0.0018511647,0.0017620804,-2.4855537,-0.16062875,-0.00048217044,0.26663503,-0.093260236,0.40535074,1.528416,0.16137503,nan,0.1,0.016672993,0.011840859,0.043330565,0.030589873,inf,inf,inf,inf,1,1,1,1,8,5,5,2,7,1,0,0,1,0
860785614,860785254,0,nan,nan,1.5284973,1.4810994,-0.34707826,1.0054654,2.6427975,0.24295658,0.01865337,0.08803215,0.0019361409,0.0018427105,-2.4855537,-0.16062875,-0.00048217044,-0.23732442,-0.29375112,0.24907026,1.5282799,0.16137503,nan,0.1,0.017391115,0.012347281,0.044084866,0.03110097,inf,inf,inf,inf,1,1,1,1,8,5,5,2,7,1,0,0,1,0
860803691,860803255,0,nan,nan,1.528901,1.48247,-0.3470779,1.0054654,2.6427975,0.24295658,0.023225002,0.09288036,-0.0014289872,-0.0015254483,-2.4855537,-0.16062875,-0.00048217044,-0.8734169,1.3849666,-0.22656897,1.5283026,0.16137503,nan,0.1,0.017768193,0.01261183,0.044385046,0.031302042,inf,inf,inf,inf,1,1,1,1,8,5,5,2,7,1,0,0,1,0
860821768,860821255,0,nan,nan,1.5292645,1.4838644,-0.34707227,1.0054654,2.6427975,0.24295658,0.024703912,0.089051366,-0.00088079815,-0.0009805828,-2.4855537,-0.16062875,-0.00048217044,-0.19924791,-0.6524447,-0.68326634,1.5282699,0.16137503,nan,0.1,0.01813271,0.012867299,0.04467356,0.031483848,inf,inf,inf,inf,1,1,1,1,8,5,5,2,7,1,0,0,1,0
860839787,860839256,0,nan,nan,1.5296655,1.4852436,-0.347091,1.0054654,2.6427975,0.24295658,0.022396145,0.09321976,0.002376604,0.0022732303,-2.4855537,-0.16062875,-0.00048217044,-0.24407054,-0.02615985,0.5299181,1.5283542,0.16137503,nan,0.1,0.018484056,0.013113184,0.04492298,0.031646892,inf,inf,inf,inf,1,1,1,1,8,5,5,2,7,1,0,0,1,0
860866784,860866259,0,nan,nan,1.5302914,1.4874388,-0.34709626,1.0054654,2.6427975,0.24295658,0.026404863,0.09604377,2.7078278e-05,-8.225555e-05,-2.4855537,-0.16062875,-0.00048217044,0.5450605,0.21378526,-0.08835148,1.528329,0.16137503,nan,0.1,0.018984942,0.013463124,0.045255944,0.03185779,inf,inf,inf,inf,1,1,1,1,8,5,5,2,7,1,0,0,1,0
860884723,860884261,0,nan,nan,1.5306982,1.4887981,-0.34710976,1.0054654,2.6427975,0.24295658,0.026282312,0.09662628,0.0006292848,0.0005158258,-2.4855537,-0.16062875,-0.00048217044,-0.2930765,0.11687944,0.29747763,1.528294,0.16137503,nan,0.1,0.019483399,0.013813518,0.045770545,0.032185823,inf,inf,inf,inf,1,1,1,1,8,5,5,2,7,1,0,0,1,0
860902798,860902309,0,nan,nan,1.5310892,1.4901743,-0.34711584,1.0054654,2.6427975,0.24295658,0.027458062,0.09848021,-0.0003670292,-0.00048477695,-2.4855537,-0.16062875,-0.00048217044,0.8819111,0.11708011,-0.04958265,1.5283597,0.16137503,nan,0.1,0.019780962,0.014020319,0.0459311,0.032275893,inf,inf,inf,inf,1,1,1,1,8,5,5,2,7,1,0,0,1,0
860920699,860920263,0,nan,nan,1.5315056,1.4915395,-0.34712663,1.0054654,2.6427975,0.24295658,0.026322778,0.103506975,0.00016507959,4.272886e-05,-2.4855537,-0.16062875,-0.00048217044,-0.19298275,0.83254385,0.0073357406,1.5286217,0.16137503,nan,0.1,0.02006304,0.0142159965,0.046059523,0.03235132,inf,inf,inf,inf,1,1,1,1,8,5,5,2,7,1,0,0,1,0
860938699,860938265,0,nan,nan,1.5318837,1.4928846,-0.3471257,1.0054654,2.6427975,0.24295658,0.02852961,0.10076814,-0.00044902312,-0.0005764287,-2.4855537,-0.16062875,-0.00048217044,0.32366946,-0.2212644,-0.10987948,1.5288713,0.16137503,nan,0.1,0.020329582,0.014400548,0.046169646,0.032412883,inf,inf,inf,inf,1,1,1,1,8,5,5,2,7,1,0,0,1,0
860965797,860965267,0,nan,nan,1.5324879,1.4948156,-0.3471417,1.0054654,2.6427975,0.24295658,0.032766934,0.10234944,-0.00112765,-0.0012629005,-2.4855537,-0.16062875,-0.00048217044,0.57896703,0.1712454,-0.08784361,1.5283504,0.16137503,nan,0.1,0.020700408,0.014656725,0.04630738,0.03248218,inf,inf,inf,inf,1,1,1,1,8,5,5,2,7,1,0,0,1,0
860983748,860983269,0,nan,nan,1.5328894,1.496105,-0.34714508,1.0054654,2.6427975,0.24295658,0.028700514,0.104220346,0.0004996609,0.0003596131,-2.4855537,-0.16062875,-0.00048217044,0.4940766,0.2008849,-0.1565493,1.5283839,0.16137503,nan,0.1,0.021153921,0.014973835,0.046719328,0.03275061,inf,inf,inf,inf,1,1,1,1,8,5,5,2,7,1,0,0,1,0
861001745,861001270,0,nan,nan,1.5333283,1.497562,-0.34716052,1.0054654,2.6427975,0.24295658,0.029747006,0.10689537,0.0008469258,0.0007018007,-2.4855537,-0.16062875,-0.00048217044,-0.24250467,-0.23486684,0.13283432,1.5286287,0.16137503,nan,0.1,0.021359166,0.015114731,0.046748377,0.032754846,inf,inf,inf,inf,1,1,1,1,8,5,5,2,7,1,0,0,1,0
861019760,861019277,0,nan,nan,1.5337354,1.4988,-0.34717143,1.0054654,2.6427975,0.24295658,0.032000836,0.10916623,1.745639e-05,-0.00013294232,-2.4855537,-0.16062875,-0.00048217044,-0.39673534,0.5172865,0.11344537,1.5285839,0.16137503,nan,0.1,0.021550426,0.015245568,0.046797246,0.0327515,inf,inf,inf,inf,1,1,1,1,8,5,5,2,7,1,0,0,1,0
861046788,861046274,0,nan,nan,1.5342888,1.5005975,-0.34717214,1.0054654,2.6427975,0.24295658,0.028387066,0.10994542,-0.0005184134,-0.00067667407,-2.4855537,-0.16062875,-0.00048217044,-0.2742455,0.41733873,-0.0106642945,1.5283848,0.16137503,nan,0.1,0.02181096,0.015422996,0.046809413,0.032733638,inf,inf,inf,inf,1,1,1,1,8,5,5,2,7,1,0,0,1,0
861064843,861064276,0,nan,nan,1.5345815,1.501767,-0.34718102,1.0054654,2.6427975,0.24295658,0.027072372,0.10841205,-0.0003976978,-0.00056091265,-2.4855537,-0.16062875,-0.00048217044,0.15997042,0.012855835,-0.19265793,1.5285665,0.16137503,nan,0.1,0.022229128,0.015714085,0.04717615,0.032972988,inf,inf,inf,inf,1,1,1,1,8,5,5,2,7,1,0,0,1,0
861082897,861082325,0,nan,nan,1.5348377,1.5028938,-0.3471967,1.0054654,2.6427975,0.24295658,0.02426665,0.109555386,0.0014041149,0.0012359264,-2.4855537,-0.16062875,-0.00048217044,0.03647857,-0.04775808,0.14080572,1.5285048,0.16137503,nan,0.1,0.022361632,0.015803277,0.047132,0.032927718,inf,inf,inf,inf,1,1,1,1,8,5,5,2,7,1,0,0,1,0
861100754,861100279,0,nan,nan,1.535095,1.5039446,-0.34721065,1.0054654,2.6427975,0.24295658,0.026006956,0.11049979,-0.00082534744,-0.0009984033,-2.4855537,-0.16062875,-0.00048217044,-0.16882892,0.1081102,0.103761114,1.5284171,0.16137503,nan,0.1,0.022481898,0.015883893,0.047089253,0.03288008,inf,inf,inf,inf,1,1,1,1,8,5,5,2,7,1,0,0,1,0
861127856,861127329,0,nan,nan,1.5354791,1.5056388,-0.34724328,1.0054654,2.6427975,0.24295658,0.025274618,0.11182315,-0.00029470114,-0.0004749557,-2.4855537,-0.16062875,-0.00048217044,-0.47700912,-0.034043316,0.14560966,1.5284753,0.16137503,nan,0.1,0.022640925,0.015989821,0.04701528,0.032805815,inf,inf,inf,inf,1,1,1,1,8,5,5,2,7,1,0,0,1,0
861145608,861145283,0,nan,nan,1.5356895,1.5066144,-0.34726882,1.0054654,2.6427975,0.24295658,0.025085945,0.11457447,-0.0022501328,-0.0024349014,-2.4855537,-0.16062875,-0.00048217044,-0.4030237,0.80583763,-0.31886348,1.5285368,0.16137503,nan,0.1,0.023033535,0.016262248,0.04740697,0.033039737,inf,inf,inf,inf,1,1,1,1,8,5,5,2,7,1,0,0,1,0
861163772,861163285,0,nan,nan,1.5358876,1.5075811,-0.34730053,1.0054654,2.6427975,0.24295658,0.027853968,0.11401825,-0.00075431046,-0.00094317395,-2.4855537,-0.16062875,-0.00048217044,0.4837729,-0.013532641,0.01757987,1.5284919,0.16137503,nan,0.1,0.023102691,0.016306745,0.047321696,0.03296468,inf,inf,inf,inf,1,1,1,1,8,5,5,2,7,1,0,0,1,0
861181849,861181286,0,nan,nan,1.5360814,1.508489,-0.34733167,1.0054654,2.6427975,0.24295658,0.026056249,0.11444257,-0.0009183599,-0.0011108969,-2.4855537,-0.16062875,-0.00048217044,-0.104205795,0.2606052,0.06495384,1.5284326,0.16137503,nan,0.1,0.02316298,0.01634507,0.047232877,0.03289188,inf,inf,inf,inf,1,1,1,1,8,5,5,2,7,1,0,0,1,0
861199807,861199288,0,nan,nan,1.5362657,1.5093371,-0.347358,1.0054654,2.6427975,0.24295658,0.027104395,0.11484671,-0.0017644494,-0.0019605833,-2.4855537,-0.16062875,-0.00048217044,-0.08686123,0.059212226,-0.06618682,1.5285589,0.16137503,nan,0.10000035,0.023215057,0.016377732,0.047157105,0.03282176,inf,inf,inf,inf,1,1,1,1,8,5,5,2,7,1,0,0,1,0
861217951,861217337,0,nan,nan,1.5364084,1.5101457,-0.34738898,1.0054654,2.6427975,0.24295658,0.024592051,0.116223544,-0.0014116617,-0.0016111842,-2.4855537,-0.16062875,-0.00048217044,-0.35824403,0.08897635,-0.043038554,1.5284346,0.16137503,nan,0.1000216,0.02325967,0.016405195,0.04708034,0.03275479,inf,inf,inf,inf,1,1,1,1,8,5,5,2,7,1,0,0,1,0
861244868,861244294,0,nan,nan,1.5365759,1.5113759,-0.34744272,1.0054654,2.6427975,0.24295658,0.02601933,0.11894025,-0.0021612023,-0.0023650867,-2.4855537,-0.16062875,-0.00048217044,0.26294482,0.30056882,-0.19812365,1.5284809,0.16137503,nan,0.1000627,0.023627903,0.016657792,0.047371894,0.03293637,inf,inf,inf,inf,1,1,1,1,8,5,5,2,7,1,0,0,1,0
861262661,861262341,0,nan,nan,1.5367208,1.512356,-0.3474868,1.0054654,2.6427975,0.24295658,0.02587279,0.1209496,-0.0016001225,-0.0018066136,-2.4855537,-0.16062875,-0.00048217044,0.19939926,0.23631203,0.13258752,1.5284961,0.16137503,nan,0.10009274,0.023976805,0.016898498,0.047700394,0.033150945,inf,inf,inf,inf,1,1,1,1,8,5,5,2,7,1,0,0,1,0
861280814,861280295,0,nan,nan,1.5368078,1.5131491,-0.3475334,1.0054654,2.6427975,0.24295658,0.02492287,0.1212778,-0.0029092573,-0.0031181504,-2.4855537,-0.16062875,-0.00048217044,0.19093522,0.3200038,-0.26953036,1.5284959,0.16137503,nan,0.100115895,0.02396483,0.016886603,0.047595218,0.03304464,inf,inf,inf,inf,1,1,1,1,8,5,5,2,7,1,0,0,1,0
861298828,861298297,0,nan,nan,1.5368904,1.5138699,-0.3475825,1.0054654,2.6427975,0.24295658,0.02454746,0.12055764,-0.0017267598,-0.0019379051,-2.4855537,-0.16062875,-0.00048217044,-0.014282609,0.06371413,0.024628412,1.5284946,0.16137503,nan,0.10013747,0.023949975,0.016872505,0.047474425,0.032946642,inf,inf,inf,inf,1,1,1,1,8,5,5,2,7,1,0,0,1,0
861325604,861325299,0,nan,nan,1.5369887,1.514865,-0.3476545,1.0054654,2.6427975,0.24295658,0.02451864,0.120829575,-0.0023894699,-0.0026033046,-2.4855537,-0.16062875,-0.00048217044,-0.045423854,0.26912275,0.017039912,1.5284357,0.16137503,nan,0.10016784,0.024271937,0.017091949,0.04774095,0.03311361,inf,inf,inf,inf,1,1,1,1,8,5,5,2,7,1,0,0,1,0
861343737,861343301,0,nan,nan,1.5370817,1.5155437,-0.34769216,1.0054654,2.6427975,0.24295658,0.026713649,0.11954183,-0.0010185103,-0.0012336051,-2.4855537,-0.16062875,-0.00048217044,-0.2764439,-0.25628573,0.036677636,1.5285275,0.16137503,nan,0.10018429,0.024229772,0.017059043,0.047598056,0.033005822,inf,inf,inf,inf,1,1,1,1,8,5,5,2,7,1,0,0,1,0
861361701,861361302,0,nan,nan,1.5371693,1.5161139,-0.3477303,1.0054654,2.6427975,0.24295658,0.028754912,0.119679965,-0.0014715967,-0.0016875505,-2.4855537,-0.16062875,-0.00048217044,0.08249876,0.3877672,0.0067725666,1.5285336,0.16137503,nan,0.10019612,0.024548296,0.017277779,0.04791502,0.033212103,inf,inf,inf,inf,1,1,1,1,8,5,5,2,7,1,0,0,1,0
861380005,861379304,0,nan,nan,1.5372503,1.5166752,-0.34776455,1.0054654,2.6427975,0.24295658,0.028386127,0.12093678,-0.0021168913,-0.002333124,-2.4855537,-0.16062875,-0.00048217044,-0.1618619,-0.081335425,-0.018713666,1.5284936,0.16137503,nan,0.10020977,0.024482483,0.017228626,0.047756087,0.033093117,inf,inf,inf,inf,1,1,1,1,8,5,5,2,7,1,0,0,1,0
861406831,861406306,0,nan,nan,1.5373728,1.5173825,-0.34782526,1.0054654,2.6427975,0.24295658,0.028617036,0.120562874,-0.0021470168,-0.0023625053,-2.4855537,-0.16062875,-0.00048217044,-0.008515998,-0.07695758,-0.120660216,1.5285231,0.16137503,nan,0.10022494,0.024385598,0.017156282,0.047578137,0.032936394,inf,inf,inf,inf,1,1,1,1,8,5,5,2,7,1,0,0,1,0
861424891,861424308,0,nan,nan,1.537435,1.5178361,-0.3478697,1.0054654,2.6427975,0.24295658,0.025579533,0.1209875,-0.0022894426,-0.0025035986,-2.4855537,-0.16062875,-0.00048217044,-0.22104512,0.29590642,0.07287825,1.528517,0.16137503,nan,0.100240976,0.024680752,0.017358374,0.04788002,0.03313301,inf,inf,inf,inf,1,1,1,1,8,5,5,2,7,1,0,0,1,0
861442880,861442357,0,nan,nan,1.5375121,1.5184194,-0.34790233,1.0054654,2.6427975,0.24295658,0.028047053,0.117805354,-0.001227512,-0.0014391834,-2.4855537,-0.16062875,-0.00048217044,-0.2534094,-0.4091117,-0.011104028,1.5285041,0.16137503,nan,0.10023886,0.024597088,0.017296879,0.04773078,0.03302296,inf,inf,inf,inf,1,1,1,1,8,5,5,2,7,1,0,0,1,0
861460846,861460311,0,nan,nan,1.5375292,1.518705,-0.34793118,1.0054654,2.6427975,0.24295658,0.026891803,0.116744734,-0.00025249014,-0.00046037405,-2.4855537,-0.16062875,-0.00048217044,0.09875468,0.16288427,0.22612831,1.5285202,0.16137503,nan,0.10024828,0.024516052,0.017237296,0.047597267,0.032924905,inf,inf,inf,inf,1,1,1,1,8,5,5,2,7,1,0,0,1,0
861487844,861487361,0,nan,nan,1.5375456,1.5190446,-0.3479641,1.0054654,2.6427975,0.24295658,0.02777788,0.11865093,-0.0008124358,-0.0010124489,-2.4855537,-0.16062875,-0.00048217044,0.7407605,0.7988088,0.2746609,1.5284995,0.16137503,nan,0.10024145,0.024399683,0.017151648,0.047436517,0.03279886,inf,inf,inf,inf,1,1,1,1,8,5,5,2,7,1,0,0,1,0
861505760,861505315,0,nan,nan,1.537571,1.5192224,-0.34797958,1.0054654,2.6427975,0.24295658,0.027673814,0.11754708,-0.0018389071,-0.0020319638,-2.4855537,-0.16062875,-0.00048217044,-0.82961017,-0.06364745,-0.1889169,1.5284697,0.16137503,nan,0.100246996,0.02432578,0.017097127,0.047343776,0.032727767,inf,inf,inf,inf,1,1,1,1,8,5,5,2,7,1,0,0,1,0
861523753,861523317,0,nan,nan,1.5375615,1.5194228,-0.34800193,1.0054654,2.6427975,0.24295658,0.028491678,0.119097576,9.527665e-05,-9.069646e-05,-2.4855537,-0.16062875,-0.00048217044,0.023293287,-0.112767845,-0.04930458,1.5284579,0.16137503,nan,0.10024935,0.024609525,0.017290961,0.04766209,0.032939598,inf,inf,inf,inf,1,1,1,1,8,5,5,2,7,1,0,0,1,0
861541873,861541318,0,nan,nan,1.5375714,1.5195658,-0.3480245,1.0054654,2.6427975,0.24295658,0.024937764,0.1177017,-0.0027006413,-0.0028785896,-2.4855537,-0.16062875,-0.00048217044,-0.15284804,0.18767072,-0.17139105,1.5285345,0.16137503,nan,0.10025486,0.024519082,0.017225241,0.04755356,0.03285887,inf,inf,inf,inf,1,1,1,1,8,5,5,2,7,1,0,0,1,0
861568868,861568321,0,nan,nan,1.537613,1.5198857,-0.34805402,1.0054654,2.6427975,0.24295658,0.024950424,0.116222024,-0.0019777282,-0.0021419176,-2.4855537,-0.16062875,-0.00048217044,-0.36903843,-0.1478401,-0.104197785,1.5285305,0.16137503,nan,0.10025525,0.024391046,0.017132055,0.04741524,0.032757558,inf,inf,inf,inf,1,1,1,1,8,5,5,2,7,1,0,0,1,0
861577847,861577369,0,nan,nan,1.537605,1.5199102,-0.3480558,1.0054654,2.6427975,0.24295658,0.030175257,0.116355,0.00068285863,0.0005237549,-2.4855537,-0.16062875,-0.00048217044,0.5991618,-0.27973592,0.16955481,1.5284617,0.16137503,nan,0.10024756,0.024350362,0.017102404,0.047376085,0.032728586,inf,inf,inf,inf,1,1,1,1,8,5,5,2,7,1,0,0,1,0
861604719,861604324,0,nan,nan,1.5376258,1.5199236,-0.34807086,1.0054654,2.6427975,0.24295658,0.031918284,0.11650958,0.00024311127,0.000100294455,-2.4855537,-0.16062875,-0.00048217044,1.1173209,-0.21539259,-0.039986473,1.5284104,0.16137503,nan,0.10024515,0.024599116,0.017270025,0.04771831,0.03293471,inf,inf,inf,inf,1,1,1,1,8,5,5,2,7,1,0,0,1,0
861622893,861622373,0,nan,nan,1.5376639,1.5199134,-0.34807488,1.0054654,2.6427975,0.24295658,0.027980786,0.11693298,-0.00081934105,-0.0009503957,-2.4855537,-0.16062875,-0.00048217044,0.18101655,0.26951212,0.031000124,1.5284417,0.16137503,nan,0.100262135,0.024504526,0.01720169,0.04762369,0.032868247,inf,inf,inf,inf,1,1,1,1,8,5,5,2,7,1,0,0,1,0
861640803,861640327,0,nan,nan,1.5376898,1.5198886,-0.3480747,1.0054654,2.6427975,0.24295658,0.03276674,0.115327165,-0.0015147029,-0.0016330013,-2.4855537,-0.16062875,-0.00048217044,0.08729729,0.06913686,-0.2256029,1.5283947,0.16137503,nan,0.100265115,0.024414865,0.017136822,0.04754445,0.032811582,inf,inf,inf,inf,1,1,1,1,8,5,5,2,7,1,0,0,1,0
861658874,861658329,0,nan,nan,1.5377204,1.5198222,-0.3480921,1.0054654,2.6427975,0.24295658,0.032778926,0.11517554,-0.001517684,-0.0016216942,-2.4855537,-0.16062875,-0.00048217044,-0.028051805,0.028901977,-0.06845424,1.5283507,0.16137503,nan,0.100301,0.02432993,0.017075296,0.04747996,0.03276403,inf,inf,inf,inf,1,1,1,1,8,5,5,2,7,1,0,0,1,0
861685840,861685331,0,nan,nan,1.5377587,1.5196717,-0.34811568,1.0054654,2.6427975,0.24295658,0.033331845,0.11359196,-0.002178497,-0.0022597376,-2.4855537,-0.16062875,-0.00048217044,0.3024117,-0.34298804,0.11898491,1.5283922,0.16137503,nan,0.10033357,0.024211118,0.016989062,0.04740041,0.03270818,inf,inf,inf,inf,1,1,1,1,8,5,5,2,7,1,0,0,1,0
861703767,861703332,0,nan,nan,1.5378416,1.5197597,-0.348137,1.0054654,2.6427975,0.24295658,0.027973048,0.11424965,-0.002481167,-0.0025473593,-2.4855537,-0.16062875,-0.00048217044,-1.7850727,-0.4150304,-0.23401041,1.5283982,0.16137503,nan,0.10033879,0.024487179,0.017177125,0.047742072,0.032937557,inf,inf,inf,inf,1,1,1,1,8,5,5,2,7,1,0,0,1,0
861721850,861721334,0,nan,nan,1.5378557,1.5196179,-0.34815654,1.0054654,2.6427975,0.24295658,0.03343213,0.114975385,0.00029203386,0.00024137192,-2.4855537,-0.16062875,-0.00048217044,1.1359195,0.087548226,0.13801812,1.528452,0.16137503,nan,0.1003629,0.024396213,0.01711187,0.047707275,0.03289012,inf,inf,inf,inf,1,1,1,1,8,5,5,2,7,1,0,0,1,0
861739888,861739336,0,nan,nan,1.5378718,1.5194496,-0.3481744,1.0054654,2.6427975,0.24295658,0.023569832,0.11466954,0.0014505218,0.001415851,-2.4855537,-0.16062875,-0.00048217044,-1.2058923,0.5421631,0.5380724,1.5284337,0.16137503,nan,0.100390404,0.024311073,0.017050453,0.047649328,0.032851484,inf,inf,inf,inf,1,1,1,1,8,5,5,2,7,1,0,0,1,0
861766823,861766338,0,nan,nan,1.5378668,1.5191982,-0.34819797,1.0054654,2.6427975,0.24295658,0.036862273,0.11507433,0.0007457431,0.00073574716,-2.4855537,-0.16062875,-0.00048217044,2.3306978,-0.2502581,0.09270768,1.5284624,0.16137503,nan,0.10042149,0.024192628,0.016964853,0.047584306,0.03280735,inf,inf,inf,inf,1,1,1,1,8,5,5,2,7,1,0,0,1,0
861784731,861784340,0,nan,nan,1.5378795,1.5190178,-0.34820846,1.0054654,2.6427975,0.24295658,0.029468648,0.11544378,0.001532792,0.001539107,-2.4855537,-0.16062875,-0.00048217044,0.75884324,-0.052406758,0.9356086,1.5284734,0.16137503,nan,0.10043535,0.024478184,0.017159112,0.047949664,0.033052623,inf,inf,inf,inf,1,1,1,1,8,5,5,2,7,1,0,0,1,0
861802950,861802389,0,nan,nan,1.5378969,1.518875,-0.3482071,1.0054654,2.6427975,0.24295658,0.0292739,0.11914987,-0.0010074507,-0.0009849689,-2.4855537,-0.16062875,-0.00048217044,-0.68110704,0.8451175,0.21963134,1.528477,0.16137503,nan,0.100435495,0.02438753,0.017094389,0.04788853,0.033010602,inf,inf,inf,inf,1,1,1,1,8,5,5,2,7,1,0,0,1,0
861820857,861820343,0,nan,nan,1.5379338,1.5187258,-0.34820223,1.0054654,2.6427975,0.24295658,0.02997033,0.11720182,-0.0011438304,-0.0011050182,-2.4855537,-0.16062875,-0.00048217044,-0.69659644,0.37947956,0.12568735,1.5284952,0.16137503,nan,0.10043064,0.02430238,0.017033508,0.047836006,0.032976333,inf,inf,inf,inf,1,1,1,1,8,5,5,2,7,1,0,0,1,0
861847928,861847397,0,nan,nan,1.5380505,1.5186081,-0.3482059,1.0054654,2.6427975,0.24295658,0.03452816,0.1150435,-9.714905e-05,-3.325487e-05,-2.4855537,-0.16062875,-0.00048217044,0.13341506,-0.20172717,0.11665984,1.5284953,0.16137503,nan,0.10043526,0.024184389,0.016949004,0.047776993,0.032937802,inf,inf,inf,inf,1,1,1,1,8,5,5,2,7,1,0,0,1,0
861865806,861865347,0,nan,nan,1.5381126,1.5183874,-0.34821352,1.0054654,2.6427975,0.24295658,0.036745496,0.11497056,0.00051825534,0.0005992295,-2.4855537,-0.16062875,-0.00048217044,1.4766394,-0.18511061,0.27782553,1.528553,0.16137503,nan,0.10044289,0.02411257,0.016897332,0.047779914,0.032920334,inf,inf,inf,inf,1,1,1,1,8,5,5,2,7,1,0,0,1,0
861883800,861883348,0,nan,nan,1.5381799,1.5182074,-0.34821695,1.0054654,2.6427975,0.24295658,0.033423092,0.1143396,0.000274793,0.00037223616,-2.4855537,-0.16062875,-0.00048217044,0.076833725,-0.7528961,0.4385865,1.528486,0.16137503,nan,0.10044631,0.024391202,0.017086843,0.048139434,0.033158142,inf,inf,inf,inf,1,1,1,1,8,5,5,2,7,1,0,0,1,0
861901860,861901350,0,nan,nan,1.5382491,1.5180166,-0.3482181,1.0054654,2.6427975,0.24295658,0.03574208,0.11641748,-5.4047086e-07,0.00011365038,-2.4855537,-0.16062875,-0.00048217044,0.9812911,0.63125,0.21967906,1.528506,0.16137503,nan,0.100447476,0.024307277,0.01702713,0.048085246,0.033125445,inf,inf,inf,inf,1,1,1,1,8,5,5,2,7,1,0,0,1,0
861919925,861919352,0,nan,nan,1.5383308,1.5177937,-0.3482226,1.0054654,2.6427975,0.24295658,0.03520411,0.115358256,0.0005487101,0.0006797693,-2.4855537,-0.16062875,-0.00048217044,0.007209877,0.5069214,0.637777,1.5284922,0.16137503,nan,0.100451976,0.024228703,0.016971132,0.04803566,0.033099506,inf,inf,inf,inf,1,1,1,1,8,5,5,2,7,1,0,0,1,0
861946875,861946354,0,nan,nan,1.5384691,1.517456,-0.34821784,1.0054654,2.6427975,0.24295658,0.034570985,0.11076551,-0.001208616,-0.0010525149,-2.4855537,-0.16062875,-0.00048217044,-0.68847966,-0.83643967,0.040129013,1.5285418,0.16137503,nan,0.10044721,0.02412012,0.016893707,0.04799307,0.03307114,inf,inf,inf,inf,1,1,1,1,8,5,5,2,7,1,0,0,1,0
861964974,861964356,0,nan,nan,1.5385221,1.5172411,-0.34821877,1.0054654,2.6427975,0.24295658,0.03148481,0.11104759,-0.0019760856,-0.0018042303,-2.4855537,-0.16062875,-0.00048217044,-0.3137163,-0.25434282,-0.24030474,1.5285296,0.16137503,nan,0.10044813,0.02439973,0.017084053,0.048344,0.03330841,inf,inf,inf,inf,1,1,1,1,8,5,5,2,7,1,0,0,1,0
861982986,861982407,0,nan,nan,1.5386093,1.5171661,-0.34822515,1.0054654,2.6427975,0.24295658,0.0352791,0.111849114,-0.0019494822,-0.0017621386,-2.4855537,-0.16062875,-0.00048217044,0.44910142,0.17388608,-0.2413027,1.5285766,0.16137503,nan,0.10045451,0.024316452,0.017025348,0.04829121,0.03327524,inf,inf,inf,inf,1,1,1,1,8,5,5,2,7,1,0,0,1,0
862000806,862000359,0,nan,nan,1.5386639,1.5168848,-0.34822488,1.0054654,2.6427975,0.24295658,0.03505251,0.109890305,-0.0038064986,-0.0036040563,-2.4855537,-0.16062875,-0.00048217044,0.27184048,0.3264026,-0.575116,1.5284675,0.16137503,nan,0.10045424,0.024239227,0.016970718,0.048275743,0.033248715,inf,inf,inf,inf,1,1,1,1,8,5,5,2,7,1,0,0,1,0
862018798,862018360,0,nan,nan,1.5387381,1.5165762,-0.34822866,1.0054654,2.6427975,0.24295658,0.03466219,0.109112464,-0.0024534645,-0.0022363446,-2.4855537,-0.16062875,-0.00048217044,-0.20879935,0.04713876,-0.2693671,1.5284716,0.16137503,nan,0.100458026,0.024167202,0.016919594,0.048238717,0.033227764,inf,inf,inf,inf,1,1,1,1,8,5,5,2,7,1,0,0,1,0
862045675,862045365,0,nan,nan,1.5388145,1.5160723,-0.34822673,1.0054654,2.6427975,0.24295658,0.034212336,0.106252804,0.00010943276,0.00034745652,-2.4855537,-0.16062875,-0.00048217044,0.2917653,-0.51382124,0.15739751,1.5284777,0.16137503,nan,0.10045609,0.024424305,0.017093506,0.048599966,0.03346807,inf,inf,inf,inf,1,1,1,1,8,5,5,2,7,1,0,0,1,0
862063875,862063364,0,nan,nan,1.5388517,1.5157309,-0.3482199,1.0054654,2.6427975,0.24295658,0.031954885,0.10520699,0.0005627908,0.0008141778,-2.4855537,-0.16062875,-0.00048217044,-0.04886574,-0.48839766,0.14348511,1.5284284,0.16137503,nan,0.100449264,0.024342012,0.017035788,0.048540726,0.033432227,inf,inf,inf,inf,1,1,1,1,8,5,5,2,7,1,0,0,1,0
862082054,862081366,0,nan,nan,1.538904,1.5154989,-0.34820902,1.0054654,2.6427975,0.24295658,0.030013649,0.103855506,-0.0017755617,-0.001511132,-2.4855537,-0.16062875,-0.00048217044,-0.41065785,0.15481572,-0.49232212,1.5284517,0.16137503,nan,0.100438386,0.024265021,0.016981754,0.04848918,0.03340244,inf,inf,inf,inf,1,1,1,1,8,5,5,2,7,1,0,0,1,0
862101333,862099368,0,nan,nan,1.5388627,1.5151027,-0.34820685,1.0054654,2.6427975,0.24295658,0.027940044,0.10110702,-0.0021289233,-0.0018520149,-2.4855537,-0.16062875,-0.00048217044,-0.13232622,-0.51888496,-0.111902855,1.5284764,0.16137503,nan,0.10043621,0.024193076,0.01693122,0.04844676,0.033378012,inf,inf,inf,inf,1,1,1,1,8,5,5,2,7,1,0,0,1,0
862126847,862126370,0,nan,nan,1.5388118,1.5144644,-0.34821254,1.0054654,2.6427975,0.24295658,0.032058813,0.10229045,-0.001966075,-0.0016718322,-2.4855537,-0.16062875,-0.00048217044,0.4515693,0.38920504,-0.44047403,1.5284683,0.16137503,nan,0.1004419,0.02409428,0.016861754,0.04842681,0.03335064,inf,inf,inf,inf,1,1,1,1,8,5,5,2,7,1,0,0,1,0
862144953,862144372,0,nan,nan,1.5387698,1.5140041,-0.34821802,1.0054654,2.6427975,0.24295658,0.027910259,0.09779584,-0.0018457089,-0.0015413314,-2.4855537,-0.16062875,-0.00048217044,-0.5497693,-0.038165886,-0.54418385,1.5284851,0.16137503,nan,0.10044739,0.024379777,0.01705615,0.04877738,0.03358752,inf,inf,inf,inf,1,1,1,1,8,5,5,2,7,1,0,0,1,0
862162932,862162421,0,nan,nan,1.538712,1.5135078,-0.348224,1.0054654,2.6427975,0.24295658,0.027397739,0.09682054,-0.0015887696,-0.0012755758,-2.4855537,-0.16062875,-0.00048217044,-0.509849,0.32231715,-0.21530695,1.5285558,0.16137503,nan,0.10045338,0.024303135,0.017002612,0.048719823,0.03355328,inf,inf,inf,inf,1,1,1,1,8,5,5,2,7,1,0,0,1,0
862180859,862180375,0,nan,nan,1.5386058,1.5130239,-0.3482278,1.0054654,2.6427975,0.24295658,0.023440903,0.096308395,-0.0019876487,-0.0016663045,-2.4855537,-0.16062875,-0.00048217044,-0.3396864,-0.13821998,-0.25473344,1.5284956,0.16137503,nan,0.10045716,0.024231456,0.016952522,0.048671264,0.03352433,inf,inf,inf,inf,1,1,1,1,8,5,5,2,7,1,0,0,1,0
862198872,862198376,0,nan,nan,1.5384927,1.512528,-0.3482259,1.0054654,2.6427975,0.24295658,0.025203869,0.098067924,-0.0018153978,-0.0014867098,-2.4855537,-0.16062875,-0.00048217044,-0.04648999,1.304456,-0.110331096,1.5284672,0.16137503,nan,0.100455254,0.024164466,0.016905695,0.048628923,0.03350032,inf,inf,inf,inf,1,1,1,1,8,5,5,2,7,1,0,0,1,0
862225932,862225379,0,nan,nan,1.5382818,1.5117453,-0.34822956,1.0054654,2.6427975,0.24295658,0.023346217,0.09238775,-0.0028788585,-0.0025414862,-2.4855537,-0.16062875,-0.00048217044,0.45220116,-0.2352795,-0.42140648,1.5286041,0.16137503,nan,0.10045892,0.024072269,0.016841218,0.048580337,0.033472314,inf,inf,inf,inf,1,1,1,1,8,5,5,2,7,1,0,0,1,0
862243905,862243380,0,nan,nan,1.5382112,1.5112857,-0.34822807,1.0054654,2.6427975,0.24295658,0.028063348,0.08926506,-0.00055223063,-0.00021029629,-2.4855537,-0.16062875,-0.00048217044,0.68817896,0.7180447,0.08234049,1.5283937,0.16137503,nan,0.10045743,0.024361016,0.017038034,0.048960205,0.033708595,inf,inf,inf,inf,1,1,1,1,8,5,5,2,7,1,0,0,1,0
862261863,862261382,0,nan,nan,1.5380975,1.5106688,-0.34824193,1.0054654,2.6427975,0.24295658,0.026541626,0.090579495,-0.0014734813,-0.0011279354,-2.4855537,-0.16062875,-0.00048217044,-0.7667482,0.062371064,0.2294614,1.5282025,0.16137503,nan,0.10047129,0.024288468,0.016987596,0.048899412,0.033673212,inf,inf,inf,inf,1,1,1,1,8,5,5,2,7,1,0,0,1,0
862279864,862279383,0,nan,nan,1.5380094,1.5100313,-0.34826407,1.0054654,2.6427975,0.24295658,0.026376206,0.0832692,-0.0015634885,-0.0012154301,-2.4855537,-0.16062875,-0.00048217044,-0.8614437,-1.2862504,0.045668416,1.5284593,0.16137503,nan,0.10049343,0.024220584,0.016940398,0.048853196,0.03364281,inf,inf,inf,inf,1,1,1,1,8,5,5,2,7,1,0,0,1,0
862306884,862306386,0,nan,nan,1.5379689,1.5090702,-0.34830594,1.0054654,2.6427975,0.24295658,0.03589315,0.08417903,-0.002481294,-0.002131046,-2.4855537,-0.16062875,-0.00048217044,-0.1343427,-1.8681613,-0.44930393,1.5286021,0.16137503,nan,0.1005353,0.024127053,0.01687529,0.04878443,0.03360553,inf,inf,inf,inf,1,1,1,1,8,5,5,2,7,1,0,0,1,0
862325020,862324388,0,nan,nan,1.5380056,1.5084907,-0.34832945,1.0054654,2.6427975,0.24295658,0.032066662,0.086345166,-0.0016274644,-0.0012767304,-2.4855537,-0.16062875,-0.00048217044,-0.8785719,0.028472144,-0.10258879,1.5283339,0.16137503,nan,0.10055882,0.024416449,0.017072717,0.04912916,0.033838112,inf,inf,inf,inf,1,1,1,1,8,5,5,2,7,1,0,0,1,0
862342959,862342437,0,nan,nan,1.5380224,1.5079377,-0.348349,1.0054654,2.6427975,0.24295658,0.035533525,0.09047131,-0.0018976883,-0.0015465646,-2.4855537,-0.16062875,-0.00048217044,0.64182997,1.2501659,0.37980366,1.5282847,0.16137503,nan,0.10057837,0.024341848,0.01702133,0.049061585,0.033795986,inf,inf,inf,inf,1,1,1,1,8,5,5,2,7,1,0,0,1,0
862360902,862360391,0,nan,nan,1.5379819,1.5073754,-0.34838524,1.0054654,2.6427975,0.24295658,0.030234806,0.08955908,-0.0019555443,-0.0016044489,-2.4855537,-0.16062875,-0.00048217044,-1.451266,0.5467914,0.047193836,1.5282816,0.16137503,nan,0.10061461,0.02427201,0.016973194,0.048998382,0.03375927,inf,inf,inf,inf,1,1,1,1,8,5,5,2,7,1,0,0,1,0
862387937,862387441,0,nan,nan,1.5378487,1.5065814,-0.34841645,1.0054654,2.6427975,0.24295658,0.026729776,0.08374312,-0.0013663137,-0.0010181166,-2.4855537,-0.16062875,-0.00048217044,-0.49012724,-0.7567214,-0.17028275,1.5280132,0.16137503,nan,0.10064581,0.02417583,0.016906878,0.048952203,0.033713315,inf,inf,inf,inf,1,1,1,1,8,5,5,2,7,1,0,0,1,0
862405882,862405395,0,nan,nan,1.5376836,1.5059019,-0.34845203,1.0054654,2.6427975,0.24295658,0.023613837,0.080327794,-0.0034038997,-0.003059426,-2.4855537,-0.16062875,-0.00048217044,-0.5844622,-0.01872808,0.052272834,1.5282094,0.16137503,nan,0.100681394,0.024117583,0.016866472,0.04891162,0.033688102,inf,inf,inf,inf,1,1,1,1,8,5,5,2,7,1,0,0,1,0
862423914,862423396,0,nan,nan,1.5375392,1.5053093,-0.34850296,1.0054654,2.6427975,0.24295658,0.025225315,0.08720448,-0.0032299673,-0.0028899955,-2.4855537,-0.16062875,-0.00048217044,0.61074746,1.3745955,-0.00020680774,1.5281878,0.16137503,nan,0.10073233,0.024409497,0.017065663,0.04925575,0.03391968,inf,inf,inf,inf,1,1,1,1,8,5,5,2,7,1,0,0,1,0
862441886,862441398,0,nan,nan,1.5374038,1.5047468,-0.34854525,1.0054654,2.6427975,0.24295658,0.026668979,0.08335129,-0.002780996,-0.002446465,-2.4855537,-0.16062875,-0.00048217044,-0.3472117,-0.69236845,-0.43511742,1.5284504,0.16137503,nan,0.100774616,0.024337586,0.017016253,0.049184263,0.03387579,inf,inf,inf,inf,1,1,1,1,8,5,5,2,7,1,0,0,1,0
862460029,862459399,0,nan,nan,1.5372428,1.5042261,-0.34861207,1.0054654,2.6427975,0.24295658,0.025074132,0.090793155,-0.0061430037,-0.0058152466,-2.4855537,-0.16062875,-0.00048217044,0.7982443,1.4958255,-0.36535653,1.5282474,0.16137503,nan,0.10084143,0.02427024,0.016969932,0.049120326,0.033837114,inf,inf,inf,inf,1,1,1,1,8,5,5,2,7,1,0,0,1,0
862478003,862477448,0,nan,nan,1.5370084,1.5037559,-0.34877008,1.0054654,2.6427975,0.24295658,0.01729372,0.08718635,-0.009700848,-0.009381446,-2.4855537,-0.16062875,-0.00048217044,-0.5942747,-1.3067956,-0.20359522,1.5282408,0.16137503,nan,0.100999445,0.024207132,0.01692653,0.049061283,0.03380279,inf,inf,inf,inf,1,1,1,1,8,5,5,2,7,1,0,0,1,0
862504849,862504404,0,nan,nan,1.5364667,1.5032526,-0.34907287,1.0054654,2.6427975,0.24295658,0.009716608,0.09242035,-0.01123894,-0.010936655,-2.4855537,-0.16062875,-0.00048217044,0.97557354,-0.4475309,0.07229114,1.528569,0.16137503,nan,0.10130224,0.02447861,0.017111741,0.049397215,0.034027945,inf,inf,inf,inf,1,1,1,1,8,5,5,2,7,1,0,0,1,0
862522964,862522453,0,nan,nan,1.5359844,1.5030094,-0.34928936,1.0054654,2.6427975,0.24295658,0.0044892016,0.099795625,-0.010753904,-0.010465062,-2.4855537,-0.16062875,-0.00048217044,-0.9880862,0.5072964,0.41002136,1.5285121,0.16137503,nan,0.10151872,0.024403617,0.01706055,0.049338743,0.03397672,inf,inf,inf,inf,1,1,1,1,8,5,5,2,7,1,0,0,1,0
862540870,862540409,0,nan,nan,1.5354303,1.5027848,-0.34958753,1.0054654,2.6427975,0.24295658,0.008014418,0.09678084,-0.01868065,-0.018404968,-2.4855537,-0.16062875,-0.00048217044,2.035277,-1.4854506,0.358094,1.528595,0.16137503,nan,0.10181689,0.024333814,0.017012665,0.04926689,0.033931326,inf,inf,inf,inf,1,1,1,1,8,5,5,2,7,1,0,0,1,0
862558898,862558410,0,nan,nan,1.5348121,1.5028152,-0.34999388,1.0054654,2.6427975,0.24295658,0.0013816408,0.107464455,-0.021176191,-0.020915944,-2.4855537,-0.16062875,-0.00048217044,1.3118662,0.37362552,0.20183934,1.529177,0.16137503,nan,0.10222325,0.024268351,0.016967725,0.049204595,0.03389085,inf,inf,inf,inf,1,1,1,1,8,5,5,2,7,1,0,0,1,0
862585925,862585411,0,nan,nan,1.533791,1.5028094,-0.35066107,1.0054654,2.6427975,0.24295658,-0.010374985,0.11357832,-0.025076184,-0.024848673,-2.4855537,-0.16062875,-0.00048217044,-1.9212871,0.14937326,0.033467274,1.5296493,0.16137503,nan,0.10289043,0.024177827,0.016905524,0.049116224,0.033838406,inf,inf,inf,inf,1,1,1,1,8,5,5,2,7,1,0,0,1,0
862603847,862603412,0,nan,nan,1.5330307,1.5029824,-0.3511656,1.0054654,2.6427975,0.24295658,-0.009203092,0.11852353,-0.030577164,-0.030377038,-2.4855537,-0.16062875,-0.00048217044,-0.0017203186,0.2045932,-0.4332397,1.5297055,0.16137503,nan,0.103394955,0.024471074,0.017105883,0.049453054,0.03406529,inf,inf,inf,inf,1,1,1,1,8,5,5,2,7,1,0,0,1,0
862621909,862621414,0,nan,nan,1.5321215,1.5033098,-0.35177597,1.0054654,2.6427975,0.24295658,-0.02185566,0.12624663,-0.034765318,-0.034602333,-2.4855537,-0.16062875,-0.00048217044,-1.423636,0.83820647,-0.39282575,1.5299118,0.16137503,nan,0.10400534,0.024397654,0.017055776,0.049384177,0.03401263,inf,inf,inf,inf,1,1,1,1,8,5,5,2,7,1,0,0,1,0
862640000,862639415,0,nan,nan,1.5310467,1.5036464,-0.35245463,1.0054654,2.6427975,0.24295658,-0.03155388,0.12440821,-0.03903278,-0.03891644,-2.4855537,-0.16062875,-0.00048217044,-1.9148161,1.0595871,-0.82469654,1.5304102,0.16137503,nan,0.104683995,0.02432885,0.017008707,0.049306806,0.033965543,inf,inf,inf,inf,1,1,1,1,8,5,5,2,7,1,0,0,1,0
862666976,862666418,0,nan,nan,1.5292922,1.5042614,-0.35359946,1.0054654,2.6427975,0.24295658,-0.02931724,0.12315701,-0.04235167,-0.04232694,-2.4855537,-0.16062875,-0.00048217044,1.3488939,-0.8957696,-0.290063,1.5313412,0.16137503,nan,0.10582882,0.02423377,0.016943555,0.049222976,0.033904217,inf,inf,inf,inf,1,1,1,1,8,5,5,2,7,1,0,0,1,0
862684890,862684419,0,nan,nan,1.5279888,1.504986,-0.35451862,1.0054654,2.6427975,0.24295658,-0.029967586,0.12934166,-0.046409465,-0.046458595,-2.4855537,-0.16062875,-0.00048217044,2.61787,0.07335792,-0.39238003,1.5320958,0.16137503,nan,0.106747985,0.02453662,0.017150301,0.04958621,0.03414114,inf,inf,inf,inf,1,1,1,1,8,5,5,2,7,1,0,0,1,0
862702949,862702469,0,nan,nan,1.5266587,1.5056419,-0.35542887,1.0054654,2.6427975,0.24295658,-0.029126873,0.1350572,-0.050733488,-0.050865773,-2.4855537,-0.16062875,-0.00048217044,4.3641787,-0.41013932,-0.5521183,1.5329723,0.16137503,nan,0.10765824,0.024460258,0.017098151,0.04953214,0.03408258,inf,inf,inf,inf,1,1,1,1,8,5,5,2,7,1,0,0,1,0
862720906,862720422,0,nan,nan,1.5253407,1.5064383,-0.35648233,1.0054654,2.6427975,0.24295658,-0.032127626,0.13518976,-0.056401305,-0.056633726,-2.4855537,-0.16062875,-0.00048217044,2.6763818,-1.5139424,0.09824973,1.5339576,0.16137503,nan,0.10871169,0.024389181,0.017049279,0.049455523,0.034030028,inf,inf,inf,inf,1,1,1,1,8,5,5,2,7,1,0,0,1,0
862748041,862747472,0,nan,nan,1.5232164,1.5077192,-0.3583275,1.0054654,2.6427975,0.24295658,-0.046177264,0.14111584,-0.06557597,-0.06599201,-2.4855537,-0.16062875,-0.00048217044,0.52211636,-0.63717836,0.66480345,1.5353569,0.16137503,nan,0.11055687,0.024290668,0.016981408,0.049349703,0.033961233,inf,inf,inf,inf,1,1,1,1,8,5,5,2,7,1,0,0,1,0
862766063,862765427,0,nan,nan,1.5216761,1.5087779,-0.3597719,1.0054654,2.6427975,0.24295658,-0.04863017,0.14752409,-0.07624901,-0.07679705,-2.4855537,-0.16062875,-0.00048217044,0.6032095,-0.60111946,0.5892194,1.5360742,0.16137503,nan,0.11200127,0.024583688,0.017181268,0.049691007,0.034182318,inf,inf,inf,inf,1,1,1,1,8,5,5,2,7,1,0,0,1,0
862783928,862783428,0,nan,nan,1.5200719,1.5100644,-0.36138564,1.0054654,2.6427975,0.24295658,-0.058452666,0.16151269,-0.08791862,-0.08860411,-2.4855537,-0.16062875,-0.00048217044,-1.3204285,0.3151532,-0.47881833,1.5366858,0.16137503,nan,0.113615006,0.024870956,0.017377254,0.05001119,0.034391332,inf,inf,inf,inf,1,1,1,1,8,5,5,2,7,1,0,0,1,0
862801941,862801430,0,nan,nan,1.5184169,1.5115652,-0.36327744,1.0054654,2.6427975,0.24295658,-0.08067839,0.17296669,-0.10307415,-0.10392131,-2.4855537,-0.16062875,-0.00048217044,-8.613545,2.0592666,-0.3300299,1.5373592,0.16137503,nan,0.1155068,0.024773646,0.017310854,0.049885973,0.03430678,inf,inf,inf,inf,1,1,1,1,8,5,5,2,7,1,0,0,1,0
862828960,862828432,0,nan,nan,1.5155748,1.5145761,-0.3669283,1.0054654,2.6427975,0.24295658,-0.070738986,0.18841223,-0.13215151,-0.1332885,-2.4855537,-0.16062875,-0.00048217044,-3.1120305,-0.11219483,-0.054190457,1.5382699,0.16137503,nan,0.11915767,0.024638524,0.017218484,0.049715567,0.034194864,inf,inf,inf,inf,1,1,1,1,8,5,5,2,7,1,0,0,1,0
862838010,862837480,0,nan,nan,1.5146482,1.5156397,-0.36830118,1.0054654,2.6427975,0.24295658,-0.06303507,0.19874424,-0.14297357,-0.14422113,-2.4855537,-0.16062875,-0.00048217044,-0.4832133,0.17057519,0.31314522,1.5385735,0.16137503,nan,0.120530546,0.024596492,0.0171897,0.04969809,0.034161445,inf,inf,inf,inf,1,1,1,1,8,5,5,2,7,1,0,0,1,0
862864845,862864436,0,nan,nan,1.5117697,1.5192233,-0.3730164,1.0054654,2.6427975,0.24295658,-0.096426606,0.2186624,-0.17471355,-0.17632642,-2.4855537,-0.16062875,-0.00048217044,-10.006627,2.339039,-0.38757002,1.5398847,0.16137503,nan,0.12524575,0.024853727,0.017364468,0.049995627,0.034354236,inf,inf,inf,inf,1,1,1,1,8,5,5,2,7,1,0,0,1,0
862883009,862882484,0,nan,nan,1.5096959,1.5218662,-0.37665686,1.0054654,2.6427975,0.24295658,-0.10434702,0.22513181,-0.1982927,-0.20017299,-2.4855537,-0.16062875,-0.00048217044,-11.092971,1.6832769,-1.0082858,1.5411435,0.16137503,nan,0.12888622,0.02475741,0.01729847,0.049877834,0.03427243,inf,inf,inf,inf,1,1,1,1,8,5,5,2,7,1,0,0,1,0
862900896,862900438,0,nan,nan,1.5073979,1.5247023,-0.3807892,1.0054654,2.6427975,0.24295658,-0.098545715,0.23042406,-0.22314964,-0.22533584,-2.4855537,-0.16062875,-0.00048217044,-3.3046849,0.27900052,-0.48363242,1.5420743,0.16137503,nan,0.13301855,0.024666978,0.017236365,0.049774706,0.03419847,inf,inf,inf,inf,1,1,1,1,8,5,5,2,7,1,0,0,1,0
862918993,862918440,0,nan,nan,1.5050721,1.5277556,-0.38542616,1.0054654,2.6427975,0.24295658,-0.08306344,0.23764443,-0.2521365,-0.25467196,-2.4855537,-0.16062875,-0.00048217044,1.8987522,-0.7873144,-0.6676707,1.5426817,0.16137503,nan,0.13765553,0.024582168,0.01717794,0.049690887,0.034131743,inf,inf,inf,inf,1,1,1,1,8,5,5,2,7,1,0,0,1,0
862945965,862945442,0,nan,nan,1.5013167,1.5325154,-0.39347875,1.0054654,2.6427975,0.24295658,-0.10815438,0.24810903,-0.2997469,-0.3028998,-2.4855537,-0.16062875,-0.00048217044,-2.680018,2.0104182,-2.090996,1.544086,0.16137503,nan,0.14570811,0.024464967,0.017096791,0.049590796,0.034043882,inf,inf,inf,inf,1,1,1,1,8,5,5,2,7,1,0,0,1,0
862963893,862963444,0,nan,nan,1.4984533,1.5363593,-0.40010837,1.0054654,2.6427975,0.24295658,-0.10650728,0.2562267,-0.3402606,-0.34384748,-2.4855537,-0.16062875,-0.00048217044,0.9318737,0.4380922,-2.3973,1.5450139,0.16137503,nan,0.15233773,0.024754066,0.017293138,0.04994763,0.034258805,inf,inf,inf,inf,1,1,1,1,8,5,5,2,7,1,0,0,1,0
862981972,862981445,0,nan,nan,1.4956712,1.540003,-0.40694067,1.0054654,2.6427975,0.24295658,-0.10565457,0.26011288,-0.36577824,-0.36985806,-2.4855537,-0.16062875,-0.00048217044,2.2559748,-0.42536175,-1.0992268,1.5457249,0.16137503,nan,0.15917003,0.024665006,0.017231261,0.049907226,0.034185812,inf,inf,inf,inf,1,1,1,1,8,5,5,2,7,1,0,0,1,0
862999961,862999447,0,nan,nan,1.4927815,1.5437872,-0.4144177,1.0054654,2.6427975,0.24295658,-0.12166009,0.26768845,-0.4041045,-0.40874252,-2.4855537,-0.16062875,-0.00048217044,-1.3433408,1.0756601,-2.7025712,1.5466323,0.16137503,nan,0.16664708,0.024581991,0.01717307,0.049857233,0.034120128,inf,inf,inf,inf,1,1,1,1,8,5,5,2,7,1,0,0,1,0
863026969,863026449,0,nan,nan,1.488334,1.5497776,-0.42686534,1.0054654,2.6427975,0.24295658,-0.14951861,0.27913964,-0.4517725,-0.4573855,-2.4855537,-0.16062875,-0.00048217044,-14.342245,2.0649595,-3.2163036,1.5488086,0.16137503,nan,0.1790947,0.024467817,0.01709225,0.0497808,0.034034345,inf,inf,inf,inf,1,1,1,1,8,5,5,2,7,1,0,0,1,0
863044846,863044451,0,nan,nan,1.4853218,1.5539869,-0.43595275,1.0054654,2.6427975,0.24295658,-0.11137836,0.2871261,-0.4834525,-0.48977855,-2.4855537,-0.16062875,-0.00048217044,1.1798,0.6761183,-3.848245,1.5494511,0.16137503,nan,0.18818212,0.02476953,0.017295456,0.05017642,0.034263078,inf,inf,inf,inf,1,1,1,1,8,5,5,2,7,1,0,0,1,0
863063023,863062500,0,nan,nan,1.4822611,1.5583636,-0.44565973,1.0054654,2.6427975,0.24295658,-0.10538762,0.2863109,-0.5143329,-0.5214162,-2.4855537,-0.16062875,-0.00048217044,6.9065113,0.2960307,-2.5920136,1.5501039,0.16137503,nan,0.19788909,0.024681434,0.017233172,0.050112046,0.03418979,inf,inf,inf,inf,1,1,1,1,8,5,5,2,7,1,0,0,1,0
863080806,863080458,0,nan,nan,1.4790205,1.5632551,-0.4568885,1.0054654,2.6427975,0.24295658,-0.1267763,0.29180586,-0.5510656,-0.55896205,-2.4855537,-0.16062875,-0.00048217044,-1.583005,0.55783856,-1.6567072,1.5509672,0.16137503,nan,0.20911786,0.024980111,0.017433655,0.05051758,0.03441031,inf,inf,inf,inf,1,1,1,1,8,5,5,2,7,1,0,0,1,0
863108030,863107504,0,nan,nan,1.4743922,1.5702718,-0.47386476,1.0054654,2.6427975,0.24295658,-0.12385081,0.29335237,-0.5970684,-0.6063136,-2.4855537,-0.16062875,-0.00048217044,-1.3481286,-2.5437942,-1.0947348,1.5527017,0.16137503,nan,0.22609413,0.02483179,0.017328544,0.05044985,0.034280743,inf,inf,inf,inf,1,1,1,1,8,5,5,2,7,1,0,0,1,0
863125942,863125458,0,nan,nan,1.4712733,1.5750533,-0.4860974,1.0054654,2.6427975,0.24295658,-0.12480415,0.30201593,-0.63978285,-0.6500593,-2.4855537,-0.16062875,-0.00048217044,-0.85149306,0.1300049,-2.2101455,1.5536002,0.16137503,nan,0.23832676,0.024742138,0.0172639,0.050393138,0.034205098,inf,inf,inf,inf,1,1,1,1,8,5,5,2,7,1,0,0,1,0
863143902,863143460,0,nan,nan,1.4681513,1.5799117,-0.49900943,1.0054654,2.6427975,0.24295658,-0.13275893,0.30752316,-0.67601454,-0.6873268,-2.4855537,-0.16062875,-0.00048217044,-2.8870811,2.8096159,-3.5210955,1.5547832,0.16137503,nan,0.2512388,0.025031442,0.01745647,0.05077027,0.03441093,inf,inf,inf,inf,1,1,1,1,8,5,5,2,7,1,0,0,1,0
863161949,863161461,0,nan,nan,1.465084,1.5848045,-0.5127388,1.0054654,2.6427975,0.24295658,-0.12502325,0.3084312,-0.71665525,-0.729102,-2.4855537,-0.16062875,-0.00048217044,-2.737319,2.1130602,-3.6362014,1.5560635,0.16137503,nan,0.2649682,0.024929555,0.0173833,0.050688546,0.034321368,inf,inf,inf,inf,1,1,1,1,8,5,5,2,7,1,0,0,1,0
863180016,863179463,0,nan,nan,1.4619454,1.5897561,-0.52735204,1.0054654,2.6427975,0.24295658,-0.111155264,0.2994666,-0.75612843,-0.76981056,-2.4855537,-0.16062875,-0.00048217044,5.013851,-0.65108675,-2.0897298,1.5569614,0.16137503,nan,0.2795814,0.024834584,0.017314522,0.05063125,0.034240555,inf,inf,inf,inf,1,1,1,1,8,5,5,2,7,1,0,0,1,0
863206974,863206465,0,nan,nan,1.4573259,1.5971695,-0.5508902,1.0054654,2.6427975,0.24295658,-0.116058685,0.29641572,-0.81348073,-0.82921135,-2.4855537,-0.16062875,-0.00048217044,1.6426061,-1.0113995,-1.6415256,1.5581537,0.16137503,nan,0.30311957,0.024704272,0.017219052,0.05055269,0.03413373,inf,inf,inf,inf,1,1,1,1,8,5,5,2,7,1,0,0,1,0
863224855,863224467,0,nan,nan,1.4541239,1.6024762,-0.5688118,1.0054654,2.6427975,0.24295658,-0.12823473,0.2916131,-0.8540383,-0.8712097,-2.4855537,-0.16062875,-0.00048217044,-6.8424897,-1.1350484,-2.1789858,1.5596253,0.16137503,nan,0.32104114,0.025007179,0.017418798,0.050997168,0.034356453,inf,inf,inf,inf,1,1,1,1,8,5,5,2,7,1,0,0,1,0
863242990,863242516,0,nan,nan,1.4511075,1.6072825,-0.5861706,1.0054654,2.6427975,0.24295658,-0.0979233,0.28228748,-0.8843665,-0.9030142,-2.4855537,-0.16062875,-0.00048217044,7.8037114,-2.1857438,-2.053715,1.5608027,0.16137503,nan,0.33839998,0.024909897,0.01734776,0.050917674,0.034272064,inf,inf,inf,inf,1,1,1,1,8,5,5,2,7,1,0,0,1,0
863260968,863260472,0,nan,nan,1.447932,1.6118742,-0.60422486,1.0054654,2.6427975,0.24295658,-0.10710184,0.26453215,-0.9135163,-0.9337336,-2.4855537,-0.16062875,-0.00048217044,11.885217,-3.1784692,-0.6041148,1.5614446,0.16137503,nan,0.35645422,0.024819214,0.017281013,0.050849088,0.034196056,inf,inf,inf,inf,1,1,1,1,8,5,5,2,7,1,0,0,1,0
863278940,863278472,0,nan,nan,1.4446378,1.6162503,-0.622894,1.0054654,2.6427975,0.24295658,-0.11888788,0.26204798,-0.9381477,-0.96003085,-2.4855537,-0.16062875,-0.00048217044,7.786164,-0.5693669,-1.0382373,1.562466,0.16137503,nan,0.37512335,0.024734745,0.01721831,0.050819915,0.03412777,inf,inf,inf,inf,1,1,1,1,8,5,5,2,7,1,0,0,1,0
863305957,863305474,0,nan,nan,1.4397553,1.6226298,-0.6518368,1.0054654,2.6427975,0.24295658,-0.12788033,0.25612056,-0.9681289,-0.99269426,-2.4855537,-0.16062875,-0.00048217044,1.5789933,0.8506559,-1.5399246,1.5645056,0.16137503,nan,0.40406618,0.024619397,0.017131379,0.05077993,0.034038436,inf,inf,inf,inf,1,1,1,1,8,5,5,2,7,1,0,0,1,0
863323971,863323476,0,nan,nan,1.4365138,1.626763,-0.6715959,1.0054654,2.6427975,0.24295658,-0.1383936,0.24476168,-0.9831978,-1.0095339,-2.4855537,-0.16062875,-0.00048217044,-0.925103,-0.48533764,-1.0413706,1.5657389,0.16137503,nan,0.42382523,0.024917308,0.017325653,0.051178712,0.034252904,inf,inf,inf,inf,1,1,1,1,8,5,5,2,7,1,0,0,1,0
863342083,863341477,0,nan,nan,1.4333676,1.6308467,-0.69175017,1.0054654,2.6427975,0.24295658,-0.12821436,0.24937175,-0.9966704,-1.024851,-2.4855537,-0.16062875,-0.00048217044,-0.37524837,0.14311403,-0.27293137,1.5668613,0.16137503,nan,0.44397953,0.024829097,0.017260062,0.051123697,0.03417935,inf,inf,inf,inf,1,1,1,1,8,5,5,2,7,1,0,0,1,0
