timestamp,gyro_rad[0],gyro_rad[1],gyro_rad[2],gyro_integral_dt,accelerometer_timestamp_relative,accelerometer_m_s2[0],accelerometer_m_s2[1],accelerometer_m_s2[2],accelerometer_integral_dt,accelerometer_clipping,gyro_clipping,accel_calibration_count,gyro_calibration_count
859885172,0.0028992773,0.00054101535,0.0036935606,4498,0,0.43194497,0.1176366,-9.824643,4451,0,0,2,1
859889720,0.0017100952,-0.0017974675,-0.0018236528,4548,0,0.46945348,0.12462673,-9.8121195,4450,0,0,2,1
859903173,-0.0045689847,0.0058917576,-0.00045926002,4500,0,0.43855637,0.15248676,-9.810091,4451,0,0,2,1
859925676,0.004012526,0.005541071,0.0013733791,4501,0,0.44739693,0.11529705,-9.830888,4452,0,0,2,1
859948177,-0.004509042,0.0009748803,-0.0023400486,4500,0,0.46505678,0.1595179,-9.780872,4449,0,0,2,1
859961679,0.00017096518,0.0020214098,-0.00438734,4453,0,0.4782984,0.1431981,-9.812163,4450,0,0,2,1
859984181,-0.0027394204,0.0076729483,0.00771625,4453,0,0.44738382,0.1221814,-9.864323,4450,0,0,2,1
860006685,-0.0022907637,0.004950435,-0.0056105503,4455,0,0.46504018,0.07811341,-9.849598,4450,0,0,2,1
860024732,-0.0007675158,-0.0038476817,-0.007897121,4548,0,0.4335739,0.1257707,-9.829341,5933,0,0,2,1
860042686,-0.00032365738,0.009500222,0.005978952,4501,0,0.94865555,-0.7131727,-9.805995,4450,0,0,2,1
860065188,0.025556518,-0.020219976,0.038443226,4501,0,0.33479422,-0.12386559,-9.805243,4450,0,0,2,1
860087690,-0.002030532,0.0018703531,-0.053911917,4501,0,0.016816499,0.20101821,-9.893684,4449,0,0,2,1
860105691,0.025968589,-0.040932775,-0.005142353,4500,0,1.2290132,0.03869101,-9.841266,4449,0,0,2,1
860123693,-0.013113255,-0.031912576,0.08211259,4500,0,0.37455085,-0.05133265,-9.640417,4449,0,0,2,1
860146195,-0.023665516,0.0060732756,-0.04115213,4501,0,0.16665721,0.14092526,-9.7180195,4454,0,0,2,1
860164197,-0.0024876473,0.017077535,-0.098180056,4452,0,0.6594512,-0.026091522,-9.746767,4944,0,37,2,1
860177698,-0.001175391,-0.021218292,-0.009015803,4501,0,0.32592022,-0.28194487,-9.992808,4449,0,0,2,1
860204749,0.0057199076,-0.010760721,0.07375261,4549,0,0.26414564,-0.0848332,-10.030854,4449,0,0,2,1
860227249,-0.01436161,0.03579128,-0.03902923,4547,0,0.16046397,-0.13982679,-9.75083,4450,0,0,2,1
860245206,0.001311262,-0.005135044,-0.022582063,4502,0,0.6372924,-0.09325848,-9.703012,4449,0,0,2,1
860263205,0.042602167,-0.03656197,0.015733844,4500,0,1.27758,0.5310275,-9.729726,4450,0,0,2,1
860285708,0.052009992,0.005322731,0.009421756,4501,0,0.43874636,0.28024715,-9.726863,4450,0,0,2,1
860308209,0.040123105,0.045583677,-0.028382594,4499,0,0.95803803,1.6394517,-9.124601,4450,0,0,2,1
860326211,-0.025790349,0.106658734,-0.049110655,4500,0,-0.1882526,-0.38825586,-9.944209,4453,0,0,2,1
860344213,0.011824865,-0.08729442,-0.020157553,4453,0,1.6506163,1.2350445,-11.260286,4451,0,0,2,1
860366715,0.040134683,-0.052207485,0.018087417,4453,0,1.4032322,0.22359395,-11.119793,4451,0,0,2,1
860384764,-0.075497486,0.050114222,-0.007289651,4548,0,-0.17731969,0.87151563,-9.114249,4450,0,0,2,1
860402717,0.021888426,0.0053401743,-0.020295098,4500,0,0.76103204,0.5626602,-9.199271,4450,0,0,2,1
860425221,-0.009205596,-0.07447682,0.0075716707,4502,0,1.0193503,-0.5297254,-9.864846,4450,0,0,2,1
860447722,0.022939665,-0.07129525,0.016571159,4501,0,1.1270171,-0.121426046,-10.797374,4450,0,0,2,1
860465723,-0.06741647,0.03643378,-0.04384321,4499,0,0.21796136,0.017611785,-9.561037,4450,0,0,2,1
860483725,0.0004226498,-0.013755037,-0.017676966,4501,0,0.14502272,0.5969427,-9.343233,4450,0,0,2,1
860506227,-0.0016135073,-0.069914706,0.017583605,4501,0,0.9352739,1.5846584,-9.746831,4450,0,0,2,1
860524228,-0.012133499,0.0071127512,-0.00070433074,4452,0,-0.36952,-1.5208002,-10.833404,4450,0,0,2,1
860546730,-0.013513919,0.06722837,-0.046961714,4449,0,0.33240026,-0.09597629,-9.932672,4450,0,0,2,1
860564779,-0.009590627,-0.03209176,-0.0030776428,4547,0,0.97283024,1.5774566,-9.844886,4449,0,0,2,1
860587282,0.04675729,-0.063474216,0.027119672,4547,0,1.467508,0.7184349,-9.999507,4450,0,0,2,1
860605235,0.037082903,0.012728388,-0.0018251105,4500,0,0.12281504,-0.6087454,-10.419965,4455,0,0,2,1
860623237,-0.033807285,0.061038606,-0.028759679,4500,0,1.0435116,0.6914787,-9.514994,4450,0,0,2,1
860645741,0.009036353,0.03612544,0.020882508,4502,0,0.37704197,0.32091537,-9.248731,4450,0,0,2,1
860663742,0.036202013,-0.0515734,0.009367322,4502,0,1.5668342,-0.65556765,-10.100613,4450,0,0,2,1
860686243,-0.0038124952,-0.028446214,0.004620145,4501,0,-0.0073641543,-0.9790318,-10.327304,4450,0,0,2,1
860704244,-0.0346047,0.051809527,0.0064788735,4453,0,0.09397316,-0.087133676,-9.124471,4450,0,0,2,1
860726746,-0.033922967,0.023415444,-0.020616371,4453,0,0.7243665,1.3963236,-9.560208,4453,0,0,2,1
860744797,0.018217219,-0.08099242,0.01262889,4550,0,1.1669557,1.0163573,-10.597576,4450,0,0,2,1
860762750,-0.013095046,0.018578876,-0.023304917,4501,0,-0.37391475,-0.5062997,-9.753946,4450,0,0,2,1
860785254,-0.022756485,0.058635052,-0.010465775,4503,0,0.11622356,0.35260776,-9.589143,4449,0,0,2,1
860803255,-0.023761205,-0.022837196,-0.014241005,4502,0,1.7856817,1.0642718,-9.967003,4450,0,0,2,1
860825757,0.0642436,-0.014969131,0.013316693,4502,0,0.6283076,-0.43734056,-9.990583,4450,0,0,2,1
860843757,-0.010657561,0.032791846,-0.0035639168,4501,0,0.71658057,-0.0061115916,-10.106344,4451,0,0,2,1
860866259,-0.029687414,0.019967107,-0.0148022985,4501,0,0.6726496,-0.40233308,-9.913139,4450,0,0,2,1
860884261,0.024155343,-0.02831477,0.009869911,4454,0,0.5201036,0.42238984,-9.518636,4453,0,0,2,1
860906762,-0.0030726083,-0.019862836,-0.008796505,4453,0,0.7675475,-0.26036644,-9.754896,4450,0,0,2,1
860924812,-0.042018477,0.015536034,0.015686806,4549,0,-0.07578592,0.29667088,-9.64533,4450,0,0,2,1
860942765,0.010743533,0.020972122,-0.0031122991,4500,0,0.81397396,0.09709563,-9.703515,4450,0,0,2,1
860965267,0.010500909,-0.014026431,-0.018452737,4500,0,0.6328425,-0.43952227,-9.91518,4451,0,0,2,1
860983269,-0.0021988766,0.007339325,0.010900847,4500,0,0.66610104,-0.3518451,-9.980536,4451,0,0,2,1
861005777,-0.012739528,0.019000001,-0.00687984,4507,0,0.21331108,-0.13532254,-9.848961,4450,0,0,2,1
861023772,0.01532381,-0.0016760261,-0.0038365063,4495,0,0.6438166,0.34561005,-9.55994,4450,0,0,2,1
861046274,0.019242544,-0.0016865336,-0.011806505,4500,0,0.84050936,0.4193169,-9.810754,4449,0,0,2,1
861064276,0.0012299299,-0.024221752,0.012710294,4453,0,0.4672136,-0.026708499,-10.020636,4450,0,0,2,1
861082325,-0.0021591783,0.021702645,-0.009719824,4548,0,0.38558334,0.08779696,-9.68879,4449,0,0,2,1
861104827,-0.01970129,0.029596306,-0.0038721396,4548,0,0.7013669,0.62191385,-9.575268,4450,0,0,2,1
861127329,-0.0023383491,0.011025992,-0.005137482,4548,0,0.39594495,0.6138016,-9.666052,5932,0,0,2,1
861145283,-0.00090965367,-0.029436873,0.0028874583,4500,0,1.2443624,0.56951594,-10.0952835,4451,0,0,2,1
861163285,-0.0012542185,-0.010922094,-0.002784252,4501,0,0.4473167,-0.3557846,-9.817261,4450,0,0,2,1
861185788,-0.014563592,-0.015430342,0.017585289,4502,0,0.42314917,-0.28352615,-9.694164,4451,0,0,2,1
861203789,-0.0027312015,0.02515595,-0.009887809,4501,0,0.42092562,0.26415324,-9.666327,4451,0,0,2,1
861221790,0.002533124,0.011107259,0.010703992,4453,0,0.9507748,0.06625007,-9.933197,4450,0,0,2,1
861244294,0.0019006083,0.005849536,0.0052001243,4455,0,0.7653194,-0.119629525,-10.012101,4450,0,0,2,1
861266794,0.0012447437,-0.015687756,2.031523e-05,4453,0,0.676977,0.32837987,-9.979705,4450,0,0,2,1
861284843,0.0012736802,-0.005656292,0.0076721674,4548,0,0.38778356,-0.28129658,-9.760971,4451,0,0,2,1
861302800,-0.008794961,-0.004219893,-0.0049743378,4503,0,0.8028425,-0.19808798,-9.819794,4450,0,0,2,1
861325299,-0.0064841127,-0.0013915886,-0.008999962,4500,0,0.7122722,0.18272367,-9.793589,4450,0,0,2,1
861347801,-0.0013804486,0.0048792916,-0.0013799019,4500,0,0.56880987,-0.007932028,-9.92668,4449,0,0,2,1
861365803,-0.0061079455,0.0154079925,-0.0054529523,4501,0,0.74125445,0.57745314,-9.717147,4451,0,0,2,1
861383804,0.0020618471,-0.0021078063,0.0062827733,4500,0,0.2795865,-0.297688,-9.792345,4450,0,0,2,1
861406306,-0.0059943,-0.010631492,0.0065878085,4500,0,0.37895593,0.13365951,-9.949938,4450,0,0,2,1
861424308,0.027735567,-0.011259693,0.00082932616,4453,0,0.7322637,0.35699448,-9.733216,4450,0,0,2,1
861442357,0.010522706,-0.016951064,-0.010503996,4548,0,0.032405596,0.36123905,-9.854457,4450,0,0,2,1
861464859,0.0296545,0.00069840206,-0.009221413,4548,0,0.5378381,0.07528938,-10.014535,4451,0,0,2,1
861487361,0.008856737,0.0025846404,-0.011433411,4548,0,1.2667196,-0.5872212,-9.52014,4450,0,0,2,1
861505315,0.013843464,-0.017774759,-0.007797563,4500,0,0.36567426,0.95326835,-10.003935,4451,0,0,2,1
861523317,-0.0031506903,-0.007338997,-0.014097941,4501,0,0.345945,0.09883835,-9.880932,4450,0,0,2,1
861545819,0.007968497,0.004622641,-0.009688209,4501,0,0.96412903,-0.19221583,-9.358216,4449,0,0,2,1
861568321,-0.028897291,-0.005666933,0.016376086,4501,0,0.31445497,0.5032595,-9.922718,5933,0,0,2,1
861581822,0.053015005,0.027498145,-0.019597266,4453,0,0.45181388,-0.19373104,-9.997299,4450,0,0,2,1
861604324,-0.010785157,0.022431392,0.0024310676,4453,0,0.292823,-0.9980524,-9.894964,4454,0,0,2,1
861626827,-0.045194503,-0.0020632595,-0.010963088,4454,0,0.6594269,0.2831079,-9.530495,4450,0,0,2,1
861644875,-0.0067105927,-0.038961608,0.007573112,4548,0,0.60259205,1.2245051,-9.891739,4450,0,0,2,1
861662829,0.038192846,0.024552885,0.0023062362,4500,0,0.5092256,0.29658514,-9.7227335,4449,0,0,2,1
861685331,0.02495605,0.04805272,0.007975315,4498,0,0.12497068,-0.19568782,-9.729797,4451,0,0,2,1
861707833,0.07013102,0.057448983,0.005948539,4501,0,0.47606516,-1.1107132,-10.160022,4450,0,0,2,1
861725835,0.018511709,0.024930025,-0.007547821,4501,0,0.41424558,0.74771506,-10.4422,4450,0,0,2,1
861743836,-0.023492945,-0.047984667,0.0025629487,4500,0,0.5838926,-1.2130432,-10.211875,4450,0,0,2,1
861766338,-0.022762714,-0.05494504,0.0051379446,4500,0,0.30382568,-2.2173266,-9.78357,4450,0,0,2,1
861784340,-0.0041382685,-0.027113715,0.0090731615,4453,0,0.38997707,-0.65534896,-8.905862,4450,0,0,2,1
861802389,-0.010246207,-0.016726581,-0.019988136,4548,0,1.2624753,0.83311754,-9.548727,4451,0,0,2,1
861824891,-0.011866101,-0.019915475,-0.0004983247,4548,0,0.38722458,0.23921695,-9.532333,4453,0,0,2,1
861847397,-0.025488341,-0.036412947,-0.011323558,4552,0,0.2573608,-0.021547131,-9.721813,4451,0,0,2,1
861865347,-0.0012753167,-0.030651437,0.012468182,4500,0,0.32368448,-1.3665286,-9.581169,4453,0,0,2,1
861883348,-0.015863163,-0.017225519,0.0034455617,4500,0,-0.3096666,0.0047176303,-9.429579,4451,0,0,2,1
861905851,0.0021881582,-0.012082124,-0.019175865,4501,0,0.014660303,0.19597143,-10.0586,4451,0,0,2,1
861923852,-0.013493092,-0.022012837,-0.020836731,4500,0,0.6306179,0.24246788,-10.027546,4452,0,0,2,1
861946354,0.022726985,-0.005918089,0.013106386,4500,0,-0.40675995,0.77127063,-9.819913,4454,0,0,2,1
861964356,0.024056954,-0.0046943044,0.018552935,4453,0,0.20339225,0.4252174,-10.074126,4446,0,0,2,1
861986858,0.00068191293,0.016773423,-0.0029704997,4451,0,0.6150719,0.52927613,-9.451799,4450,0,0,2,1
862004907,0.0013040352,0.0060178004,0.014660472,4548,0,0.48046863,0.23287956,-9.237961,4450,0,0,2,1
862022861,-0.02830969,-0.014578692,0.014667545,4501,0,0.31665573,0.25010067,-9.622265,4451,0,0,2,1
862045365,0.00035254724,-0.039584294,-0.0066750343,4503,0,-0.053809322,-0.19768809,-9.700563,4452,0,0,2,1
862063364,0.0014659506,-0.021135096,-0.01690532,4500,0,-0.042445548,0.14351517,-9.707791,4451,0,0,2,1
862081366,-0.0101047065,-0.01480547,0.002030812,4500,0,0.63347566,0.55645835,-10.293744,5936,0,0,2,1
862103868,-0.032626804,-0.018075982,0.019445043,4500,0,2.050159,-0.13118191,-10.076831,4451,0,0,2,1
862126370,-0.031585254,-0.0346221,-0.017591398,4500,0,0.8777123,-0.31036577,-10.251766,4451,0,0,2,1
862144372,0.0030543688,0.008261688,0.0039042677,4453,0,0.41395277,0.67330277,-10.362699,4450,0,0,2,1
862166873,-0.00096958363,-0.035220917,-0.006874471,4452,0,1.072407,0.602583,-9.87812,4450,0,0,2,1
862184923,-0.019145269,-0.026638456,-0.0178683,4548,0,1.1119651,-1.0992078,-9.209811,4451,0,0,2,1
862202877,-0.028528236,-0.017540919,0.002375638,4501,0,0.97699475,-0.68956906,-9.630358,4450,0,0,2,1
862225379,0.0071708015,0.022121202,0.03230532,4500,0,0.24624409,-0.34079847,-10.26618,4451,0,0,2,1
862243380,0.012057494,-0.013945727,-0.022026693,4498,0,1.1806414,-0.545883,-9.716632,4450,0,0,2,1
862265882,0.046451315,0.0029055395,0.037596077,4500,0,-0.7318494,-0.24083416,-10.201668,4451,0,0,2,1
862283884,0.019408813,0.036753107,-0.0066825943,4501,0,1.511764,-0.4538702,-10.044929,4450,0,0,2,1
862306386,-0.015137577,-0.036838386,0.04306178,4501,0,-1.4137305,0.17829685,-10.370089,4451,0,0,2,1
862324388,0.06924844,-0.004370793,-0.024129985,4453,0,0.42729124,0.9924207,-9.914377,4450,0,0,2,1
862342437,-0.0019696304,-0.043523643,0.0008857702,4548,0,1.6821669,-0.4848199,-9.393105,4450,0,0,2,1
862364939,0.04972238,-0.013260386,0.0185161,4548,0,-0.3592522,0.34562123,-9.94236,5936,0,0,2,1
862387441,-0.013195442,-0.046926323,-0.030814307,4548,0,-0.3519165,0.5718895,-10.028089,4450,0,0,2,1
862405395,-0.02698074,0.027083617,0.028897308,4501,0,0.3679225,0.6908743,-9.767557,4451,0,0,2,1
862423396,0.02579782,-0.06764955,-0.01625317,4500,0,1.8051417,-0.44595778,-9.769139,4451,0,0,2,1
862445898,0.106972575,-0.042466052,-0.027055722,4500,0,2.1634061,1.121381,-10.010958,4451,0,0,2,1
862463900,-0.017639235,-0.08642584,-0.018735273,4501,0,-0.97926205,0.6035989,-10.523067,4451,0,0,2,1
862481901,0.09211472,-0.049485967,0.003750027,4453,0,1.6824708,0.46391866,-9.928302,4450,0,0,2,1
862504404,0.04918604,-0.089392826,0.025788875,4453,0,-0.056029357,-0.9031265,-9.7907715,4451,0,0,2,1
862526905,0.12510431,-0.113924176,0.025483696,4452,0,-0.19216338,0.12795232,-10.637368,4450,0,0,2,1
862544955,0.05604855,-0.15455297,0.02613562,4546,0,1.7452227,1.9877639,-10.072005,5934,0,0,2,1
862562908,0.052137278,-0.16067676,0.01715024,4498,0,-0.58361125,-0.19041157,-10.3522,4450,0,0,2,1
862585411,0.05547227,-0.18806492,-0.044927288,4501,0,0.31320256,1.9724584,-9.778932,4451,0,0,2,1
862607912,0.17531931,-0.200017,0.022759967,4500,0,0.9839878,1.632319,-10.254185,4450,0,0,2,1
862621414,0.08324505,-0.16577119,0.025192725,4501,0,0.9683262,1.4582529,-10.201723,4450,0,0,2,1
862643915,0.15047677,-0.23303945,0.069859006,4500,0,-0.25305492,-1.4091789,-9.622422,4450,0,0,2,1
862666418,0.23113857,-0.2751456,-0.03245421,4501,0,-0.7626788,-1.4520892,-10.139979,4450,0,0,2,1
862684419,0.19486289,-0.25499377,-0.017695155,4452,0,0.20768471,-2.712785,-10.219163,4451,0,0,2,1
862702469,0.1703286,-0.2857854,0.0146073485,4549,0,-0.26554352,-4.513964,-10.358871,4450,0,0,2,1
862724970,0.30511984,-0.29766878,0.056212895,4548,0,1.9415476,2.2806048,-10.991504,4450,0,0,2,1
862747472,0.27317405,-0.3625981,0.06133944,4548,0,-0.77141106,-0.77736247,-9.1567745,4450,0,0,2,1
862765427,0.3163707,-0.2896632,0.014341658,4501,0,-0.7819021,-0.9140335,-9.222328,4450,0,0,2,1
862783428,0.28635436,-0.19721147,-0.015100337,4500,0,0.017988957,0.9524848,-10.357969,4451,0,0,2,1
862805930,0.2759134,-0.14384581,0.030066917,4500,0,-0.7980431,-9.808558,-10.282234,4450,0,0,2,1
862828432,-0.05847717,-0.12732613,0.047340203,4500,0,-0.5242993,2.6830158,-9.993322,4451,0,0,2,1
862841933,-0.02796762,-0.014917564,0.09733979,4453,0,1.0519977,-0.22666238,-12.259365,4451,0,0,2,1
862864436,-0.2974327,0.029262967,-0.022265567,4454,0,1.7014685,9.667906,-10.606518,4451,0,0,2,1
862886937,0.015717696,0.19466588,-0.023174716,4453,0,-0.41890642,-9.203645,-12.097189,4450,0,0,2,1
862904986,-0.124868415,0.23499379,-0.0136237275,4548,0,1.3536497,-2.540231,-11.943933,4451,0,0,2,1
862922940,-0.26809505,0.18429047,0.07376122,4500,0,0.4143604,1.6721551,-11.906628,4450,0,0,2,1
862945442,-0.2993675,0.21361624,0.012214172,4500,0,1.733955,2.483087,-11.991414,4451,0,0,2,1
862967944,-0.080459006,0.22345091,0.07996384,4500,0,-0.20945208,1.323473,-10.833954,4451,0,0,2,1
862985946,-0.14465654,0.21547426,0.13572519,4501,0,0.5798104,2.9679217,-12.696697,4450,0,0,2,1
863003947,-0.15657538,0.20311092,0.13642843,4500,0,-0.7425704,-4.4226136,-10.440663,4451,0,0,2,1
863026449,-0.2519742,0.18240756,0.30314103,4500,0,1.7495108,14.235391,-13.142171,4450,0,0,2,1
863044451,-0.05009012,0.21718945,0.24314998,4453,0,0.76708466,-1.3069961,-13.666698,4451,0,0,2,1
863062500,-0.047948692,0.34676743,0.13940684,4548,0,0.5616213,-7.0052447,-12.388722,4451,0,0,2,1
863085002,-0.20257092,0.24444546,0.042023618,4544,0,1.8047223,-2.9205453,-12.498913,4450,0,0,2,1
863107504,-0.13953964,0.19011365,0.05725561,4548,0,-2.3274145,1.2838173,-10.989517,4450,0,0,2,1
863125458,-0.11336118,0.14400624,-0.019209804,4500,0,0.42922303,0.8615844,-12.025299,4450,0,0,2,1
863143460,-0.08735638,0.13232568,0.028237492,4501,0,3.1560144,2.9676185,-13.225025,4451,0,0,2,1
863165962,-0.018747667,0.11923834,-0.018849298,4501,0,-0.56334364,-0.30018282,-11.630526,4451,0,0,2,1
863183963,-0.11735709,0.16368885,0.05358031,4500,0,1.3146908,6.1313148,-13.0643215,4450,0,0,2,1
863206465,-0.0024309757,0.21543609,0.005356109,4500,0,-0.5466116,-1.6037482,-11.514381,4451,0,0,2,1
863224467,-0.17859688,0.1396085,0.22808059,4453,0,-0.70554817,6.9051824,-11.971623,4451,0,0,2,1
863246969,-0.03385782,0.23379728,-0.14677002,4453,0,2.2838275,11.98719,-11.307408,4450,0,0,2,1
863265018,-0.15725671,0.1387833,0.049308762,4546,0,1.0736072,12.6323595,-11.572123,4450,0,0,2,1
863282972,-0.11960506,0.071982644,0.12982985,4500,0,0.61958575,6.2557473,-10.386785,4450,0,0,2,1
863305474,-0.037917927,0.16657242,0.032680478,4500,0,1.4630092,-1.4872288,-11.305761,4450,0,0,2,1
863323476,-0.11773069,0.09391755,0.060960285,4501,0,0.101079896,1.0203133,-10.854248,4451,0,0,2,1
863345978,-0.12930937,0.06653652,0.038283244,4501,0,0.32302487,0.51103157,-10.424637,4450,0,0,2,1
863363981,-0.13637552,0.05875124,0.042790093,4502,0,2.9057224,-1.0692419,-11.327729,4450,0,0,2,1
863386481,-0.18889649,-0.006960297,0.027579786,4500,0,-1.5133363,1.0543473,-8.230678,4450,0,0,2,1
863404483,-0.13837224,-0.01777629,0.024098167,4453,0,-2.643503,1.0251426,-7.8777556,4449,0,0,2,1
863426985,0.009794641,0.06177057,0.08190992,4453,0,2.1961024,0.14064647,-11.188919,4450,0,0,2,1
863445034,0.0015142973,0.023256732,0.09211496,4548,0,1.8691338,-0.26585266,-11.438459,4450,0,0,2,1
863462988,0.010281583,-0.020678973,0.087896526,4500,0,1.585782,0.2642628,-11.074277,4450,0,0,2,1
863485490,-0.051232897,-0.02053857,-0.014037258,4500,0,-1.7315363,1.027346,-7.5909553,4453,0,0,2,1
863503491,-0.018831743,-0.025258215,-0.008665541,4500,0,-0.31663528,-1.4195566,-7.4990077,4451,0,0,2,1
863525994,-0.1083885,-0.004077485,0.08428979,4501,0,1.9599966,3.5446928,-10.298909,4450,0,0,2,1
863543995,-0.09244554,-0.017636525,0.08374687,4500,0,0.37453392,4.7165823,-9.564435,4450,0,0,2,1
863566497,-0.002067286,0.079808384,-0.014439954,4500,0,0.90784883,-3.175144,-8.426447,4450,0,0,2,1
863584499,-0.039118778,0.09344995,0.010868573,4453,0,1.211682,-3.2525766,-8.939534,4450,0,0,2,1
863602548,-0.081102155,0.10421304,0.05411455,4548,0,0.6663638,-0.9823709,-9.036686,4451,0,0,2,1
863625050,0.07196816,0.062488858,-0.020577244,4548,0,0.47160852,2.2600574,-9.115377,4451,0,0,2,1
863647552,-0.08421834,0.045987915,0.12904067,4548,0,0.13407037,1.707548,-8.316253,4451,0,0,2,1
863665506,-0.036826324,0.016078923,0.11118522,4501,0,2.2306612,1.4477795,-8.993647,4945,0,0,2,1
863683507,0.0007701633,0.0030785792,0.06038669,4500,0,1.6361287,3.3365982,-9.036807,4451,0,0,2,1
863706009,-0.08867319,0.0016830193,0.10918407,4500,0,-0.9037774,-3.6950984,-7.935816,4451,0,0,2,1
863724011,-0.06255688,-0.018532459,0.17556046,4500,0,-1.217279,-1.0812088,-7.9545913,4451,0,0,2,1
863742012,-0.011652018,-0.008134719,0.20499401,4452,0,1.3297157,0.9886969,-8.103742,4450,0,0,2,1
863764514,-0.031155327,0.0027001335,-0.08521093,4452,0,-1.0971177,-5.056617,-8.802038,4451,0,0,2,1
863787017,0.11791893,0.0027864245,-0.008908981,4453,0,2.1891108,3.1833596,-9.404545,4451,0,0,2,1
863805066,0.1341373,0.008470677,-0.08613492,4548,0,2.2000186,2.9011104,-9.466122,4451,0,0,2,1
863823020,0.08683275,-0.025273426,-0.11657554,4501,0,1.3991511,-0.61386114,-9.054424,4452,0,0,2,1
863845522,0.050309062,0.014793215,0.14329366,4500,0,1.3467798,1.8972688,-8.0392885,4451,0,0,2,1
863868024,-0.10700242,-0.02133043,-0.08168214,4501,0,-1.2218348,-0.05673122,-8.996654,4450,0,0,2,1
863881525,0.1258936,0.04340238,0.07540224,4500,0,2.53904,-1.1718419,-9.147831,4451,0,0,2,1
863904027,-0.13802922,-0.0016788379,-0.008342376,4501,0,-1.1618096,2.3201606,-8.628466,4451,0,0,2,1
863926531,0.12952216,0.041288584,-0.01554539,4503,0,0.8873527,-1.9254932,-9.53125,5935,0,0,2,1
863944530,0.10426222,0.009918155,-0.028783018,4452,0,1.06822,-2.4446952,-9.820425,4451,0,0,2,1
863962580,0.05511047,-0.012612733,-0.039776575,4548,0,0.7673168,-3.9149344,-9.499519,4451,0,0,2,1
863985082,0.121557854,-0.070331685,0.044752814,4548,0,-0.21896778,2.0800726,-9.087929,4450,0,0,2,1
864007584,-0.031047652,-0.058711294,-0.0117950635,4548,0,-1.1888258,-0.2009661,-8.797913,4451,0,0,2,1
864025538,-0.026802132,-0.04623165,0.014332253,4501,0,-0.4315811,1.1282793,-7.7845426,4450,0,0,2,1
864043539,-0.02077724,-0.08706659,0.031014783,4500,0,-0.4419899,1.49997,-8.490591,4447,0,0,2,1
864066041,0.06596565,-0.02531256,-0.07951713,4500,0,1.8674169,0.32741752,-10.637919,4450,0,0,2,1
864088543,-0.030075159,-0.090045236,0.021971337,4500,0,-1.4840876,2.0176804,-8.431943,4451,0,0,2,1
864102044,-0.012730013,-0.04427884,-0.020160535,4452,0,0.688173,-2.276351,-10.032374,4450,0,0,2,1
864124546,-0.0583196,-0.047058918,-0.054146387,4453,0,0.36807042,3.4329026,-9.563035,4451,0,0,2,1
864147048,0.050364662,-0.064616926,0.068608634,4452,0,-1.159995,-2.6490033,-8.488654,4450,0,0,2,1
864165097,0.07196865,-0.048954595,0.079343334,4547,0,-1.983773,-0.63702387,-8.059456,4450,0,0,2,1
864183051,0.08538705,-0.038105663,0.0729638,4500,0,-2.0796957,0.1930967,-8.490096,4450,0,0,2,1
864205553,-0.05447683,-0.03396825,-0.073444545,4500,0,1.9067028,1.5510827,-10.329412,4450,0,0,2,1
864228056,0.11864451,-0.03426948,0.015820788,4501,0,-0.50012743,-1.0645773,-8.788239,4452,0,0,2,1
864246057,0.08917407,-0.034428656,-0.0075954776,4500,0,-0.21704857,-0.9027314,-8.529028,4450,0,0,2,1
864264059,0.081572495,-0.054283008,-0.032972556,4501,0,-0.22437881,-0.701735,-8.821053,4450,0,0,2,1
864286561,-0.033529047,-0.10245943,0.08012784,4501,0,-0.4177651,3.7592645,-10.482862,4451,0,0,2,1
864304562,-0.01603013,-0.07048524,0.11084875,4452,0,1.0152171,4.7228875,-10.351543,4451,0,0,2,1
864322611,-0.015776329,-0.09421883,0.12706454,4547,0,0.52407163,7.141852,-10.545498,4450,0,0,2,1
864345114,0.10146636,-0.048066873,-0.14789888,4549,0,2.2610219,-4.880904,-10.26043,4449,0,0,2,1
864367616,-0.087720044,-0.09762353,0.07368622,4548,0,0.5336015,6.9526086,-9.3612585,4451,0,0,2,1
864385570,-0.108314164,-0.07264224,0.03734857,4501,0,0.46614483,7.073306,-9.137738,4451,0,0,2,1
864403571,-0.08356174,-0.0536104,0.013410928,4501,0,0.5847763,6.029919,-9.274786,4451,0,0,2,1
864426073,0.0726043,-0.05007249,-0.0169627,4500,0,-1.091031,-4.013656,-10.192964,4450,0,0,2,1
864444075,0.07303208,-0.02300085,-0.003184352,4501,0,-1.2150741,-1.6817678,-9.840961,4450,0,0,2,1
864466577,0.011581167,-0.014601492,-0.040805724,4501,0,0.6005213,0.35247487,-8.474444,4450,0,0,2,1
864484578,0.03609836,-0.035124302,-0.03470434,4453,0,0.7984545,-0.3415067,-8.813048,4450,0,0,2,1
864507080,0.0036065956,-0.05043966,-0.010811309,4453,0,0.6265426,2.104412,-10.7442255,4450,0,0,2,1
864525129,-0.016727762,-0.040649336,-0.0015006695,4548,0,0.6764912,2.907445,-10.480691,4451,0,0,2,1
864543083,-0.023913033,-0.059490062,0.0031330606,4500,0,-0.758705,5.429613,-10.412081,4450,0,0,2,1
864565585,0.16932745,-0.06401849,-0.03233279,4500,0,-0.35459173,-4.1285,-9.5991335,4450,0,0,2,1
864583587,0.18227102,-0.051103704,-0.04236193,4501,0,-0.10471547,-5.2635403,-9.827842,4450,0,0,2,1
864606089,-0.009174532,-0.08639597,0.06438627,4500,0,0.6104317,3.962724,-10.009887,4450,0,0,2,1
864624091,-0.037403297,-0.10052187,0.091715746,4501,0,0.77823,3.8322933,-9.316192,4451,0,0,2,1
864646593,0.053109072,-0.048314095,-0.12736224,4501,0,1.5008478,-2.7724879,-11.004388,4449,0,0,2,1
864664594,0.042348918,-0.023985215,-0.11555613,4453,0,1.556982,-2.2544923,-11.239253,4451,0,0,2,1
864687096,-0.03516224,-0.08384064,0.07695294,4453,0,-0.8964094,1.4753741,-8.138423,4451,0,0,2,1
864705145,0.0021116657,-0.060142566,0.03989201,4548,0,-1.0603161,1.4466634,-8.512249,4450,0,0,2,1
864723099,0.014630704,-0.029310634,0.013654014,4500,0,-2.1539974,2.3496315,-8.382161,4450,0,0,2,1
864745601,-0.0131746605,0.028842479,-0.014393119,4500,0,1.2267303,0.3397046,-11.13715,4451,0,0,2,1
864763603,-0.021724777,0.02653718,-0.0015113254,4501,0,0.6989261,0.110900804,-10.797809,4450,0,0,2,1
864786105,-0.052647833,-0.06296841,-0.04350272,4501,0,-1.215217,1.9424661,-8.951271,4450,0,0,2,1
864804107,-0.031519797,-0.078287646,-0.04214014,4501,0,-0.080246545,1.0592178,-9.10625,4450,0,0,2,1
864826608,-0.012831727,0.018916871,0.048383143,4500,0,1.0320116,-1.5015936,-10.603954,4450,0,0,2,1
864844610,0.025753835,0.035869427,0.061787132,4453,0,-0.52175534,-3.8540688,-10.3635,4451,0,0,2,1
864862660,0.0719721,0.023934575,0.078165695,4549,0,-0.7030959,-6.26228,-10.658235,4450,0,0,2,1
864885161,-0.043079074,-0.03719853,-0.10646398,4548,0,3.4419754,6.5371027,-9.322365,4454,0,0,2,1
864907663,0.08815684,-0.037680462,0.045419857,4548,0,-1.7537798,-7.0684743,-10.272434,5933,0,0,2,1
864925617,0.08616335,-0.05508598,0.024189534,4500,0,-3.7273207,-8.588264,-9.381383,4451,0,0,2,1
864943619,0.0681486,-0.0024253277,0.0037968443,4501,0,-1.6479336,-8.296202,-9.828374,4451,0,0,2,1
864966121,0.082052395,-0.00895932,-0.017010732,4501,0,3.5558393,6.884604,-10.148388,4451,0,0,2,1
864984122,0.057667244,0.02833364,-0.028329734,4500,0,2.8294024,5.9361343,-10.771892,4450,0,0,2,1
865002124,0.06320104,0.020481275,-0.035986483,4453,0,1.613428,4.9934464,-10.744809,4450,0,0,2,1
865024626,0.05808748,0.07357168,0.035919618,4453,0,-0.1949014,-3.1852827,-8.763726,4450,0,0,2,1
865047128,-0.026601857,0.020327805,-0.09678112,4453,0,-0.22812186,2.087452,-9.075329,4450,0,0,2,1
865065177,-0.026979929,0.02836441,-0.13171466,4548,0,0.30838722,0.77549285,-9.287502,4451,0,0,2,1
865083131,-0.041746654,0.05677648,-0.14231125,4501,0,0.49651518,-0.5235616,-9.859794,4446,0,0,2,1
865105633,0.06955329,0.075030304,0.13238944,4500,0,-0.25922188,1.7087638,-9.621902,4450,0,0,2,1
865128135,-0.049737077,0.031340495,-0.22493127,4501,0,0.91120934,-3.5916076,-9.06005,4451,0,0,2,1
865141636,0.09549934,0.055914436,0.2200097,4500,0,1.919827,4.098549,-9.912177,4451,0,0,2,1
865164138,-0.11097147,0.032409724,-0.27654374,4500,0,-2.470592,-5.9945865,-8.368976,4450,0,3,2,1
865186640,-0.0018470202,0.12368699,0.17057347,4500,0,1.2994374,3.43359,-8.043933,4450,0,0,2,1
865204642,-0.036537133,0.13996181,0.09103494,4453,0,1.5844868,2.0759385,-9.074064,4451,0,0,2,1
865222691,-0.016130066,0.10131799,0.04709354,4548,0,1.9376913,0.2619977,-8.8100815,4451,0,0,2,1
865245193,-0.009999662,0.04627704,-0.054514423,4548,0,-0.7333322,0.6025941,-10.099635,4451,0,0,2,1
865267695,0.042687252,0.07332052,0.005956992,4548,0,0.72111446,-1.2304484,-9.465828,4450,0,0,2,1
865285649,0.05782057,0.04828583,-0.011877204,4501,0,1.6153383,-1.8337413,-9.533129,4450,0,0,2,1
865303651,0.06374401,0.032411948,-0.02220103,4501,0,0.8312255,-1.5369512,-9.628031,4451,0,0,2,1
865326152,0.02496815,0.025307987,0.026537368,4500,0,0.7941969,4.9919744,-10.156121,4450,0,0,2,1
865348654,0.09594502,-0.021333385,-0.07449519,4499,0,0.4896463,-5.531878,-9.528961,4450,0,0,2,1
865362156,0.11426955,0.017452324,0.06803595,4453,0,-0.49522308,6.0828133,-9.937508,4451,0,0,2,1
865384658,0.08079459,0.011203916,-0.12565863,4454,0,-0.44917238,-3.6023924,-9.575086,4450,0,0,2,1
865407160,0.11809947,0.029376375,0.1095723,4453,0,2.5159404,2.9776785,-9.769071,4451,0,0,2,1
865425209,0.080270596,0.03531154,0.10659298,4548,0,2.200135,1.1952269,-10.270008,4451,0,0,2,1
865443163,0.076657064,0.060925964,0.10892948,4501,0,1.2459855,1.0210586,-8.811561,5935,0,0,2,1
865465665,-0.030215967,0.04484729,-0.12607117,4501,0,1.6449695,2.8554432,-11.068743,4454,0,0,2,1
865488167,0.07621891,0.066312246,0.061283175,4501,0,0.9641583,-3.4048345,-8.529859,4451,0,0,2,1
865506168,0.009102917,0.09705733,0.010319129,4500,0,-0.32979006,-2.9556048,-8.911093,4451,0,0,2,1
865524170,-0.041453082,0.09894331,-0.012049416,4500,0,0.8719037,-3.802342,-9.044891,4451,0,0,2,1
865546673,0.01645438,0.030657882,-0.0016909413,4501,0,0.5332783,2.6948001,-10.388368,4451,0,0,2,1
865564673,-0.0022571995,0.050546907,-0.014508292,4453,0,1.1469599,1.1155677,-10.886298,4450,0,0,2,1
865582723,0.009606521,0.05197104,-0.02867825,4548,0,1.652958,4.6132164,-10.472691,4450,0,0,2,1
865605224,-0.06563766,-0.008623513,0.03414606,4547,0,-1.0935832,-2.558747,-8.387815,4450,0,0,2,1
865627727,-0.038788334,0.028122189,-0.022188894,4549,0,1.3703939,2.5480452,-11.243929,4455,0,0,2,1
865645681,-0.0458138,0.025023742,-0.012273514,4501,0,0.95025414,1.7374564,-11.098986,4447,0,0,2,1
865663682,-0.040904563,0.029290782,0.009492737,4500,0,1.1095455,0.04770866,-10.8981695,4450,0,0,2,1
865686184,-0.024992213,-0.031458,-0.02823729,4500,0,0.36607534,-0.11314484,-8.351702,4450,0,0,2,1
865704186,-0.00039738487,-0.034693137,-0.0820408,4501,0,0.25133643,1.0450158,-9.596672,5934,0,0,2,1
865726688,-0.04454535,0.019143803,0.15321036,4501,0,1.0145252,-2.1075993,-9.871207,4451,0,0,2,1
865744689,-0.027904715,0.05044827,0.20060985,4452,0,0.42075118,-1.652252,-9.878697,4448,0,0,2,1
865767191,0.060019333,-0.014770398,-0.25593004,4453,0,-0.27969325,0.064978264,-9.642215,4451,0,0,2,1
865785241,0.078365445,0.010709027,-0.28161788,4548,0,1.3156438,-1.5634724,-9.813095,4450,0,0,2,1
865803194,0.0684964,0.043209862,-0.29651782,4500,0,0.47630835,-4.74091,-9.380455,4450,0,0,2,1
865825697,-0.033735428,-0.040941134,0.23357882,4501,0,2.7786076,10.057598,-9.675389,4451,0,0,2,1
865843699,-0.1082793,0.0045661116,0.13400924,4501,0,1.4573175,3.524874,-8.074792,4450,0,0,2,1
865866200,-0.007768174,-0.012923348,-0.047343977,4500,0,-2.0674918,-3.6350605,-10.7398205,4451,0,0,2,1
865884204,-0.042076264,0.009828676,-0.0069155376,4503,0,-2.8634546,-1.8064334,-9.980821,4451,0,0,2,1
865906704,-0.07388569,0.03183464,-0.03190461,4501,0,1.5088123,1.6625593,-9.503241,4451,0,0,2,1
865924705,-0.034536038,0.037457805,-0.053353332,4453,0,2.1902335,0.37694478,-10.350461,4453,0,0,2,1
865947207,0.027541675,0.045015115,0.042081963,4453,0,-1.0675628,-0.44717288,-8.3670435,4451,0,0,2,1
865965256,0.032321725,0.055713106,0.033939857,4545,0,-0.05820129,-0.9088908,-8.473186,4451,0,0,2,1
865983210,0.073953845,0.058554802,0.018543145,4500,0,-0.09829355,1.132516,-8.932971,4450,0,0,2,1
866001213,0.118931726,0.05348694,0.008232208,4502,0,-0.12663734,0.9221704,-9.425142,4450,0,0,2,1
866023714,-0.086835906,0.015058202,-0.0042573665,4501,0,0.34727803,1.0224615,-9.866181,4450,0,0,2,1
866046216,0.13663054,0.0013573988,-0.059290126,4500,0,1.3510166,-1.9951326,-9.999189,4450,0,0,2,1
866064218,0.09102306,0.00035094636,-0.08164519,4501,0,1.2251384,-2.936045,-10.463173,4451,0,0,2,1
866086719,-0.033565994,-0.025803665,0.08690209,4500,0,-0.19311166,2.5948467,-8.724889,4451,0,0,2,1
866104721,0.015265594,-0.036147267,0.097926214,4453,0,0.54830796,1.1433773,-8.402089,4451,0,0,2,1
866122770,0.048825834,-0.018090434,0.096087165,4548,0,0.43705758,0.65025693,-9.042712,4450,0,0,2,1
866145272,-0.011233062,-0.031885527,-0.119652584,4548,0,-0.69084835,0.8440234,-9.883568,4450,0,0,2,1
866163226,-0.025084585,-0.035049397,-0.100346155,4500,0,1.7434784,2.8424454,-11.546348,4450,0,0,2,1
866185728,0.11182513,-0.0038182274,0.016242726,4500,0,-0.6159378,-4.872239,-8.753418,4450,0,0,2,1
866203730,0.1053163,-0.020201053,-0.02778286,4501,0,0.14594713,-4.5099416,-9.180676,4450,0,0,2,1
866226232,0.13323012,-0.033616453,-0.018160345,4501,0,0.7718892,3.794122,-9.767042,4450,0,0,2,1
866244233,0.11065867,-0.028125884,-0.021209452,4500,0,0.9498403,1.6714936,-10.583457,4450,0,0,2,1
866262235,0.042204402,0.0012980927,-0.016228471,4453,0,1.5414134,2.134198,-11.137167,4451,0,0,2,1
866284737,-0.071911864,-0.04666117,-0.059673656,4453,0,-0.67037994,-0.20674789,-8.098367,4451,0,0,2,1
866307239,-0.014871513,-0.00391266,0.027064644,4453,0,1.011773,-0.37078285,-10.54122,4450,0,0,2,1
866325288,-0.071388975,-0.029574713,0.048795238,4548,0,0.979454,-0.5261321,-10.201172,4449,0,0,2,1
866343242,-0.18376693,-0.021016981,0.07546398,4500,0,0.90052414,1.572504,-9.747042,4450,0,0,2,1
866365745,0.043435253,0.017586635,-0.11680246,4501,0,0.19557056,-2.6828508,-10.494479,4449,0,0,2,1
866383746,0.03577577,0.041675486,-0.083384,4501,0,0.5636284,-1.2600237,-10.88847,4451,0,0,2,1
866401747,0.0545133,0.039870184,-0.045778878,4500,0,1.0098164,-1.7489144,-11.021144,4451,0,0,2,1
866424249,-0.03605983,-0.01565654,-0.083469614,4500,0,-0.9830915,1.1743518,-9.355572,5932,0,0,2,1
866446751,-0.10080295,-0.008755781,0.117291905,4497,0,0.48801643,1.9364177,-10.265765,4448,0,0,2,1
866464755,-0.14396596,-0.03135145,0.14713876,4455,0,0.38142648,5.5820932,-8.764744,4450,0,0,2,1
866482802,-0.112751566,-0.046767738,0.08316178,4548,0,1.653152,3.8502796,-8.528541,4449,0,0,2,1
866505304,-0.054327995,-0.013103454,-0.028693173,4548,0,-0.5944756,-1.6296598,-10.788836,4451,0,0,2,1
866527807,-0.07611378,-0.035520922,-0.10640757,4549,0,0.11623158,-0.8515676,-9.132645,4450,0,0,2,1
866545764,-0.04684778,-0.025921436,-0.18893015,4504,0,0.5070221,-2.7655964,-8.9217825,4451,0,0,2,1
866563762,0.020718083,0.0022819908,-0.2689611,4501,0,1.9423487,0.5044268,-10.260585,4452,0,0,2,1
866586263,-0.027369514,-0.10149871,0.14830384,4500,0,0.19812466,0.96862495,-7.9895763,4449,0,0,2,1
866604265,-0.03636731,-0.037179004,0.017332949,4500,0,-0.31865555,2.3705084,-8.5552635,4450,0,0,2,1
866622267,-0.06603767,-0.02471459,-0.04620847,4453,0,-0.6423015,0.83362144,-8.332992,4450,0,0,2,1
866644769,-0.046742145,0.023287727,0.067615554,4453,0,2.1127896,0.8523916,-11.148717,4450,0,0,2,1
866667271,0.100598395,0.073562734,-0.18984988,4453,0,0.4028374,-4.563535,-9.675721,4450,0,0,2,1
866685320,0.03815798,0.095824115,-0.1959701,4548,0,2.6351871,-1.7655067,-10.752164,5934,0,0,2,1
866703277,-0.08588046,0.05298429,-0.1295812,4504,0,2.1141953,3.5922036,-11.861496,4450,0,0,2,1
866725782,-0.046255045,-0.033914257,-0.023457997,4507,0,-1.1575898,1.0360713,-8.021141,4450,0,0,2,1
866748278,0.004672106,0.022045352,0.014683387,4499,0,2.2582073,-0.16347452,-11.3149,4451,0,0,2,1
866761779,0.08653646,0.0068247635,-0.08995022,4500,0,-0.46202064,-1.3539711,-8.496516,4451,0,0,2,1
866784281,-0.103002876,0.005294718,0.08756605,4500,0,0.7190705,3.3410168,-9.636602,4451,0,3,2,1
866806783,0.09093788,0.07343649,-0.14031881,4500,0,1.3839525,-4.0192647,-10.570647,4449,0,0,2,1
866824785,0.03691126,0.08710095,-0.09800952,4453,0,3.7083278,2.422685,-11.528696,4452,0,0,2,1
866842834,-0.05564585,0.08126546,-0.089205414,4548,0,3.1272542,4.754941,-11.887461,4450,0,0,2,1
866865336,0.13431601,0.055333648,-0.014559175,4548,0,-1.2648823,-2.4493454,-7.8023167,4450,0,0,2,1
866887838,-0.13258138,0.04954539,0.017130174,4548,0,1.0420456,2.8990655,-10.202664,4451,0,0,2,1
866905792,-0.11734211,0.0049493965,0.07819422,4501,0,-0.9232294,3.1592345,-8.827049,4453,0,0,2,1
866923794,0.00354946,0.0068841497,0.12165675,4501,0,-1.5504663,1.4708006,-8.27963,4450,0,0,2,1
866946295,-0.09378313,-0.017020762,-0.10683238,4500,0,1.2503484,0.31853637,-10.886168,4451,0,0,2,1
866964297,-0.051081315,-0.0075264126,-0.028664079,4501,0,2.1733007,1.9855196,-11.711517,4451,0,0,2,1
866982298,-0.016295725,-0.01825472,0.035967432,4452,0,1.0807683,2.199138,-10.932096,4451,0,0,2,1
867004800,0.0889875,-0.0068123443,-0.14601725,4453,0,0.85985094,-2.3004158,-10.155065,4451,0,0,2,1
867027302,-0.025280086,-0.02581023,0.109061815,4452,0,0.71287006,1.0567324,-8.442975,4451,0,0,2,1
867045352,-0.01854443,-0.05216582,0.029994769,4548,0,-0.33879545,2.1381814,-8.483712,4454,0,0,2,1
867063305,0.003909711,-0.06637662,-0.040314835,4500,0,-0.42436343,0.4983863,-8.593512,4451,0,0,2,1
867085807,-0.018301286,-0.023126598,0.084995076,4500,0,2.204193,1.2233247,-10.757619,4453,0,0,2,1
867103810,-0.07058466,-0.05992633,0.14243285,4501,0,0.113973685,-1.7659445,-9.255665,4451,0,0,2,1
867126311,0.049148675,0.029607667,-0.15297437,4500,0,1.464988,1.7563353,-11.645777,4452,0,0,2,1
867144313,-0.045079906,0.024996392,-0.08850782,4501,0,2.4036806,2.2939882,-11.726546,4451,0,0,2,1
867166815,0.05576903,-0.073315516,-0.044209234,4501,0,-2.8476315,0.6971411,-8.6021185,3956,0,0,2,1
867184816,0.09071613,-0.03181071,-0.074486025,4453,0,-0.087124035,-0.94166315,-9.322742,4451,0,0,2,1
867202865,0.08976365,0.018221531,-0.1199338,4548,0,0.71679854,1.2063876,-10.628944,4451,0,0,2,1
867225367,-0.046655104,-0.06540402,0.054113705,4541,0,-2.0384514,-2.9679735,-7.485965,4452,0,0,2,1
867243321,-0.082266234,-0.045497615,-0.03375278,4500,0,-1.1506445,-0.7937536,-7.552833,4451,0,0,2,1
867265823,-0.1357983,-0.04568445,0.052692294,4500,0,0.81172955,1.3318408,-10.991643,4451,0,0,2,1
867283825,-0.13025917,-0.08740517,0.08318418,4501,0,-0.2849163,1.808585,-9.60095,4451,0,0,2,1
867306327,0.004173557,0.016110051,-0.009162443,4499,0,1.5450838,-1.2513901,-11.087109,4450,0,0,2,1
867324328,-0.011798211,0.0029014351,0.029925423,4500,0,3.0994208,1.0587379,-10.2196045,4451,0,0,2,1
867346830,0.077450894,-0.067508906,-0.039391622,4500,0,-0.48423988,0.47263506,-9.485241,4451,0,0,2,1
867364832,0.12647127,-0.021947635,-0.05562034,4453,0,0.7681643,1.8151329,-9.783191,4451,0,0,2,1
867382881,0.12776661,0.02321881,-0.024304133,4548,0,2.6678548,1.9453077,-11.339531,4451,0,0,2,1
867405383,0.042765174,-0.07201838,-0.019363891,4547,0,-2.1595018,-5.498663,-7.0422597,4450,0,0,2,1
867423337,0.063440554,-0.01649144,-0.0061582876,4500,0,-1.5044171,-2.637013,-9.094816,4445,0,0,2,1
867445839,-0.14072244,-0.0009129259,-0.028047463,4500,0,0.5777168,0.67113495,-9.951499,4450,0,0,2,1
867463841,-0.0938699,-0.038616724,-0.018689796,4501,0,-1.658241,-4.856643,-9.167291,4451,0,0,2,1
867486343,-0.078850545,-0.02408807,0.0093684895,4501,0,2.3545294,2.6032531,-10.456748,4451,0,0,2,1
867504344,0.012657975,-0.018839676,0.015820213,4500,0,0.99767673,0.80425453,-10.545137,4451,0,0,2,1
867522346,0.027131189,-0.07166345,0.0055755205,4453,0,0.08921863,-2.4235406,-10.112569,4450,0,0,2,1
867544848,-0.09339915,0.0018394188,0.018188866,4453,0,1.4723537,8.57946,-10.547584,4456,0,0,2,1
867567350,-0.014460047,0.0008170786,-0.021809144,4453,0,0.21483661,-2.859556,-9.311164,4451,0,0,2,1
867585399,-0.058189064,-0.02594297,0.021416744,4548,0,0.49245706,0.079509445,-10.274374,5935,0,0,2,1
867603353,-0.0996418,-0.017075758,0.061456013,4500,0,1.3389883,5.495158,-10.955238,4450,0,0,2,1
867625855,0.04427754,0.03036368,-0.14203712,4500,0,0.11158622,-5.83974,-10.029864,4450,0,0,2,1
867643857,-0.012223995,-0.031307917,-0.11552796,4501,0,0.3238437,-2.5034127,-10.264647,4451,0,0,2,1
867661858,-0.00614973,-0.0065655736,-0.042407915,4500,0,1.1115607,-0.9090657,-10.290106,4451,0,0,2,1
867684362,0.06843097,0.0018214334,-0.060878452,4502,0,-0.07426267,-4.5060153,-9.115901,4450,0,0,2,1
867706862,-0.10130429,-0.050890487,0.13772814,4500,0,0.35207686,6.4267597,-9.714979,4451,0,0,2,1
867724864,-0.09640462,-0.050037503,0.08059867,4453,0,-1.7394683,1.042248,-7.7564707,4453,0,0,2,1
867742913,-0.060761493,-0.02271892,0.01054838,4548,0,-2.1973884,-1.4983143,-7.236793,4449,0,0,2,1
867765415,-0.20160447,-0.034296785,0.04449721,4548,0,2.0075972,3.0013053,-10.729404,4450,0,0,2,1
867787917,0.0950057,0.023198692,-0.0663587,4548,0,0.82721096,-3.3715887,-10.444958,4450,0,0,2,1
867801371,-0.0861572,-0.04138109,0.035327207,4501,0,-1.3830286,2.564187,-8.40763,4452,0,0,2,1
867823873,-0.034809202,-0.0078211995,0.0043900535,4501,0,2.0538342,2.536659,-11.651384,4451,0,0,2,1
867846374,0.051194523,0.0029017911,-0.04724366,4500,0,-0.8637965,-0.46756944,-9.611624,5934,0,0,2,1
867864376,0.045222346,0.043674443,-0.04458243,4500,0,2.2484848,3.0388947,-11.161055,4452,0,0,2,1
867882378,-0.09139584,0.009311125,-0.017466687,4453,0,2.8246398,5.219473,-12.401631,4451,0,0,2,1
867904880,0.11875611,-0.03161556,0.019277124,4453,0,-1.3728004,-2.077746,-9.087044,4453,0,0,2,1
867927381,-0.061322115,-0.016744802,-0.03596088,4452,0,0.90046334,-1.103095,-9.689655,4451,0,0,2,1
867945431,-0.047325358,-0.06281199,-0.048990667,4548,0,-2.2708945,-5.6548038,-8.390389,4450,0,0,2,1
867963385,0.028770993,-0.056206495,-0.019251382,4501,0,-1.8593978,-4.219099,-8.146999,4451,0,0,2,1
867985888,-0.048514817,-0.0071536126,-0.009526235,4502,0,0.03656792,-2.1123452,-10.202395,5934,0,0,2,1
868008389,-0.11109618,0.041239414,0.060733434,4501,0,1.4163414,7.3312006,-9.627617,4451,0,0,2,1
868021890,0.1266634,0.002251639,-0.067116894,4501,0,-0.62765443,-6.9765053,-10.6130495,4451,0,0,2,1
868044392,0.010359239,0.0019908904,0.015228635,4501,0,0.07284417,1.1964878,-9.121585,4451,0,0,2,1
868066894,0.033293076,0.019170757,0.06921429,4501,0,2.3775961,1.7477005,-11.032294,4451,0,0,2,1
868084896,-0.12638062,-0.03616784,0.1459126,4453,0,0.24417756,7.859927,-10.281869,4451,0,0,2,1
868102945,-0.058103487,-0.025829306,0.15317725,4548,0,-0.07238575,3.7115064,-8.810109,4451,0,0,2,1
868125446,-0.1286651,0.029669067,-0.0045760474,4548,0,1.6262242,2.2097056,-11.30856,4452,0,0,2,1
868147949,0.04146329,-0.021883164,-0.057821903,4548,0,-0.8619548,-1.6335733,-9.738772,4451,0,0,2,1
868165903,0.11248228,0.030483983,-0.10567314,4501,0,1.3279494,-1.0674751,-10.613236,4452,0,0,2,1
868183904,-0.007475181,0.023782354,-0.0665478,4500,0,3.3551068,0.5634482,-11.849996,4450,0,0,2,1
868206406,0.0021201365,-0.059640437,-0.007877181,4500,0,-2.108438,-0.5571192,-7.536315,4451,0,0,2,1
868224408,0.057748795,0.024652533,-0.04532757,4501,0,-0.62970954,-2.5435073,-8.243093,4450,0,0,2,1
868242409,0.08520167,0.0791641,-0.046595864,4453,0,0.9245155,-1.3001466,-9.5287285,4451,0,0,2,1
868264911,-0.05436674,-0.06714201,0.004680915,4453,0,0.26661292,-3.3913724,-9.233392,4450,0,0,2,1
868287413,0.014586311,0.022648005,0.06350722,4453,0,2.6380794,0.8642595,-9.964664,4452,0,0,2,1
868305462,0.0170218,-0.0051357234,0.027632989,4548,0,1.1529363,-1.3468952,-9.79765,4451,0,0,2,1
868323416,0.012475191,-0.027241888,-0.015478399,4500,0,0.21303089,-2.3342063,-8.826291,4451,0,0,2,1
868345918,0.10304716,0.05990992,0.09468305,4500,0,2.947081,2.9217439,-10.588728,4453,0,0,2,1
868363920,-0.051254295,0.025189308,0.04714246,4500,0,0.82596236,1.6530887,-10.53903,4444,0,0,2,1
868386422,-0.02983063,0.05110456,0.048915267,4500,0,-0.71773815,2.4540508,-9.771048,4451,0,0,2,1
868404424,0.04602072,0.07025663,0.10139029,4501,0,1.4012637,3.3415859,-9.667601,4452,0,0,2,1
868426926,-0.018261937,0.02711326,-0.102839485,4501,0,-1.303307,-5.288271,-8.242762,4452,0,0,2,1
868444927,0.027056906,0.06263401,-0.044440478,4453,0,1.0197618,0.5510748,-10.692339,4453,0,0,2,1
868462976,-0.01988082,0.055487726,0.030001307,4548,0,1.0391059,3.4464204,-10.569908,4451,0,0,2,1
868485478,4.520499e-05,0.025074273,-0.084010564,4548,0,-1.2651271,-5.274329,-9.5150175,4451,0,0,2,1
868503432,0.05983396,0.05117656,-0.055788178,4500,0,-0.643668,-5.511692,-10.378664,4454,0,0,2,1
868525934,-0.059206434,0.04939775,-0.00084191194,4500,0,0.35241526,0.58614683,-9.376679,4451,0,0,2,1
868543936,-0.049157195,0.012835162,-0.06395545,4501,0,-0.58572584,-1.806931,-9.118385,4451,0,0,2,1
868566438,-0.115842,-0.04077361,0.1622058,4501,0,1.7096925,7.740784,-10.461374,4451,0,0,2,1
868584440,0.008318363,-0.051995497,0.15772273,4501,0,-0.6955335,1.8378955,-8.347869,4451,0,0,2,1
868606941,0.043714162,0.040458944,-0.041793134,4500,0,2.3065047,1.728074,-11.232889,4451,0,0,2,1
868624943,0.01434985,0.06444346,0.003943122,4453,0,2.5210972,2.5828354,-11.405533,4451,0,0,2,1
868642992,-0.11664584,-0.0035395517,0.058842715,4548,0,1.2994763,2.741875,-10.420271,4451,0,0,2,1
868665494,0.10295284,0.03695307,-0.061333384,4548,0,1.0832446,-1.8416897,-10.565814,4452,0,0,2,1
868683448,0.060759228,0.085168645,-0.019598484,4500,0,2.4694521,-0.5447346,-11.492128,4450,0,0,2,1
868705950,0.11049112,0.037793312,-0.016178042,4500,0,-0.818444,-1.5520148,-8.221294,5934,0,0,2,1
868723954,0.09987029,0.019571226,-0.04385154,4503,0,-0.27258578,1.79664,-9.231809,4451,0,0,2,1
868746454,-0.03999445,-0.035911467,0.06727833,4500,0,-0.6547228,-4.10773,-9.183428,4451,0,0,2,1
868764458,0.04052633,-0.009180738,0.045845095,4503,0,-2.273995,-4.9760613,-8.05932,4451,0,0,2,1
868782457,0.094581224,0.060978692,0.042296086,4453,0,-1.9920795,-2.758974,-8.49369,4450,0,0,2,1
868804961,-0.10970345,0.076517396,-0.019022208,4455,0,0.851607,0.9015982,-10.239847,4450,0,0,2,1
868827461,0.05503889,0.08215246,0.043226432,4453,0,1.5276865,3.033908,-10.497305,4450,0,0,2,1
868845510,0.02012828,0.036506064,0.038340412,4548,0,2.2803164,6.9899273,-10.0297985,4450,0,0,2,1
868863464,0.009198352,0.024234599,0.028753133,4500,0,1.4450794,2.971391,-10.303178,4451,0,0,2,1
868885966,0.034486692,0.03841432,0.019471273,4500,0,0.50635755,1.2920051,-10.058149,4451,0,0,2,1
868903968,0.004425269,0.040130287,0.03238756,4501,0,1.3863169,4.8273296,-10.107084,4451,0,0,2,1
868921969,-0.07888301,0.01446453,0.0655599,4500,0,1.350707,9.578492,-10.175458,4451,0,0,2,1
868944471,0.07639752,0.044257145,-0.020672154,4500,0,0.5229791,-6.858018,-10.017913,4454,0,0,2,1
868966973,-0.055173926,0.00040337484,-0.007257477,4500,0,0.3348126,1.338904,-9.604099,4452,0,0,2,1
868984975,-0.0108007835,0.002684294,-0.045091614,4453,0,-1.6302181,-0.29890785,-8.574495,4451,0,0,2,1
869003024,0.15144624,0.028562957,-0.10384556,4548,0,-0.21671751,-4.714139,-9.04203,4451,0,0,2,1
869025526,-0.009674481,-0.07196361,0.15962313,4548,0,-0.47636762,4.9355016,-8.595766,4451,0,0,2,1
869048028,0.035314135,-0.002665074,-0.05978789,4548,0,1.836628,-0.54874057,-10.974308,4450,0,0,2,1
869061481,0.050002955,-0.03855491,0.022839587,4500,0,-0.7410082,-0.75332767,-8.710495,4451,0,0,2,1
869083984,-0.07182758,0.04014639,0.041905425,4501,0,1.9415432,5.638275,-11.335797,4451,0,0,2,1
869106485,0.12514743,0.05749672,-0.07469531,4500,0,0.014189792,-5.4315705,-10.029741,4450,0,0,2,1
869124487,-0.009774597,0.04452428,-0.03294844,4501,0,1.4571997,0.5020803,-11.176376,4454,0,0,2,1
869142488,-0.011050991,0.042583074,0.03554372,4452,0,1.6312904,0.35278592,-11.220248,4455,0,0,2,1
869164990,0.036384277,-0.0342924,-0.062256034,4452,0,-0.263059,-0.94029987,-8.382958,4453,0,0,2,1
869187492,-0.09625878,-0.0752537,0.13618954,4452,0,0.4737426,3.0700793,-9.642301,4451,0,0,2,1
869205542,-0.032868706,-0.07120883,0.11697073,4548,0,-1.0919,0.6576299,-8.361357,4451,0,0,2,1
869223496,0.04045719,-0.07611322,0.05331251,4501,0,-1.5425066,-0.090521425,-8.363263,4451,0,0,2,1
869246000,-0.0153433,-0.0017509778,0.08458944,4503,0,0.17514019,1.4811087,-11.042011,5935,0,0,2,1
869268500,0.06442476,-0.009052036,-0.032433823,4501,0,1.0674477,3.112467,-9.406231,4450,0,0,2,1
869282001,-0.13856019,-0.0656315,0.06309457,4501,0,-0.29442325,-2.3945742,-9.331794,4452,0,0,2,1
869304503,0.04369866,-0.026911337,0.02953235,4501,0,1.7411872,2.1536372,-11.218637,4451,0,0,2,1
869327005,0.0017271775,-0.08110853,-0.02541041,4501,0,-0.7140096,-0.17248468,-9.383205,4452,0,0,2,1
869345007,-0.003487747,-0.09940462,-0.029865919,4453,0,-0.20831548,1.1120665,-9.35702,4452,0,0,2,1
869363055,0.07273572,-0.042618144,-0.022628406,4548,0,0.84366965,1.5559683,-9.943112,4452,0,0,2,1
869385557,-0.0647181,-0.055228677,0.015875798,4548,0,-0.5365064,-5.9288163,-8.7277775,4448,0,0,2,1
869408059,-0.06542277,-0.008387241,0.042700905,4547,0,1.1953675,2.5016036,-10.2876215,4451,0,1,2,1
869426013,-0.064689815,0.0031548215,0.045470342,4500,0,0.26915956,-0.21145082,-10.016355,4451,0,0,2,1
869444015,-0.05646724,0.017600676,0.021003868,4500,0,1.2130936,-3.2576072,-9.349182,4451,0,0,2,1
869466517,0.07746499,-0.025932983,0.05972916,4500,0,0.8492458,4.3956366,-10.521193,4451,0,0,2,1
869484519,0.06191372,-0.0020242494,0.06973526,4501,0,1.7564641,4.191873,-10.9382305,4451,0,0,2,1
869502520,-0.007912364,-0.0018274,0.06976033,4453,0,1.7524761,2.0471132,-10.335188,4450,0,0,2,1
869525023,-0.014333086,-0.006252114,-0.028411997,4454,0,0.062825866,1.0858185,-9.525088,4450,0,0,2,1
869547524,0.092847735,0.028389087,0.050166402,4453,0,0.38789538,-5.0002704,-9.864889,4451,0,0,2,1
869565573,0.017880809,-0.0036894376,0.0047611385,4548,0,-2.0895534,-6.797616,-8.815531,4451,0,0,2,1
869583527,-0.012906206,-0.033891868,0.0013574641,4500,0,0.16203098,-6.9794865,-10.2104435,4451,0,0,2,1
869606029,-0.12246644,-0.011147094,0.043499757,4500,0,0.2821073,2.5178833,-9.4489355,4451,0,0,2,1
869624031,-0.08765504,0.02016096,0.026388098,4501,0,-0.35138947,-0.5479717,-8.870399,4451,0,0,2,1
869646533,-0.08160432,-0.052748907,0.08027887,4501,0,0.6437749,3.3091216,-10.613507,4449,0,0,2,1
869664534,-0.033314895,-0.06434878,0.13627985,4500,0,0.69439226,5.8510265,-10.356209,4450,0,0,2,1
869687036,0.10587545,-0.025469815,-0.10747241,4500,0,0.33706105,-7.5028534,-9.350118,4451,0,0,2,1
869705039,0.09121834,-0.0005691031,-0.10834209,4454,0,0.92474186,-1.6659502,-10.925947,4451,0,0,2,1
869723087,0.028467942,-0.0063388804,-0.048279814,4548,0,2.8472083,-1.0010153,-11.436374,4451,0,0,2,1
869745589,0.041795153,-0.07287891,0.04094903,4548,0,-2.0358136,-1.5919548,-8.427081,4451,0,0,2,1
869763543,0.035371207,-0.028766384,0.0050169956,4499,0,-1.7046655,-1.9717938,-7.7973003,4451,0,3,2,1
869786045,-0.123815514,-0.03216479,0.1108999,4500,0,1.4186378,2.3931878,-10.50887,4451,0,0,2,1
869804047,-0.10987123,-0.042779315,0.1368287,4501,0,0.46196392,3.2588797,-9.405099,4450,0,0,2,1
869822048,-0.11954932,-0.04559149,0.13209344,4500,0,-0.7843667,-4.1256166,-8.699064,4451,0,0,2,1
869844550,0.070460424,0.05594004,0.0063799787,4500,0,2.2775974,1.9964328,-11.209983,4452,0,0,2,1
869867052,-0.029845044,-0.059887044,0.0034997875,4500,0,-1.3282372,-2.1054742,-7.913853,4451,0,0,2,1
869885054,0.03610687,-0.016500749,-0.013654496,4453,0,-2.5400488,-2.9282277,-8.28778,4450,0,0,2,1
869903103,0.06615705,-0.015236943,0.0077378824,4548,0,-0.8356188,-2.8216026,-8.818659,4450,0,0,2,1
869925605,-0.05292725,0.0026081712,-0.0011305958,4548,0,1.6774006,-0.4677455,-10.218458,4451,0,0,2,1
869943559,-0.080115765,0.00038426815,-0.035282016,4501,0,-0.5811956,1.2737585,-9.9128275,4451,0,0,2,1
869966061,0.045307156,0.013666008,0.12862186,4501,0,0.26820698,1.9294621,-9.95398,5934,0,0,2,1
869984062,0.03837367,0.017998068,0.16681264,4500,0,0.50929767,4.9793487,-9.429606,4451,0,0,2,1
870006564,-0.14135328,-0.05872312,-0.16090177,4500,0,-0.23311621,-3.5400472,-10.888937,4450,0,0,2,1
870024566,-0.13776922,-0.011136538,-0.15345609,4500,0,-0.42835137,-1.919705,-11.003925,4451,0,0,2,1
870042568,-0.08328496,0.044234607,-0.083500855,4453,0,0.065388255,-0.56395966,-10.472456,4451,0,0,2,1
870065070,0.014580788,0.025907064,0.09054599,4453,0,0.537724,2.224357,-9.110848,4451,0,0,2,1
870087571,0.04710066,0.072467774,0.03245324,4452,0,0.9378445,-2.204081,-10.759051,4451,0,0,2,1
870105620,0.05801589,0.07041821,0.0460429,4545,0,0.92183524,-1.0530237,-10.582081,4451,0,0,2,1
870123575,0.0105248615,0.04874059,0.07501808,4501,0,1.0238509,-1.2511408,-10.12827,4450,0,0,2,1
870146077,-0.0120079825,-0.03548873,-0.037019107,4501,0,0.27094477,3.266342,-9.426579,4451,0,0,2,1
870164079,-0.01124801,-0.07255074,-0.038654346,4501,0,0.97187924,5.6805277,-9.583939,4451,0,0,2,1
870182080,-0.03974583,-0.066439055,-0.03147984,4501,0,1.2110087,7.9991364,-10.670602,4451,0,0,2,1
870204582,0.045930278,0.030132232,0.08899492,4501,0,-2.1847696,-11.394003,-9.332559,4450,0,0,2,1
870227084,-0.10013404,-0.022445742,0.035773117,4501,0,3.478201,11.189778,-10.504187,4451,0,0,2,1
870245085,-0.119119786,-0.0031906907,0.039708048,4453,0,1.2830511,9.6867,-9.265431,4452,0,0,2,1
870263135,-0.07866829,-0.0042883493,0.048057735,4548,0,1.4121718,6.4337444,-9.376628,4450,0,0,2,1
870285637,0.09993387,-0.020511353,0.04496523,4548,0,0.18652198,-3.170277,-10.692345,4451,0,0,2,1
870308139,0.003142049,-0.051146816,0.03628665,4548,0,0.6133093,2.2506642,-8.82928,4450,0,0,2,1
870321593,0.116111,0.022503499,0.042931244,4501,0,0.35388798,-2.135887,-10.854924,4451,0,0,2,1
870344094,-0.003914356,-0.0330242,0.010288405,4500,0,-0.78512686,1.2417872,-8.544927,4451,0,0,2,1
870366596,0.032373205,0.03659499,0.06781546,4500,0,2.276999,-0.046811067,-10.880557,4450,0,0,2,1
870384598,-0.019791517,0.04470976,0.09045346,4501,0,1.5755452,0.21029663,-10.750224,4450,0,0,2,1
870402599,-0.054724466,0.04439004,0.11672768,4453,0,3.754561,-2.1485772,-10.972759,4450,0,0,2,1
870425101,-0.019410737,-0.06748531,-0.08325476,4453,0,0.23158157,2.2691195,-9.063519,4451,0,0,2,1
870447603,0.016668564,0.066912554,0.16133337,4453,0,0.34693274,-2.2486362,-10.964116,4447,0,0,2,1
870465652,0.020082012,0.09463637,0.12415646,4548,0,0.78164417,-1.7054441,-11.01536,4454,0,0,2,1
870483612,-0.005481935,0.09573892,0.12942109,4506,0,0.31058174,-1.5715077,-10.939553,4451,0,0,2,1
870506108,-0.08764323,-0.0017905565,-0.07289062,4500,0,0.6744613,4.198377,-9.930417,5934,0,0,2,1
870528610,0.03457409,0.064615466,0.11380767,4500,0,0.19320743,-8.801419,-9.750173,4450,0,0,2,1
870542112,-0.07313126,0.02573161,-0.03695915,4501,0,2.231733,7.252596,-9.937994,4450,0,0,2,1
870564614,-0.117618196,0.077130176,0.046454016,4501,0,0.071447656,-5.4864907,-9.662821,4451,0,0,2,1
870587115,0.0050721713,0.0020030139,0.01663031,4500,0,-0.057628885,5.221941,-10.479992,4451,0,0,2,1
870605117,0.01750677,-0.02168826,0.025434695,4453,0,-0.28130874,4.7473884,-10.226479,4450,0,0,2,1
870623166,0.008605307,-0.01862448,0.039493483,4548,0,-0.19709961,3.5150068,-9.872644,4451,0,0,2,1
870645668,-0.038723964,0.025539642,0.022538485,4548,0,-0.84432065,-5.980258,-9.4233055,4450,0,0,2,1
870663622,-0.022014946,0.0013936866,0.020031031,4500,0,0.9607127,-5.101978,-10.250812,4948,0,37,2,1
870681624,-0.003561028,0.007590064,0.012735738,4501,0,0.5510253,-6.489194,-9.200376,4456,0,37,2,1
870704126,0.045675267,-0.047108043,0.011616234,4501,0,1.3402629,5.8664603,-10.343304,4455,0,0,2,1
870726628,0.017341062,-0.022240112,0.037910774,4501,0,-0.15781468,-6.7031007,-9.56972,4451,0,0,2,1
870744629,0.023131447,-0.034077257,0.03874164,4500,0,-0.08477246,-7.910449,-10.030635,4449,0,0,2,1
870762631,0.006705354,-0.0015009525,0.023081714,4453,0,0.4634104,-4.8562746,-10.040063,4450,0,0,2,1
870785133,0.060288005,-0.030334419,0.031374205,4453,0,0.4393721,2.4928691,-9.838943,4450,0,0,2,1
870807635,0.032060426,0.07065527,-0.021084512,4453,0,1.3413644,-1.4269142,-10.281144,4450,0,0,2,1
870825684,0.06142568,0.089744814,-0.01971572,4548,0,0.937591,-3.0799263,-9.628982,4449,0,0,2,1
870843638,0.04401888,0.08840913,-0.008622192,4501,0,1.0455625,-3.0669901,-9.718712,4450,0,0,2,1
870866140,0.025344722,-0.015699336,-0.0055789375,4501,0,-0.100482166,2.0975757,-9.414795,4450,0,0,2,1
870884142,0.040396843,-0.017545227,-0.022107288,4501,0,-0.024959194,2.3587327,-8.894391,4451,0,0,2,1
870906643,0.07359945,0.058351267,0.024838155,4500,0,2.8167703,-3.2101898,-10.762938,4450,0,0,2,1
870924649,0.05436847,0.06750742,0.024560705,4504,0,1.4270616,-0.84904313,-11.054827,4450,0,0,2,1
870947147,-0.02594097,-0.017323213,-0.048340026,4500,0,-1.8620666,0.9803556,-7.8287907,4448,0,0,2,1
870965148,0.0012144251,-0.0055032545,-0.045374114,4452,0,-0.39835945,0.8058946,-9.068372,4451,0,0,2,1
870983198,0.037381273,-0.02851045,-0.026819684,4548,0,-1.6038294,-0.064256,-9.139513,4451,0,0,2,1
871005700,0.041356336,0.059900332,0.0006465616,4548,0,2.3485413,1.353893,-11.421419,4451,0,0,2,1
871023655,0.05015072,0.03448793,-0.009027006,4502,0,3.8098364,-0.10800711,-11.29468,4450,0,0,2,1
871046156,0.06192177,-0.05007332,-0.008404952,4500,0,-2.1839566,-0.11300691,-7.912914,4451,0,0,2,1
871064157,0.027233245,-0.01067457,-0.015706856,4500,0,-1.1486335,0.953946,-8.124293,4451,0,0,2,1
871086659,0.10190237,0.024799302,-0.0022632824,4500,0,1.2769397,-1.4273719,-10.854469,5933,0,0,2,1
871104663,0.095081165,0.020621572,-0.0051969383,4503,0,1.6701279,0.1834185,-11.224326,4451,0,0,2,1
871127163,-0.018940914,-0.01590049,-0.0016493496,4501,0,-1.6552525,1.1084425,-8.045418,4451,0,0,2,1
871145164,-0.043491717,-0.029933816,0.010367562,4452,0,-1.0054873,0.7145286,-8.004555,4451,0,0,2,1
871163214,-0.053036727,-0.050586153,0.016064988,4548,0,-1.1443559,1.7381995,-8.082278,4451,0,0,2,1
871185716,0.03185837,-0.008281012,-0.050320793,4548,0,1.8941829,-1.2935574,-11.285308,4450,0,0,2,1
871203670,0.004382255,0.031722773,-0.07359428,4501,0,1.2138349,-0.80526394,-10.574621,4450,0,0,2,1
871226171,-0.012298953,-0.030736951,0.048983194,4500,0,-1.40159,0.43127665,-8.422454,4450,0,0,2,1
871244173,0.008580366,-0.024156876,0.05571594,4500,0,-0.97827065,1.7564949,-8.481528,4450,0,0,2,1
871266675,0.0513477,0.002895806,-0.08715882,4500,0,0.8800795,-3.5669963,-10.586462,4450,0,0,2,1
871284677,0.039594132,-0.024017014,-0.08760617,4501,0,0.16218475,-3.9644806,-10.267332,4450,0,0,2,1
871302678,-0.002737088,-0.0124484375,-0.094477676,4453,0,-1.0602001,-2.8837068,-10.24902,4451,0,0,2,1
871325180,-0.042023916,0.014730643,0.071355276,4453,0,1.3771126,2.3085432,-8.992306,4450,0,0,2,1
871347682,-0.067411065,-0.020122016,-0.13535804,4453,0,-1.005389,-1.4068074,-9.74776,4450,0,0,2,1
871365731,-0.055369947,-0.04603646,-0.16155644,4548,0,-0.0053482093,-2.5696309,-10.544885,4451,0,0,2,1
871383685,-0.026174955,-0.07467536,-0.18205218,4500,0,-0.5539957,-3.4220262,-10.8516865,4451,0,0,2,1
871406187,0.074414514,-0.03195927,0.17378503,4500,0,1.9859337,4.29997,-9.450364,4450,0,0,2,1
871424189,0.03614044,-0.020521047,0.21602619,4501,0,2.0739462,5.58638,-9.361495,4450,0,0,2,1
871442190,0.042649005,-0.06976708,0.25637123,4500,0,2.1968477,7.4153595,-9.948615,4450,0,0,2,1
871464692,0.07091113,0.017428756,-0.33359718,4500,0,-1.123278,-11.234917,-8.82806,4450,0,0,2,1
871482694,0.16818562,0.068592034,-0.29735485,4453,0,1.5417867,-2.551577,-8.607179,4452,0,37,2,1
871505196,-0.23309775,-0.072836086,0.15431331,4453,0,0.40350193,6.7670517,-10.498,4451,0,0,2,1
871523245,-0.16200222,-0.024526792,0.096684374,4548,0,0.7649686,6.12472,-10.106145,4453,0,0,2,1
871545747,0.0816523,0.033996437,-0.15108901,4548,0,0.24868034,-4.7531796,-9.892523,4451,0,0,2,1
871563701,0.06932567,0.021825628,-0.16394825,4501,0,1.1247526,-4.2090898,-9.350028,4447,0,0,2,1
871581703,0.062156595,0.047627125,-0.16534641,4501,0,1.4715438,-5.515531,-9.382982,4450,0,0,2,1
871604205,-0.06268099,-0.0141592575,0.062084198,4497,0,-0.04068898,5.356296,-10.298469,4451,0,0,2,1
871626707,0.047574624,0.03890206,-0.10127658,4501,0,0.065572366,-1.7355506,-8.913711,4451,0,0,2,1
871644713,0.016444607,0.04325253,-0.11701515,4505,0,1.0946758,-2.1762867,-9.023522,4451,0,0,2,1
871662710,-0.016652396,0.029801724,-0.1504153,4453,0,2.4038403,-2.16054,-8.963215,4451,0,0,2,1
871685212,0.05384111,0.0121462885,0.11945953,4453,0,0.7803485,-0.18038154,-10.546892,4451,0,0,2,1
871707714,-0.05040328,-0.030042574,-0.17731872,4453,0,-0.12443018,0.83402634,-8.105801,4451,0,0,2,1
871725765,-0.03159933,-0.03620103,-0.14049697,4550,0,-0.6593327,-0.15080608,-7.7845387,4454,0,0,2,1
871743717,-0.0026876114,-0.028470576,-0.10322844,4501,0,-1.4427931,-0.88939816,-8.003128,4451,0,0,2,1
871766219,0.047704384,0.027017392,0.0076868166,4501,0,2.1812449,-0.7127895,-11.317964,4451,0,0,2,1
871788721,0.12183217,0.00037472745,-0.028471967,4498,0,-1.5698801,-2.0009634,-8.217197,4451,0,0,2,1
871802223,0.010915035,-0.003452899,-0.024165688,4501,0,1.4407523,2.1795306,-11.310547,4452,0,0,2,1
871824724,0.21718167,0.002190711,-0.028882315,4500,0,-1.7443863,-1.6065682,-8.432998,4452,0,0,2,1
871847226,0.002734712,0.013671936,-0.06430647,4500,0,1.352771,1.1069553,-10.549935,4450,0,0,2,1
871865228,0.0028453798,-0.018614765,-0.0628381,4453,0,1.0805962,1.0122926,-10.401437,4451,0,0,2,1
871883278,-0.015095173,-0.0043609436,-0.04971535,4549,0,-0.036024477,0.08494118,-9.983034,4450,0,0,2,1
871905785,0.1270079,0.027418952,-0.055751152,4554,0,1.6946335,1.6289526,-10.049504,4454,0,0,2,1
871928281,-0.025745763,0.009531373,-0.024145992,4548,0,-1.0451814,-3.934333,-8.607003,5934,0,0,2,1
871946235,0.012628847,-0.005200459,-0.012784074,4500,0,-1.6123539,-9.838605,-8.515563,4451,0,0,2,1
871964239,0.07421622,-0.0073961127,-0.01878743,4503,0,-2.305523,-10.165747,-8.790395,4451,0,0,2,1
871986738,-0.020921694,-0.005002046,-0.13509752,4500,0,2.5159874,7.038724,-10.444988,4451,0,0,2,1
872004740,-0.0074275946,-0.020430958,-0.12993324,4501,0,0.8181788,4.161942,-9.817741,4451,0,0,2,1
