timestamp,timestamp_sample,q[0],q[1],q[2],q[3],delta_q_reset[0],delta_q_reset[1],delta_q_reset[2],delta_q_reset[3],quat_reset_counter
859885413,859885172,0.7215322,-0.024998488,0.0122879,0.6918204,0.9967466,-1.1341755e-09,-2.114468e-09,0.08059999,7
859889966,859889720,0.72153497,-0.024993738,0.012288347,0.69181764,0.9967466,-1.1341755e-09,-2.114468e-09,0.08059999,7
859903339,859903173,0.7215341,-0.025013648,0.012297418,0.6918177,0.9967466,-1.1341755e-09,-2.114468e-09,0.08059999,7
859925859,859925676,0.72153693,-0.025021093,0.012309634,0.6918142,0.9967466,-1.1341755e-09,-2.114468e-09,0.08059999,7
859948366,859948177,0.72153,-0.02504035,0.012293277,0.69182104,0.9967466,-1.1341755e-09,-2.114468e-09,0.08059999,7
859961867,859961679,0.72153497,-0.025045376,0.012289692,0.69181573,0.9967466,-1.1341755e-09,-2.114468e-09,0.08059999,7
859984402,859984181,0.721526,-0.025089283,0.012308853,0.6918232,0.9967466,-1.1341755e-09,-2.114468e-09,0.08059999,7
860006873,860006685,0.72154987,-0.02509278,0.012284151,0.69179857,0.9967466,-1.1341755e-09,-2.114468e-09,0.08059999,7
860024986,860024732,0.72159255,-0.0250938,0.012279907,0.6917541,0.9967466,-1.1341755e-09,-2.114468e-09,0.08059999,7
860042854,860042686,0.72166985,-0.025144817,0.012311032,0.69167113,0.9967466,-1.1341755e-09,-2.114468e-09,0.08059999,7
860065367,860065188,0.7214536,-0.025044806,0.012281598,0.69190073,0.9967466,-1.1341755e-09,-2.114468e-09,0.08059999,7
860087854,860087690,0.72142804,-0.025072496,0.012248434,0.691927,0.9967466,-1.1341755e-09,-2.114468e-09,0.08059999,7
860105864,860105691,0.7217423,-0.025032897,0.012173434,0.691602,0.9967466,-1.1341755e-09,-2.114468e-09,0.08059999,7
860123887,860123693,0.7213172,-0.025087817,0.012252769,0.692042,0.9967466,-1.1341755e-09,-2.114468e-09,0.08059999,7
860146464,860146195,0.7211435,-0.025050402,0.012254669,0.6922243,0.9967466,-1.1341755e-09,-2.114468e-09,0.08059999,7
860168881,860164197,0.7217076,-0.0249226,0.012091576,0.69164366,0.9967466,-1.1341755e-09,-2.114468e-09,0.08059999,7
860179390,860177698,0.7219314,-0.025000824,0.012109109,0.6914069,0.9967466,-1.1341755e-09,-2.114468e-09,0.08059999,7
860206404,860204749,0.7214022,-0.024908727,0.012117604,0.6919622,0.9967466,-1.1341755e-09,-2.114468e-09,0.08059999,7
860227436,860227249,0.72134846,-0.024983922,0.0119879795,0.69201773,0.9967466,-1.1341755e-09,-2.114468e-09,0.08059999,7
860245402,860245206,0.7214642,-0.024704538,0.011907014,0.6919085,0.9967466,-1.1341755e-09,-2.114468e-09,0.08059999,7
860263374,860263205,0.7216783,-0.024696382,0.012060186,0.6916828,0.9967466,-1.1341755e-09,-2.114468e-09,0.08059999,7
860285892,860285708,0.721526,-0.024854764,0.012018573,0.6918367,0.9967466,-1.1341755e-09,-2.114468e-09,0.08059999,7
860308378,860308209,0.72139955,-0.024864746,0.0119690215,0.69196916,0.9967466,-1.1341755e-09,-2.114468e-09,0.08059999,7
860326443,860326211,0.7214999,-0.024621028,0.011814378,0.6918758,0.9967466,-1.1341755e-09,-2.114468e-09,0.08059999,7
860344432,860344213,0.72178006,-0.024474759,0.011723991,0.6915903,0.9967466,-1.1341755e-09,-2.114468e-09,0.08059999,7
860366925,860366715,0.7216211,-0.02464685,0.011818691,0.6917485,0.9967466,-1.1341755e-09,-2.114468e-09,0.08059999,7
860384976,860384764,0.72141457,-0.024803892,0.011785495,0.6919588,0.9967466,-1.1341755e-09,-2.114468e-09,0.08059999,7
860402891,860402717,0.7215048,-0.024471637,0.011808325,0.6918761,0.9967466,-1.1341755e-09,-2.114468e-09,0.08059999,7
860425411,860425221,0.72166723,-0.024500743,0.011718716,0.69170725,0.9967466,-1.1341755e-09,-2.114468e-09,0.08059999,7
860447905,860447722,0.7215083,-0.024565054,0.011750999,0.69187015,0.9967466,-1.1341755e-09,-2.114468e-09,0.08059999,7
860465944,860465723,0.7215224,-0.02470522,0.011712401,0.6918511,0.9967466,-1.1341755e-09,-2.114468e-09,0.08059999,7
860483912,860483725,0.7215813,-0.024362719,0.0116453795,0.69180304,0.9967466,-1.1341755e-09,-2.114468e-09,0.08059999,7
860506417,860506227,0.72156626,-0.024409011,0.0116780475,0.69181645,0.9967466,-1.1341755e-09,-2.114468e-09,0.08059999,7
860524478,860524228,0.7215557,-0.024718218,0.011794306,0.6918145,0.9967466,-1.1341755e-09,-2.114468e-09,0.08059999,7
860546939,860546730,0.7215555,-0.024758495,0.011791062,0.6918134,0.9967466,-1.1341755e-09,-2.114468e-09,0.08059999,7
860564988,860564779,0.72154915,-0.0244024,0.011717164,0.69183385,0.9967466,-1.1341755e-09,-2.114468e-09,0.08059999,7
860587516,860587282,0.7215415,-0.024399001,0.011738951,0.69184154,0.9967466,-1.1341755e-09,-2.114468e-09,0.08059999,7
860605413,860605235,0.72150487,-0.024694351,0.011812064,0.69186807,0.9967466,-1.1341755e-09,-2.114468e-09,0.08059999,7
860623437,860623237,0.72152793,-0.024562262,0.011734817,0.69185007,0.9967466,-1.1341755e-09,-2.114468e-09,0.08059999,7
860645904,860645741,0.72154605,-0.02442131,0.011724395,0.6918364,0.9967466,-1.1341755e-09,-2.114468e-09,0.08059999,7
860664013,860663742,0.72153604,-0.024520816,0.011711358,0.6918435,0.9967466,-1.1341755e-09,-2.114468e-09,0.08059999,7
860686438,860686243,0.7215259,-0.024626205,0.01173177,0.69184995,0.9967466,-1.1341755e-09,-2.114468e-09,0.08059999,7
860704506,860704244,0.72152716,-0.02463272,0.011731584,0.6918484,0.9967466,-1.1341755e-09,-2.114468e-09,0.08059999,7
860726994,860726746,0.7215705,-0.024462061,0.011692227,0.6918099,0.9967466,-1.1341755e-09,-2.114468e-09,0.08059999,7
860745050,860744797,0.72151417,-0.024461651,0.0117339585,0.69186795,0.9967466,-1.1341755e-09,-2.114468e-09,0.08059999,7
860762925,860762750,0.7215251,-0.024706611,0.011790291,0.69184697,0.9967466,-1.1341755e-09,-2.114468e-09,0.08059999,7
860785456,860785254,0.72153777,-0.024645634,0.011734755,0.69183683,0.9967466,-1.1341755e-09,-2.114468e-09,0.08059999,7
860803427,860803255,0.72153676,-0.024451042,0.0117223505,0.691845,0.9967466,-1.1341755e-09,-2.114468e-09,0.08059999,7
860825923,860825757,0.72152466,-0.024504617,0.011791811,0.6918546,0.9967466,-1.1341755e-09,-2.114468e-09,0.08059999,7
860844021,860843757,0.72151685,-0.024688343,0.01175335,0.69185686,0.9967466,-1.1341755e-09,-2.114468e-09,0.08059999,7
860866454,860866259,0.7215224,-0.024598364,0.011754541,0.6918542,0.9967466,-1.1341755e-09,-2.114468e-09,0.08059999,7
860884546,860884261,0.72153705,-0.024526361,0.011770713,0.69184124,0.9967466,-1.1341755e-09,-2.114468e-09,0.08059999,7
860906970,860906762,0.7215246,-0.024595734,0.011729482,0.6918524,0.9967466,-1.1341755e-09,-2.114468e-09,0.08059999,7
860925083,860924812,0.7213964,-0.024606073,0.011755265,0.69198537,0.9967466,-1.1341755e-09,-2.114468e-09,0.08059999,7
860942953,860942765,0.7213428,-0.024518345,0.011832219,0.69204295,0.9967466,-1.1341755e-09,-2.114468e-09,0.08059999,7
860965474,860965267,0.72151536,-0.024585817,0.011855487,0.69186026,0.9967466,-1.1341755e-09,-2.114468e-09,0.08059999,7
860983483,860983269,0.72149855,-0.024730867,0.011980701,0.69187045,0.9967466,-1.1341755e-09,-2.114468e-09,0.08059999,7
861005977,861005777,0.7214251,-0.024722356,0.01201298,0.6919468,0.9967466,-1.1341755e-09,-2.114468e-09,0.08059999,7
861023957,861023772,0.72143906,-0.024614386,0.011980838,0.69193673,0.9967466,-1.1341755e-09,-2.114468e-09,0.08059999,7
861046501,861046274,0.7215033,-0.024584347,0.012016419,0.6918701,0.9967466,-1.1341755e-09,-2.114468e-09,0.08059999,7
861064494,861064276,0.72143596,-0.024712907,0.012070728,0.6919349,0.9967466,-1.1341755e-09,-2.114468e-09,0.08059999,7
861082538,861082325,0.7214552,-0.024769906,0.012122144,0.6919119,0.9967466,-1.1341755e-09,-2.114468e-09,0.08059999,7
861105080,861104827,0.72149175,-0.024779323,0.012158897,0.6918727,0.9967466,-1.1341755e-09,-2.114468e-09,0.08059999,7
861127564,861127329,0.72146565,-0.024759619,0.012239061,0.6918993,0.9967466,-1.1341755e-09,-2.114468e-09,0.08059999,7
861145475,861145283,0.72144383,-0.024775475,0.012231242,0.6919216,0.9967466,-1.1341755e-09,-2.114468e-09,0.08059999,7
861163455,861163285,0.72145766,-0.02482232,0.012226392,0.6919055,0.9967466,-1.1341755e-09,-2.114468e-09,0.08059999,7
861185996,861185788,0.7214498,-0.024825228,0.012272426,0.6919128,0.9967466,-1.1341755e-09,-2.114468e-09,0.08059999,7
861203990,861203789,0.7214501,-0.024826227,0.012337667,0.69191134,0.9967466,-1.1341755e-09,-2.114468e-09,0.08059999,7
861221979,861221790,0.7214605,-0.024833716,0.012354823,0.69189996,0.9967466,-1.1341755e-09,-2.114468e-09,0.08059999,7
861244548,861244294,0.7214598,-0.024865752,0.012379419,0.69189906,0.9967466,-1.1341755e-09,-2.114468e-09,0.08059999,7
861267041,861266794,0.72145414,-0.024852788,0.012385709,0.69190526,0.9967466,-1.1341755e-09,-2.114468e-09,0.08059999,7
861285052,861284843,0.7214423,-0.024857221,0.012372183,0.6919178,0.9967466,-1.1341755e-09,-2.114468e-09,0.08059999,7
861302964,861302800,0.72146016,-0.024923326,0.012424186,0.6918957,0.9967466,-1.1341755e-09,-2.114468e-09,0.08059999,7
861325470,861325299,0.72147244,-0.024944915,0.012491961,0.69188094,0.9967466,-1.1341755e-09,-2.114468e-09,0.08059999,7
861348018,861347801,0.7214406,-0.025000118,0.0125303995,0.69191146,0.9967466,-1.1341755e-09,-2.114468e-09,0.08059999,7
861365981,861365803,0.72144395,-0.025032416,0.012589587,0.69190574,0.9967466,-1.1341755e-09,-2.114468e-09,0.08059999,7
861384002,861383804,0.72144043,-0.024992742,0.012590077,0.69191086,0.9967466,-1.1341755e-09,-2.114468e-09,0.08059999,7
861406493,861406306,0.72143877,-0.025039349,0.012625452,0.6919103,0.9967466,-1.1341755e-09,-2.114468e-09,0.08059999,7
861424570,861424308,0.72144115,-0.025029423,0.012671382,0.6919073,0.9967466,-1.1341755e-09,-2.114468e-09,0.08059999,7
861442572,861442357,0.7214452,-0.025038134,0.012709927,0.69190204,0.9967466,-1.1341755e-09,-2.114468e-09,0.08059999,7
861465073,861464859,0.7214524,-0.025077492,0.012756371,0.69189227,0.9967466,-1.1341755e-09,-2.114468e-09,0.08059999,7
861487552,861487361,0.7214435,-0.025129095,0.012796613,0.69189894,0.9967466,-1.1341755e-09,-2.114468e-09,0.08059999,7
861505489,861505315,0.7214543,-0.025110688,0.012878865,0.6918867,0.9967466,-1.1341755e-09,-2.114468e-09,0.08059999,7
861523488,861523317,0.7214547,-0.025216907,0.012827263,0.6918835,0.9967466,-1.1341755e-09,-2.114468e-09,0.08059999,7
861545985,861545819,0.721445,-0.025164543,0.012844322,0.6918952,0.9967466,-1.1341755e-09,-2.114468e-09,0.08059999,7
861568596,861568321,0.7214313,-0.025168095,0.0128706535,0.6919089,0.9967466,-1.1341755e-09,-2.114468e-09,0.08059999,7
861582003,861581822,0.7214819,-0.025273534,0.012972241,0.6918503,0.9967466,-1.1341755e-09,-2.114468e-09,0.08059999,7
861604541,861604324,0.7214661,-0.02535002,0.012942052,0.69186455,0.9967466,-1.1341755e-09,-2.114468e-09,0.08059999,7
861627038,861626827,0.7214739,-0.025297923,0.012961164,0.691858,0.9967466,-1.1341755e-09,-2.114468e-09,0.08059999,7
861645086,861644875,0.72146225,-0.025238419,0.013052937,0.6918707,0.9967466,-1.1341755e-09,-2.114468e-09,0.08059999,7
861663009,861662829,0.72148496,-0.025307784,0.013186559,0.69184184,0.9967466,-1.1341755e-09,-2.114468e-09,0.08059999,7
861685564,861685331,0.72147334,-0.025318347,0.013161518,0.6918541,0.9967466,-1.1341755e-09,-2.114468e-09,0.08059999,7
861708017,861707833,0.7214653,-0.025265675,0.013245868,0.69186276,0.9967466,-1.1341755e-09,-2.114468e-09,0.08059999,7
861726045,861725835,0.7214664,-0.025279485,0.013127507,0.69186336,0.9967466,-1.1341755e-09,-2.114468e-09,0.08059999,7
861744046,861743836,0.721454,-0.025305068,0.013098753,0.6918759,0.9967466,-1.1341755e-09,-2.114468e-09,0.08059999,7
861766535,861766338,0.72144973,-0.025301274,0.013126713,0.69188,0.9967466,-1.1341755e-09,-2.114468e-09,0.08059999,7
861784557,861784340,0.72144634,-0.02528806,0.013192881,0.6918827,0.9967466,-1.1341755e-09,-2.114468e-09,0.08059999,7
861802581,861802389,0.7214459,-0.025266312,0.01317156,0.6918844,0.9967466,-1.1341755e-09,-2.114468e-09,0.08059999,7
861825153,861824891,0.7214404,-0.025248647,0.0131700365,0.6918908,0.9967466,-1.1341755e-09,-2.114468e-09,0.08059999,7
861847609,861847397,0.72143984,-0.025259765,0.013133572,0.6918917,0.9967466,-1.1341755e-09,-2.114468e-09,0.08059999,7
861865519,861865347,0.72141916,-0.02527631,0.01323154,0.69191074,0.9967466,-1.1341755e-09,-2.114468e-09,0.08059999,7
861883516,861883348,0.72144216,-0.025279487,0.013291959,0.69188553,0.9967466,-1.1341755e-09,-2.114468e-09,0.08059999,7
861906014,861905851,0.72146577,-0.025252512,0.013281728,0.69186205,0.9967466,-1.1341755e-09,-2.114468e-09,0.08059999,7
861924043,861923852,0.7214731,-0.025247915,0.013262205,0.691855,0.9967466,-1.1341755e-09,-2.114468e-09,0.08059999,7
861946546,861946354,0.72142917,-0.025107136,0.013245011,0.69190633,0.9967466,-1.1341755e-09,-2.114468e-09,0.08059999,7
861964605,861964356,0.72143584,-0.025038557,0.013217548,0.69190234,0.9967466,-1.1341755e-09,-2.114468e-09,0.08059999,7
861987057,861986858,0.72142535,-0.025021788,0.013224614,0.6919138,0.9967466,-1.1341755e-09,-2.114468e-09,0.08059999,7
862005119,862004907,0.721435,-0.025022969,0.013213829,0.69190377,0.9967466,-1.1341755e-09,-2.114468e-09,0.08059999,7
862023036,862022861,0.721434,-0.025009744,0.0131365815,0.69190687,0.9967466,-1.1341755e-09,-2.114468e-09,0.08059999,7
862045539,862045365,0.72145754,-0.02493641,0.013133875,0.69188493,0.9967466,-1.1341755e-09,-2.114468e-09,0.08059999,7
862063528,862063364,0.7214755,-0.024911422,0.013135113,0.6918671,0.9967466,-1.1341755e-09,-2.114468e-09,0.08059999,7
862081727,862081366,0.7214704,-0.024828997,0.013092202,0.6918762,0.9967466,-1.1341755e-09,-2.114468e-09,0.08059999,7
862104076,862103868,0.721434,-0.02475792,0.013027599,0.6919179,0.9967466,-1.1341755e-09,-2.114468e-09,0.08059999,7
862126561,862126370,0.7214721,-0.024625435,0.012885786,0.69188553,0.9967466,-1.1341755e-09,-2.114468e-09,0.08059999,7
862144581,862144372,0.72146785,-0.024581077,0.012895063,0.69189143,0.9967466,-1.1341755e-09,-2.114468e-09,0.08059999,7
862167060,862166873,0.72145766,-0.024463799,0.012817638,0.6919076,0.9967466,-1.1341755e-09,-2.114468e-09,0.08059999,7
862185127,862184923,0.72149813,-0.024413757,0.0127081815,0.69186914,0.9967466,-1.1341755e-09,-2.114468e-09,0.08059999,7
862203090,862202877,0.72147864,-0.024354026,0.012657356,0.6918926,0.9967466,-1.1341755e-09,-2.114468e-09,0.08059999,7
862225615,862225379,0.7214382,-0.024254166,0.012752781,0.69193643,0.9967466,-1.1341755e-09,-2.114468e-09,0.08059999,7
862243569,862243380,0.72151214,-0.024221633,0.01273355,0.6918609,0.9967466,-1.1341755e-09,-2.114468e-09,0.08059999,7
862266044,862265882,0.72152424,-0.024114883,0.012630387,0.6918538,0.9967466,-1.1341755e-09,-2.114468e-09,0.08059999,7
862284120,862283884,0.721504,-0.02415715,0.012656573,0.6918731,0.9967466,-1.1341755e-09,-2.114468e-09,0.08059999,7
862306576,862306386,0.72144777,-0.024005963,0.012492466,0.6919399,0.9967466,-1.1341755e-09,-2.114468e-09,0.08059999,7
862324628,862324388,0.7215451,-0.023872815,0.012478161,0.69184333,0.9967466,-1.1341755e-09,-2.114468e-09,0.08059999,7
862342639,862342437,0.72156805,-0.02370147,0.012362152,0.69182736,0.9967466,-1.1341755e-09,-2.114468e-09,0.08059999,7
862365239,862364939,0.721547,-0.023514822,0.012233065,0.69185793,0.9967466,-1.1341755e-09,-2.114468e-09,0.08059999,7
862387630,862387441,0.7216752,-0.023318209,0.011952252,0.69173574,0.9967466,-1.1341755e-09,-2.114468e-09,0.08059999,7
862405565,862405395,0.7216125,-0.023162544,0.011973638,0.691806,0.9967466,-1.1341755e-09,-2.114468e-09,0.08059999,7
862423652,862423396,0.7216302,-0.022858005,0.011798874,0.6918007,0.9967466,-1.1341755e-09,-2.114468e-09,0.08059999,7
862446062,862445898,0.721596,-0.022419462,0.011522243,0.6918554,0.9967466,-1.1341755e-09,-2.114468e-09,0.08059999,7
862464120,862463900,0.72166884,-0.021906316,0.011170441,0.69180167,0.9967466,-1.1341755e-09,-2.114468e-09,0.08059999,7
862482108,862481901,0.7216571,-0.02126436,0.010988067,0.6918369,0.9967466,-1.1341755e-09,-2.114468e-09,0.08059999,7
862504677,862504404,0.7215771,-0.020355767,0.01033163,0.6919577,0.9967466,-1.1341755e-09,-2.114468e-09,0.08059999,7
862527104,862526905,0.721596,-0.018957304,0.009798342,0.6919855,0.9967466,-1.1341755e-09,-2.114468e-09,0.08059999,7
862545223,862544955,0.721598,-0.017700719,0.009434069,0.6920218,0.9967466,-1.1341755e-09,-2.114468e-09,0.08059999,7
862563091,862562908,0.72143996,-0.016531924,0.008901954,0.69222236,0.9967466,-1.1341755e-09,-2.114468e-09,0.08059999,7
862585652,862585411,0.7213425,-0.014906152,0.007886344,0.6923732,0.9967466,-1.1341755e-09,-2.114468e-09,0.08059999,7
862608077,862607912,0.72133625,-0.012332413,0.0075162346,0.6924345,0.9967466,-1.1341755e-09,-2.114468e-09,0.08059999,7
862621622,862621414,0.7213266,-0.010864141,0.0071863504,0.6924727,0.9967466,-1.1341755e-09,-2.114468e-09,0.08059999,7
862644131,862643915,0.7210845,-0.0079163285,0.0064644674,0.69277185,0.9967466,-1.1341755e-09,-2.114468e-09,0.08059999,7
862666662,862666418,0.72090113,-0.004678805,0.005742861,0.6929984,0.9967466,-1.1341755e-09,-2.114468e-09,0.08059999,7
862684716,862684419,0.7206529,-0.0019797354,0.005107201,0.69327444,0.9967466,-1.1341755e-09,-2.114468e-09,0.08059999,7
862702660,862702469,0.72035134,0.0011555685,0.0044223163,0.6935944,0.9967466,-1.1341755e-09,-2.114468e-09,0.08059999,7
862725193,862724970,0.7199073,0.0053815907,0.0037631318,0.6940392,0.9967466,-1.1341755e-09,-2.114468e-09,0.08059999,7
862747681,862747472,0.7194535,0.010097718,0.0034384371,0.6944587,0.9967466,-1.1341755e-09,-2.114468e-09,0.08059999,7
862765721,862765427,0.719136,0.014114922,0.0036705816,0.6947163,0.9967466,-1.1341755e-09,-2.114468e-09,0.08059999,7
862783596,862783428,0.718852,0.01735147,0.0044743847,0.69493216,0.9967466,-1.1341755e-09,-2.114468e-09,0.08059999,7
862806197,862805930,0.7184921,0.020586193,0.0050630644,0.69521207,0.9967466,-1.1341755e-09,-2.114468e-09,0.08059999,7
862828595,862828432,0.7181782,0.021807872,0.0041067745,0.6955054,0.9967466,-1.1341755e-09,-2.114468e-09,0.08059999,7
862842143,862841933,0.7179129,0.022080634,0.003747287,0.6957726,0.9967466,-1.1341755e-09,-2.114468e-09,0.08059999,7
862864676,862864436,0.7176456,0.02081659,0.0026593318,0.6960923,0.9967466,-1.1341755e-09,-2.114468e-09,0.08059999,7
862887169,862886937,0.7172894,0.018786369,0.0024487323,0.69651777,0.9967466,-1.1341755e-09,-2.114468e-09,0.08059999,7
862905198,862904986,0.71701044,0.016344108,0.0024608783,0.6968665,0.9967466,-1.1341755e-09,-2.114468e-09,0.08059999,7
862923105,862922940,0.71672297,0.013616723,0.0020721916,0.697222,0.9967466,-1.1341755e-09,-2.114468e-09,0.08059999,7
862945670,862945442,0.7164205,0.009722701,0.0016109395,0.69759923,0.9967466,-1.1341755e-09,-2.114468e-09,0.08059999,7
862968123,862967944,0.71599984,0.0068864115,0.00217756,0.6980631,0.9967466,-1.1341755e-09,-2.114468e-09,0.08059999,7
862986107,862985946,0.715681,0.0050060633,0.002763966,0.6984039,0.9967466,-1.1341755e-09,-2.114468e-09,0.08059999,7
863004185,863003947,0.71537626,0.002824385,0.0035008022,0.69872504,0.9967466,-1.1341755e-09,-2.114468e-09,0.08059999,7
863026684,863026449,0.7148374,0.00063447177,0.004409619,0.6992766,0.9967466,-1.1341755e-09,-2.114468e-09,0.08059999,7
863044675,863044451,0.7146116,-0.0012458207,0.005754357,0.6994967,0.9967466,-1.1341755e-09,-2.114468e-09,0.08059999,7
863062745,863062500,0.71437263,-0.0040109367,0.00697268,0.69971937,0.9967466,-1.1341755e-09,-2.114468e-09,0.08059999,7
863085234,863085002,0.7139691,-0.008077293,0.007834947,0.7000868,0.9967466,-1.1341755e-09,-2.114468e-09,0.08059999,7
863107749,863107504,0.71338475,-0.011199134,0.008906502,0.7006265,0.9967466,-1.1341755e-09,-2.114468e-09,0.08059999,7
863125646,863125458,0.71303666,-0.013113556,0.009521096,0.7009395,0.9967466,-1.1341755e-09,-2.114468e-09,0.08059999,7
863143630,863143460,0.71259016,-0.01471955,0.009982576,0.70135516,0.9967466,-1.1341755e-09,-2.114468e-09,0.08059999,7
863166127,863165962,0.7121387,-0.016206348,0.010850661,0.70176786,0.9967466,-1.1341755e-09,-2.114468e-09,0.08059999,7
863184198,863183963,0.7116803,-0.017422702,0.011421265,0.7021945,0.9967466,-1.1341755e-09,-2.114468e-09,0.08059999,7
863206690,863206465,0.711302,-0.019085716,0.012654475,0.7025134,0.9967466,-1.1341755e-09,-2.114468e-09,0.08059999,7
863224688,863224467,0.7107374,-0.02077038,0.013178363,0.7030273,0.9967466,-1.1341755e-09,-2.114468e-09,0.08059999,7
863247155,863246969,0.7105073,-0.022318974,0.014604535,0.7031843,0.9967466,-1.1341755e-09,-2.114468e-09,0.08059999,7
863265233,863265018,0.7099427,-0.0231737,0.015495688,0.7037076,0.9967466,-1.1341755e-09,-2.114468e-09,0.08059999,7
863283200,863282972,0.70942396,-0.024099108,0.015983053,0.7041885,0.9967466,-1.1341755e-09,-2.114468e-09,0.08059999,7
863305664,863305474,0.7088676,-0.025427844,0.016629655,0.70468694,0.9967466,-1.1341755e-09,-2.114468e-09,0.08059999,7
863323645,863323476,0.7083938,-0.02650108,0.016587606,0.7051247,0.9967466,-1.1341755e-09,-2.114468e-09,0.08059999,7
863346173,863345978,0.7078736,-0.028084794,0.01605161,0.7055981,0.9967466,-1.1341755e-09,-2.114468e-09,0.08059999,7
863364192,863363981,0.7074494,-0.02951847,0.01549938,0.70597726,0.9967466,-1.1341755e-09,-2.114468e-09,0.08059999,7
863386681,863386481,0.7069571,-0.031020774,0.014457826,0.70642793,0.9967466,-1.1341755e-09,-2.114468e-09,0.08059999,7
863404725,863404483,0.70655084,-0.031677883,0.013859049,0.70681715,0.9967466,-1.1341755e-09,-2.114468e-09,0.08059999,7
863427175,863426985,0.7060802,-0.03228949,0.01377441,0.7072613,0.9967466,-1.1341755e-09,-2.114468e-09,0.08059999,7
863445262,863445034,0.7057928,-0.032639083,0.013627177,0.70753485,0.9967466,-1.1341755e-09,-2.114468e-09,0.08059999,7
863463150,863462988,0.7055627,-0.032734025,0.013266719,0.7077667,0.9967466,-1.1341755e-09,-2.114468e-09,0.08059999,7
863485674,863485490,0.7053413,-0.032777,0.012829623,0.70799345,0.9967466,-1.1341755e-09,-2.114468e-09,0.08059999,7
863503660,863503491,0.7051133,-0.032853823,0.012639506,0.7082204,0.9967466,-1.1341755e-09,-2.114468e-09,0.08059999,7
863526157,863525994,0.70471436,-0.03312438,0.012259892,0.7086114,0.9967466,-1.1341755e-09,-2.114468e-09,0.08059999,7
863544203,863543995,0.70444083,-0.033348553,0.012084475,0.7088759,0.9967466,-1.1341755e-09,-2.114468e-09,0.08059999,7
863566686,863566497,0.7042385,-0.033762053,0.012285159,0.7090539,0.9967466,-1.1341755e-09,-2.114468e-09,0.08059999,7
863584743,863584499,0.7039944,-0.034089737,0.012595632,0.7092751,0.9967466,-1.1341755e-09,-2.114468e-09,0.08059999,7
863602789,863602548,0.70371157,-0.03464002,0.012945651,0.70952284,0.9967466,-1.1341755e-09,-2.114468e-09,0.08059999,7
863625279,863625050,0.7034385,-0.035196017,0.013497459,0.70975584,0.9967466,-1.1341755e-09,-2.114468e-09,0.08059999,7
863647766,863647552,0.7029468,-0.03593807,0.013787361,0.71020013,0.9967466,-1.1341755e-09,-2.114468e-09,0.08059999,7
863665692,863665506,0.70267355,-0.036339622,0.014083586,0.7104442,0.9967466,-1.1341755e-09,-2.114468e-09,0.08059999,7
863683679,863683507,0.70248944,-0.036643855,0.014217165,0.710608,0.9967466,-1.1341755e-09,-2.114468e-09,0.08059999,7
863706174,863706009,0.70212543,-0.037118286,0.013921702,0.710949,0.9967466,-1.1341755e-09,-2.114468e-09,0.08059999,7
863724252,863724011,0.7018601,-0.037391827,0.013666074,0.7112015,0.9967466,-1.1341755e-09,-2.114468e-09,0.08059999,7
863742264,863742012,0.70165056,-0.03766659,0.013478197,0.71139735,0.9967466,-1.1341755e-09,-2.114468e-09,0.08059999,7
863764736,863764514,0.7016194,-0.037807718,0.01338466,0.7114223,0.9967466,-1.1341755e-09,-2.114468e-09,0.08059999,7
863787258,863787017,0.7014744,-0.037397336,0.013850876,0.711578,0.9967466,-1.1341755e-09,-2.114468e-09,0.08059999,7
863805265,863805066,0.70147973,-0.036819637,0.014369678,0.7115926,0.9967466,-1.1341755e-09,-2.114468e-09,0.08059999,7
863823221,863823020,0.7014506,-0.036222853,0.014692164,0.7116454,0.9967466,-1.1341755e-09,-2.114468e-09,0.08059999,7
863845739,863845522,0.7011254,-0.035954863,0.014991316,0.71197313,0.9967466,-1.1341755e-09,-2.114468e-09,0.08059999,7
863868189,863868024,0.7011973,-0.035875708,0.01495457,0.711907,0.9967466,-1.1341755e-09,-2.114468e-09,0.08059999,7
863881779,863881525,0.70100296,-0.035822902,0.015274454,0.7120943,0.9967466,-1.1341755e-09,-2.114468e-09,0.08059999,7
863904266,863904027,0.70095295,-0.0363793,0.015165121,0.71211773,0.9967466,-1.1341755e-09,-2.114468e-09,0.08059999,7
863926777,863926531,0.7008993,-0.03629614,0.015681637,0.7121635,0.9967466,-1.1341755e-09,-2.114468e-09,0.08059999,7
863944731,863944530,0.70089024,-0.036071386,0.015993303,0.7121769,0.9967466,-1.1341755e-09,-2.114468e-09,0.08059999,7
863962839,863962580,0.70088315,-0.035763405,0.016160512,0.7121957,0.9967466,-1.1341755e-09,-2.114468e-09,0.08059999,7
863985296,863985082,0.7007678,-0.034907226,0.016332429,0.71234775,0.9967466,-1.1341755e-09,-2.114468e-09,0.08059999,7
864007781,864007584,0.70078486,-0.034097306,0.016262807,0.7123718,0.9967466,-1.1341755e-09,-2.114468e-09,0.08059999,7
864025731,864025538,0.7007899,-0.03357123,0.016371263,0.71238923,0.9967466,-1.1341755e-09,-2.114468e-09,0.08059999,7
864043761,864043539,0.7008671,-0.03296077,0.016447421,0.7123401,0.9967466,-1.1341755e-09,-2.114468e-09,0.08059999,7
864066221,864066041,0.70108694,-0.03218027,0.016405514,0.71216047,0.9967466,-1.1341755e-09,-2.114468e-09,0.08059999,7
864088714,864088543,0.7011523,-0.03168361,0.016015759,0.7121272,0.9967466,-1.1341755e-09,-2.114468e-09,0.08059999,7
864102229,864102044,0.70123804,-0.031551097,0.015725557,0.7120551,0.9967466,-1.1341755e-09,-2.114468e-09,0.08059999,7
864124830,864124546,0.7013616,-0.031414907,0.014973572,0.71195567,0.9967466,-1.1341755e-09,-2.114468e-09,0.08059999,7
864147262,864147048,0.7013769,-0.031118618,0.014538278,0.71196264,0.9967466,-1.1341755e-09,-2.114468e-09,0.08059999,7
864165304,864165097,0.7014431,-0.030956209,0.014302888,0.71190923,0.9967466,-1.1341755e-09,-2.114468e-09,0.08059999,7
864183287,864183051,0.7015335,-0.030795123,0.014099009,0.7118312,0.9967466,-1.1341755e-09,-2.114468e-09,0.08059999,7
864205747,864205553,0.7017576,-0.030615628,0.013885264,0.71162224,0.9967466,-1.1341755e-09,-2.114468e-09,0.08059999,7
864228221,864228056,0.7018096,-0.029840853,0.014138049,0.71159893,0.9967466,-1.1341755e-09,-2.114468e-09,0.08059999,7
864246220,864246057,0.7019003,-0.02930245,0.014008342,0.7115343,0.9967466,-1.1341755e-09,-2.114468e-09,0.08059999,7
864264350,864264059,0.7019588,-0.0288109,0.013687786,0.71150297,0.9967466,-1.1341755e-09,-2.114468e-09,0.08059999,7
864286754,864286561,0.7018748,-0.028117396,0.013107644,0.71162456,0.9967466,-1.1341755e-09,-2.114468e-09,0.08059999,7
864304880,864304562,0.70192546,-0.027579855,0.013014111,0.71159726,0.9967466,-1.1341755e-09,-2.114468e-09,0.08059999,7
864322851,864322611,0.7020247,-0.02705141,0.013066719,0.7115187,0.9967466,-1.1341755e-09,-2.114468e-09,0.08059999,7
864345360,864345114,0.7024039,-0.026131967,0.012937768,0.71118104,0.9967466,-1.1341755e-09,-2.114468e-09,0.08059999,7
864367819,864367616,0.7023504,-0.025453592,0.012320258,0.7112695,0.9967466,-1.1341755e-09,-2.114468e-09,0.08059999,7
864385779,864385570,0.7024975,-0.025053827,0.011942721,0.71114486,0.9967466,-1.1341755e-09,-2.114468e-09,0.08059999,7
864403766,864403571,0.7025573,-0.024674758,0.011671943,0.7111035,0.9967466,-1.1341755e-09,-2.114468e-09,0.08059999,7
864426249,864426073,0.7027027,-0.024200713,0.011474292,0.71097934,0.9967466,-1.1341755e-09,-2.114468e-09,0.08059999,7
864444339,864444075,0.7028314,-0.023948051,0.011396126,0.710862,0.9967466,-1.1341755e-09,-2.114468e-09,0.08059999,7
864466788,864466577,0.70305085,-0.023583075,0.011352642,0.71065784,0.9967466,-1.1341755e-09,-2.114468e-09,0.08059999,7
864484822,864484578,0.7031619,-0.02318528,0.011290818,0.71056205,0.9967466,-1.1341755e-09,-2.114468e-09,0.08059999,7
864507278,864507080,0.7032546,-0.02268392,0.011206663,0.71048784,0.9967466,-1.1341755e-09,-2.114468e-09,0.08059999,7
864525361,864525129,0.70327604,-0.022274839,0.011069818,0.7104817,0.9967466,-1.1341755e-09,-2.114468e-09,0.08059999,7
864543247,864543083,0.70328003,-0.021856315,0.010869488,0.7104938,0.9967466,-1.1341755e-09,-2.114468e-09,0.08059999,7
864565807,864565585,0.70338,-0.020688169,0.011023878,0.71042746,0.9967466,-1.1341755e-09,-2.114468e-09,0.08059999,7
864583818,864583587,0.7034451,-0.019684918,0.011249071,0.71038795,0.9967466,-1.1341755e-09,-2.114468e-09,0.08059999,7
864606332,864606089,0.70343995,-0.018584114,0.0113347825,0.7104214,0.9967466,-1.1341755e-09,-2.114468e-09,0.08059999,7
864624345,864624091,0.703466,-0.017818922,0.011143008,0.71041816,0.9967466,-1.1341755e-09,-2.114468e-09,0.08059999,7
864646842,864646593,0.70365727,-0.01698126,0.010686298,0.7102562,0.9967466,-1.1341755e-09,-2.114468e-09,0.08059999,7
864664832,864664594,0.70363766,-0.016578145,0.01016461,0.7102929,0.9967466,-1.1341755e-09,-2.114468e-09,0.08059999,7
864687325,864687096,0.70348287,-0.01628295,0.009628771,0.7104604,0.9967466,-1.1341755e-09,-2.114468e-09,0.08059999,7
864705374,864705145,0.7035603,-0.016048387,0.0095753865,0.71038985,0.9967466,-1.1341755e-09,-2.114468e-09,0.08059999,7
864723324,864723099,0.7036672,-0.016016047,0.009692026,0.71028316,0.9967466,-1.1341755e-09,-2.114468e-09,0.08059999,7
864745794,864745601,0.7037904,-0.01603109,0.009735518,0.7101601,0.9967466,-1.1341755e-09,-2.114468e-09,0.08059999,7
864763773,864763603,0.7038381,-0.015961887,0.009362003,0.7101194,0.9967466,-1.1341755e-09,-2.114468e-09,0.08059999,7
864786268,864786105,0.7039677,-0.015983941,0.008738013,0.70999837,0.9967466,-1.1341755e-09,-2.114468e-09,0.08059999,7
864804338,864804107,0.70404315,-0.01598458,0.008263227,0.7099292,0.9967466,-1.1341755e-09,-2.114468e-09,0.08059999,7
864826802,864826608,0.704022,-0.016040133,0.00787401,0.7099534,0.9967466,-1.1341755e-09,-2.114468e-09,0.08059999,7
864844856,864844610,0.70410204,-0.015992107,0.0078029805,0.70987594,0.9967466,-1.1341755e-09,-2.114468e-09,0.08059999,7
864862856,864862660,0.7042037,-0.01582386,0.007837036,0.7097784,0.9967466,-1.1341755e-09,-2.114468e-09,0.08059999,7
864885412,864885161,0.704432,-0.015591296,0.007591559,0.7095597,0.9967466,-1.1341755e-09,-2.114468e-09,0.08059999,7
864907922,864907663,0.7044213,-0.01503014,0.00757689,0.70958257,0.9967466,-1.1341755e-09,-2.114468e-09,0.08059999,7
864925795,864925617,0.70447546,-0.014379277,0.0076268753,0.70954174,0.9967466,-1.1341755e-09,-2.114468e-09,0.08059999,7
864943789,864943619,0.7045378,-0.013769504,0.007867587,0.7094893,0.9967466,-1.1341755e-09,-2.114468e-09,0.08059999,7
864966285,864966121,0.704644,-0.013001331,0.008508724,0.70939094,0.9967466,-1.1341755e-09,-2.114468e-09,0.08059999,7
864984310,864984122,0.70473933,-0.012529665,0.009261941,0.7092953,0.9967466,-1.1341755e-09,-2.114468e-09,0.08059999,7
865002312,865002124,0.70483625,-0.012175709,0.009992258,0.70919526,0.9967466,-1.1341755e-09,-2.114468e-09,0.08059999,7
865024907,865024626,0.7048863,-0.012156149,0.010927575,0.709132,0.9967466,-1.1341755e-09,-2.114468e-09,0.08059999,7
865047307,865047128,0.70511544,-0.012372292,0.011292411,0.70889467,0.9967466,-1.1341755e-09,-2.114468e-09,0.08059999,7
865065386,865065177,0.70520496,-0.012470995,0.011598915,0.70879894,0.9967466,-1.1341755e-09,-2.114468e-09,0.08059999,7
865083312,865083131,0.705307,-0.012698362,0.012008589,0.70868653,0.9967466,-1.1341755e-09,-2.114468e-09,0.08059999,7
865105822,865105633,0.7052197,-0.013060884,0.012838043,0.70875233,0.9967466,-1.1341755e-09,-2.114468e-09,0.08059999,7
865128301,865128135,0.705652,-0.013475108,0.013165576,0.70830816,0.9967466,-1.1341755e-09,-2.114468e-09,0.08059999,7
865141895,865141636,0.70537245,-0.013583307,0.013580591,0.70857656,0.9967466,-1.1341755e-09,-2.114468e-09,0.08059999,7
865164430,865164138,0.7059326,-0.014049323,0.013768052,0.70800585,0.9967466,-1.1341755e-09,-2.114468e-09,0.08059999,7
865186829,865186640,0.70565194,-0.014549738,0.014014937,0.70827067,0.9967466,-1.1341755e-09,-2.114468e-09,0.08059999,7
865204834,865204642,0.70580006,-0.015260119,0.013994172,0.7081085,0.9967466,-1.1341755e-09,-2.114468e-09,0.08059999,7
865222886,865222691,0.7059219,-0.015926367,0.014059888,0.7079711,0.9967466,-1.1341755e-09,-2.114468e-09,0.08059999,7
865245397,865245193,0.7061213,-0.016512068,0.014376464,0.7077524,0.9967466,-1.1341755e-09,-2.114468e-09,0.08059999,7
865267898,865267695,0.7061338,-0.016810348,0.014955021,0.70772094,0.9967466,-1.1341755e-09,-2.114468e-09,0.08059999,7
865285827,865285649,0.7061904,-0.016857132,0.015485339,0.7076519,0.9967466,-1.1341755e-09,-2.114468e-09,0.08059999,7
865303862,865303651,0.7062336,-0.016677577,0.015967283,0.70760226,0.9967466,-1.1341755e-09,-2.114468e-09,0.08059999,7
865326333,865326152,0.70625,-0.016532287,0.016486373,0.70757747,0.9967466,-1.1341755e-09,-2.114468e-09,0.08059999,7
865348848,865348654,0.70643693,-0.016039075,0.01705302,0.70738876,0.9967466,-1.1341755e-09,-2.114468e-09,0.08059999,7
865362334,865362156,0.7063778,-0.015598963,0.017574511,0.70744485,0.9967466,-1.1341755e-09,-2.114468e-09,0.08059999,7
865384892,865384658,0.70664036,-0.014748585,0.018523024,0.7071767,0.9967466,-1.1341755e-09,-2.114468e-09,0.08059999,7
865407345,865407160,0.70658326,-0.014063905,0.019475756,0.7072221,0.9967466,-1.1341755e-09,-2.114468e-09,0.08059999,7
865425460,865425209,0.70660704,-0.013857401,0.01979073,0.7071936,0.9967466,-1.1341755e-09,-2.114468e-09,0.08059999,7
865443367,865443163,0.7066485,-0.01382689,0.020101467,0.70714396,0.9967466,-1.1341755e-09,-2.114468e-09,0.08059999,7
865465860,865465665,0.70691204,-0.014055389,0.020643385,0.7068605,0.9967466,-1.1341755e-09,-2.114468e-09,0.08059999,7
865488333,865488167,0.70686626,-0.01409349,0.021402678,0.70688295,0.9967466,-1.1341755e-09,-2.114468e-09,0.08059999,7
865506337,865506168,0.70696795,-0.014381336,0.021640988,0.70676816,0.9967466,-1.1341755e-09,-2.114468e-09,0.08059999,7
865524396,865524170,0.707033,-0.01485489,0.021823974,0.7066876,0.9967466,-1.1341755e-09,-2.114468e-09,0.08059999,7
865546865,865546673,0.70704013,-0.015375429,0.021939492,0.70666575,0.9967466,-1.1341755e-09,-2.114468e-09,0.08059999,7
865564966,865564673,0.70699424,-0.016024427,0.021836279,0.70670056,0.9967466,-1.1341755e-09,-2.114468e-09,0.08059999,7
865582967,865582723,0.7069434,-0.016555557,0.021652844,0.7067448,0.9967466,-1.1341755e-09,-2.114468e-09,0.08059999,7
865605424,865605224,0.7068552,-0.017018626,0.021431832,0.7068287,0.9967466,-1.1341755e-09,-2.114468e-09,0.08059999,7
865627938,865627727,0.70686346,-0.01733389,0.021302907,0.7068167,0.9967466,-1.1341755e-09,-2.114468e-09,0.08059999,7
865645867,865645681,0.70681244,-0.017453901,0.021056307,0.70687217,0.9967466,-1.1341755e-09,-2.114468e-09,0.08059999,7
865663894,865663682,0.7067177,-0.017483465,0.0208557,0.70697206,0.9967466,-1.1341755e-09,-2.114468e-09,0.08059999,7
865686348,865686184,0.70664173,-0.017651249,0.020518318,0.7070538,0.9967466,-1.1341755e-09,-2.114468e-09,0.08059999,7
865704501,865704186,0.7066041,-0.017833184,0.020265106,0.70709413,0.9967466,-1.1341755e-09,-2.114468e-09,0.08059999,7
865726882,865726688,0.7063486,-0.01793122,0.020109804,0.70735127,0.9967466,-1.1341755e-09,-2.114468e-09,0.08059999,7
865744906,865744689,0.7062812,-0.017971542,0.020247387,0.7074136,0.9967466,-1.1341755e-09,-2.114468e-09,0.08059999,7
865767377,865767191,0.70663106,-0.017790148,0.020453509,0.7070628,0.9967466,-1.1341755e-09,-2.114468e-09,0.08059999,7
865785447,865785241,0.7066142,-0.017497765,0.020602837,0.70708257,0.9967466,-1.1341755e-09,-2.114468e-09,0.08059999,7
865803389,865803194,0.7066204,-0.01716411,0.02091603,0.7070754,0.9967466,-1.1341755e-09,-2.114468e-09,0.08059999,7
865825878,865825697,0.7061716,-0.016825357,0.021139575,0.70752513,0.9967466,-1.1341755e-09,-2.114468e-09,0.08059999,7
865845456,865843699,0.70621705,-0.016818063,0.021142064,0.70747983,0.9967466,-1.1341755e-09,-2.114468e-09,0.08059999,7
865866409,865866200,0.7063604,-0.017165491,0.020808212,0.70733833,0.9967466,-1.1341755e-09,-2.114468e-09,0.08059999,7
865884455,865884204,0.7063695,-0.017810743,0.020446932,0.7073238,0.9967466,-1.1341755e-09,-2.114468e-09,0.08059999,7
865906898,865906704,0.7064315,-0.018551877,0.020048551,0.70725423,0.9967466,-1.1341755e-09,-2.114468e-09,0.08059999,7
865924959,865924705,0.706508,-0.018913299,0.020168262,0.70716476,0.9967466,-1.1341755e-09,-2.114468e-09,0.08059999,7
865947416,865947207,0.7064805,-0.019126207,0.020471621,0.7071779,0.9967466,-1.1341755e-09,-2.114468e-09,0.08059999,7
865965520,865965256,0.7064664,-0.01936883,0.020680094,0.7071793,0.9967466,-1.1341755e-09,-2.114468e-09,0.08059999,7
865983413,865983210,0.7064803,-0.019587778,0.0210096,0.7071496,0.9967466,-1.1341755e-09,-2.114468e-09,0.08059999,7
866002973,866001213,0.7065344,-0.019589435,0.02138157,0.7070843,0.9967466,-1.1341755e-09,-2.114468e-09,0.08059999,7
866023932,866023714,0.70663005,-0.019684229,0.0216209,0.7069789,0.9967466,-1.1341755e-09,-2.114468e-09,0.08059999,7
866046374,866046216,0.70680654,-0.019300919,0.022082925,0.7067987,0.9967466,-1.1341755e-09,-2.114468e-09,0.08059999,7
866064473,866064218,0.70695,-0.019162662,0.022057293,0.7066598,0.9967466,-1.1341755e-09,-2.114468e-09,0.08059999,7
866086905,866086719,0.7069391,-0.019056201,0.02169005,0.70668495,0.9967466,-1.1341755e-09,-2.114468e-09,0.08059999,7
866105014,866104721,0.70704085,-0.018906215,0.021498656,0.706593,0.9967466,-1.1341755e-09,-2.114468e-09,0.08059999,7
866122965,866122770,0.70716095,-0.018569887,0.021413866,0.7064843,0.9967466,-1.1341755e-09,-2.114468e-09,0.08059999,7
866145541,866145272,0.7075212,-0.018220685,0.021350134,0.7061345,0.9967466,-1.1341755e-09,-2.114468e-09,0.08059999,7
866163392,866163226,0.70765465,-0.017993297,0.021456895,0.7060034,0.9967466,-1.1341755e-09,-2.114468e-09,0.08059999,7
866185937,866185728,0.70777273,-0.017499533,0.021766959,0.705888,0.9967466,-1.1341755e-09,-2.114468e-09,0.08059999,7
866203923,866203730,0.70801103,-0.016933138,0.022051498,0.7056539,0.9967466,-1.1341755e-09,-2.114468e-09,0.08059999,7
866226431,866226232,0.70829386,-0.016017394,0.022546284,0.7053758,0.9967466,-1.1341755e-09,-2.114468e-09,0.08059999,7
866244450,866244233,0.70848864,-0.0154775595,0.022618588,0.7051898,0.9967466,-1.1341755e-09,-2.114468e-09,0.08059999,7
866262415,866262235,0.70870703,-0.015356231,0.022434073,0.70497894,0.9967466,-1.1341755e-09,-2.114468e-09,0.08059999,7
866284987,866284737,0.7090046,-0.015545034,0.021952845,0.70469075,0.9967466,-1.1341755e-09,-2.114468e-09,0.08059999,7
866307438,866307239,0.7092297,-0.015693523,0.02150435,0.70447475,0.9967466,-1.1341755e-09,-2.114468e-09,0.08059999,7
866325478,866325288,0.7094722,-0.015812363,0.020875037,0.70424676,0.9967466,-1.1341755e-09,-2.114468e-09,0.08059999,7
866343400,866343242,0.7097131,-0.016179072,0.020256553,0.70401365,0.9967466,-1.1341755e-09,-2.114468e-09,0.08059999,7
866365925,866365745,0.71007925,-0.016655477,0.019808985,0.70364606,0.9967466,-1.1341755e-09,-2.114468e-09,0.08059999,7
866383934,866383746,0.71020675,-0.01719068,0.019536534,0.7035121,0.9967466,-1.1341755e-09,-2.114468e-09,0.08059999,7
866401938,866401747,0.7103727,-0.017325303,0.019613927,0.7033391,0.9967466,-1.1341755e-09,-2.114468e-09,0.08059999,7
866424519,866424249,0.71067166,-0.01736921,0.019631917,0.7030354,0.9967466,-1.1341755e-09,-2.114468e-09,0.08059999,7
866447011,866446751,0.71073043,-0.017818555,0.019220375,0.7029761,0.9967466,-1.1341755e-09,-2.114468e-09,0.08059999,7
866464973,866464755,0.7108707,-0.018155664,0.018741531,0.7028386,0.9967466,-1.1341755e-09,-2.114468e-09,0.08059999,7
866483029,866482802,0.7110366,-0.018225795,0.018233512,0.70268226,0.9967466,-1.1341755e-09,-2.114468e-09,0.08059999,7
866505576,866505304,0.7112889,-0.018581942,0.017534189,0.7024353,0.9967466,-1.1341755e-09,-2.114468e-09,0.08059999,7
866528131,866527807,0.711592,-0.01892695,0.016699987,0.7021394,0.9967466,-1.1341755e-09,-2.114468e-09,0.08059999,7
866545972,866545764,0.7118306,-0.01916817,0.016257985,0.7019014,0.9967466,-1.1341755e-09,-2.114468e-09,0.08059999,7
866563952,866563762,0.7120475,-0.01918854,0.016034093,0.7016859,0.9967466,-1.1341755e-09,-2.114468e-09,0.08059999,7
866586426,866586263,0.71192837,-0.018739915,0.015675053,0.70182705,0.9967466,-1.1341755e-09,-2.114468e-09,0.08059999,7
866604476,866604265,0.7121997,-0.018599397,0.015581653,0.7015576,0.9967466,-1.1341755e-09,-2.114468e-09,0.08059999,7
866622452,866622267,0.71237785,-0.01888141,0.015342337,0.7013744,0.9967466,-1.1341755e-09,-2.114468e-09,0.08059999,7
866645002,866644769,0.7124121,-0.01913976,0.0151150385,0.70133746,0.9967466,-1.1341755e-09,-2.114468e-09,0.08059999,7
866667459,866667271,0.71282077,-0.019334212,0.015197513,0.70091504,0.9967466,-1.1341755e-09,-2.114468e-09,0.08059999,7
866685542,866685320,0.7129974,-0.019701997,0.015186832,0.7007254,0.9967466,-1.1341755e-09,-2.114468e-09,0.08059999,7
866703440,866703277,0.7130989,-0.020100255,0.014843126,0.70061815,0.9967466,-1.1341755e-09,-2.114468e-09,0.08059999,7
866725951,866725782,0.7132061,-0.020435883,0.014363269,0.70050925,0.9967466,-1.1341755e-09,-2.114468e-09,0.08059999,7
866748505,866748278,0.7133351,-0.020610053,0.014445274,0.7003711,0.9967466,-1.1341755e-09,-2.114468e-09,0.08059999,7
866761992,866761779,0.71354055,-0.02046237,0.014637808,0.70016205,0.9967466,-1.1341755e-09,-2.114468e-09,0.08059999,7
866784492,866784281,0.7136029,-0.020608598,0.014723508,0.7000925,0.9967466,-1.1341755e-09,-2.114468e-09,0.08059999,7
866807033,866806783,0.71400756,-0.020786377,0.015254317,0.6996631,0.9967466,-1.1341755e-09,-2.114468e-09,0.08059999,7
866825009,866824785,0.71410024,-0.02103309,0.015354493,0.699559,0.9967466,-1.1341755e-09,-2.114468e-09,0.08059999,7
866843023,866842834,0.71420926,-0.021245763,0.015649311,0.69943476,0.9967466,-1.1341755e-09,-2.114468e-09,0.08059999,7
866865544,866865336,0.7143487,-0.021259783,0.016553689,0.6992711,0.9967466,-1.1341755e-09,-2.114468e-09,0.08059999,7
866888052,866887838,0.714478,-0.02186574,0.01698235,0.6991099,0.9967466,-1.1341755e-09,-2.114468e-09,0.08059999,7
866905963,866905792,0.7145762,-0.02235358,0.017087499,0.6989916,0.9967466,-1.1341755e-09,-2.114468e-09,0.08059999,7
866924009,866923794,0.7146901,-0.022599924,0.01733779,0.698861,0.9967466,-1.1341755e-09,-2.114468e-09,0.08059999,7
866946490,866946295,0.7149963,-0.02274986,0.017139649,0.6985478,0.9967466,-1.1341755e-09,-2.114468e-09,0.08059999,7
866964506,866964297,0.7150291,-0.022756886,0.017054815,0.69851613,0.9967466,-1.1341755e-09,-2.114468e-09,0.08059999,7
866982502,866982298,0.7150601,-0.022566192,0.017027019,0.69849116,0.9967466,-1.1341755e-09,-2.114468e-09,0.08059999,7
867005016,867004800,0.7153264,-0.022097023,0.017252374,0.69822794,0.9967466,-1.1341755e-09,-2.114468e-09,0.08059999,7
867027490,867027302,0.7152654,-0.02188259,0.01736175,0.69829446,0.9967466,-1.1341755e-09,-2.114468e-09,0.08059999,7
867045542,867045352,0.715457,-0.021601379,0.017302142,0.69810843,0.9967466,-1.1341755e-09,-2.114468e-09,0.08059999,7
867063468,867063305,0.71563894,-0.02125119,0.01715975,0.6979362,0.9967466,-1.1341755e-09,-2.114468e-09,0.08059999,7
867086005,867085807,0.7157089,-0.020903556,0.017038131,0.6978779,0.9967466,-1.1341755e-09,-2.114468e-09,0.08059999,7
867103997,867103810,0.71578014,-0.020589838,0.01683312,0.6978191,0.9967466,-1.1341755e-09,-2.114468e-09,0.08059999,7
867126476,867126311,0.7161818,-0.020224951,0.016712304,0.69742054,0.9967466,-1.1341755e-09,-2.114468e-09,0.08059999,7
867144523,867144313,0.7162867,-0.020138346,0.016510878,0.6973201,0.9967466,-1.1341755e-09,-2.114468e-09,0.08059999,7
867167042,867166815,0.71648026,-0.019737568,0.016389137,0.6971355,0.9967466,-1.1341755e-09,-2.114468e-09,0.08059999,7
867185046,867184816,0.7165934,-0.019626936,0.016309775,0.69702417,0.9967466,-1.1341755e-09,-2.114468e-09,0.08059999,7
867203067,867202865,0.7166902,-0.019665552,0.01610232,0.6969285,0.9967466,-1.1341755e-09,-2.114468e-09,0.08059999,7
867225574,867225367,0.7165939,-0.01974661,0.015500269,0.69703877,0.9967466,-1.1341755e-09,-2.114468e-09,0.08059999,7
867243479,867243321,0.71665156,-0.02012183,0.015018693,0.69697934,0.9967466,-1.1341755e-09,-2.114468e-09,0.08059999,7
867265993,867265823,0.71661645,-0.02053372,0.014358599,0.6970173,0.9967466,-1.1341755e-09,-2.114468e-09,0.08059999,7
867284041,867283825,0.7166279,-0.020542573,0.013840089,0.69701576,0.9967466,-1.1341755e-09,-2.114468e-09,0.08059999,7
867306528,867306327,0.71666884,-0.020536328,0.013452019,0.69698143,0.9967466,-1.1341755e-09,-2.114468e-09,0.08059999,7
867324551,867324328,0.71662766,-0.02064427,0.012949509,0.69703007,0.9967466,-1.1341755e-09,-2.114468e-09,0.08059999,7
867347040,867346830,0.7166556,-0.020068917,0.012552178,0.6970255,0.9967466,-1.1341755e-09,-2.114468e-09,0.08059999,7
867365049,867364832,0.71672285,-0.019447915,0.01248859,0.69697505,0.9967466,-1.1341755e-09,-2.114468e-09,0.08059999,7
867383106,867382881,0.71676713,-0.019001802,0.012538344,0.6969409,0.9967466,-1.1341755e-09,-2.114468e-09,0.08059999,7
867405571,867405383,0.7168555,-0.018847281,0.012028403,0.69686323,0.9967466,-1.1341755e-09,-2.114468e-09,0.08059999,7
867423580,867423337,0.7168708,-0.019004302,0.011624372,0.69685006,0.9967466,-1.1341755e-09,-2.114468e-09,0.08059999,7
867446038,867445839,0.71693563,-0.019465776,0.011207841,0.6967775,0.9967466,-1.1341755e-09,-2.114468e-09,0.08059999,7
867464047,867463841,0.7169798,-0.019606005,0.011047451,0.6967307,0.9967466,-1.1341755e-09,-2.114468e-09,0.08059999,7
867486504,867486343,0.71702343,-0.019658549,0.010819456,0.6966878,0.9967466,-1.1341755e-09,-2.114468e-09,0.08059999,7
867504570,867504344,0.71702266,-0.019425912,0.010885995,0.6966942,0.9967466,-1.1341755e-09,-2.114468e-09,0.08059999,7
867522532,867522346,0.71703047,-0.019015362,0.010786719,0.6966989,0.9967466,-1.1341755e-09,-2.114468e-09,0.08059999,7
867545080,867544848,0.71698534,-0.018853271,0.010584114,0.6967529,0.9967466,-1.1341755e-09,-2.114468e-09,0.08059999,7
867567571,867567350,0.7169542,-0.01896997,0.010388838,0.69678473,0.9967466,-1.1341755e-09,-2.114468e-09,0.08059999,7
867585643,867585399,0.7168892,-0.019359114,0.009884147,0.6968483,0.9967466,-1.1341755e-09,-2.114468e-09,0.08059999,7
867603570,867603353,0.71684617,-0.019757537,0.0093609225,0.69688857,0.9967466,-1.1341755e-09,-2.114468e-09,0.08059999,7
867626024,867625855,0.71700686,-0.0199043,0.009242045,0.69672066,0.9967466,-1.1341755e-09,-2.114468e-09,0.08059999,7
867644147,867643857,0.7169124,-0.019578846,0.009137585,0.6968284,0.9967466,-1.1341755e-09,-2.114468e-09,0.08059999,7
867662063,867661858,0.7168706,-0.019108174,0.009075606,0.69688535,0.9967466,-1.1341755e-09,-2.114468e-09,0.08059999,7
867684613,867684362,0.71697706,-0.018857468,0.009070157,0.6967827,0.9967466,-1.1341755e-09,-2.114468e-09,0.08059999,7
867707092,867706862,0.71683496,-0.019189134,0.008577783,0.696926,0.9967466,-1.1341755e-09,-2.114468e-09,0.08059999,7
867725106,867724864,0.7168579,-0.019499224,0.008150638,0.69689894,0.9967466,-1.1341755e-09,-2.114468e-09,0.08059999,7
867743104,867742913,0.71690536,-0.020010188,0.0076564006,0.69684136,0.9967466,-1.1341755e-09,-2.114468e-09,0.08059999,7
867765640,867765415,0.7168363,-0.020798191,0.0068344423,0.6968978,0.9967466,-1.1341755e-09,-2.114468e-09,0.08059999,7
867788113,867787917,0.7168888,-0.021004722,0.0066333353,0.6968396,0.9967466,-1.1341755e-09,-2.114468e-09,0.08059999,7
867801534,867801371,0.7168052,-0.021146901,0.0062975716,0.6969243,0.9967466,-1.1341755e-09,-2.114468e-09,0.08059999,7
867824067,867823873,0.7168077,-0.021090208,0.00649297,0.6969217,0.9967466,-1.1341755e-09,-2.114468e-09,0.08059999,7
867846663,867846374,0.71680003,-0.020846166,0.006740808,0.6969346,0.9967466,-1.1341755e-09,-2.114468e-09,0.08059999,7
867864595,867864376,0.71675515,-0.021059776,0.0065194336,0.6969764,0.9967466,-1.1341755e-09,-2.114468e-09,0.08059999,7
867882579,867882378,0.71668124,-0.021376656,0.006010024,0.69704735,0.9967466,-1.1341755e-09,-2.114468e-09,0.08059999,7
867905111,867904880,0.71659017,-0.020980489,0.0057180626,0.6971554,0.9967466,-1.1341755e-09,-2.114468e-09,0.08059999,7
867927571,867927381,0.71661955,-0.020742685,0.005647232,0.6971329,0.9967466,-1.1341755e-09,-2.114468e-09,0.08059999,7
867945631,867945431,0.71667576,-0.020390097,0.005636344,0.6970857,0.9967466,-1.1341755e-09,-2.114468e-09,0.08059999,7
867963526,867963385,0.7165942,-0.020057907,0.0052541145,0.69718206,0.9967466,-1.1341755e-09,-2.114468e-09,0.08059999,7
867986150,867985888,0.7165403,-0.02024476,0.0046923165,0.6972361,0.9967466,-1.1341755e-09,-2.114468e-09,0.08059999,7
868008554,868008389,0.716479,-0.020965913,0.0045724832,0.69727856,0.9967466,-1.1341755e-09,-2.114468e-09,0.08059999,7
868022080,868021890,0.7165946,-0.020883424,0.004804657,0.6971608,0.9967466,-1.1341755e-09,-2.114468e-09,0.08059999,7
868044602,868044392,0.7165386,-0.020769576,0.004988102,0.69722044,0.9967466,-1.1341755e-09,-2.114468e-09,0.08059999,7
868067118,868066894,0.7164617,-0.020503953,0.005557551,0.69730294,0.9967466,-1.1341755e-09,-2.114468e-09,0.08059999,7
868085090,868084896,0.716293,-0.020582518,0.005468339,0.6974747,0.9967466,-1.1341755e-09,-2.114468e-09,0.08059999,7
868103184,868102945,0.71615285,-0.020755641,0.005434165,0.69761366,0.9967466,-1.1341755e-09,-2.114468e-09,0.08059999,7
868125626,868125446,0.7161394,-0.021446036,0.0050788647,0.6976093,0.9967466,-1.1341755e-09,-2.114468e-09,0.08059999,7
868148247,868147949,0.71609735,-0.021751532,0.0047010444,0.69764566,0.9967466,-1.1341755e-09,-2.114468e-09,0.08059999,7
868166073,868165903,0.7160188,-0.021858426,0.0045101484,0.6977242,0.9967466,-1.1341755e-09,-2.114468e-09,0.08059999,7
868184096,868183904,0.7158108,-0.021837963,0.0042112083,0.69794005,0.9967466,-1.1341755e-09,-2.114468e-09,0.08059999,7
868206568,868206406,0.71558815,-0.02150303,0.0039640134,0.6981802,0.9967466,-1.1341755e-09,-2.114468e-09,0.08059999,7
868224619,868224408,0.71551603,-0.021519337,0.0042012264,0.6982522,0.9967466,-1.1341755e-09,-2.114468e-09,0.08059999,7
868242635,868242409,0.71545714,-0.021657852,0.0045729205,0.69830596,0.9967466,-1.1341755e-09,-2.114468e-09,0.08059999,7
868265106,868264911,0.71528333,-0.02172861,0.0044993805,0.6984823,0.9967466,-1.1341755e-09,-2.114468e-09,0.08059999,7
868287662,868287413,0.71507525,-0.021629581,0.004609229,0.6986976,0.9967466,-1.1341755e-09,-2.114468e-09,0.08059999,7
868305648,868305462,0.7150207,-0.021268329,0.0047725546,0.69876343,0.9967466,-1.1341755e-09,-2.114468e-09,0.08059999,7
868323578,868323416,0.71500367,-0.02079165,0.005133957,0.69879264,0.9967466,-1.1341755e-09,-2.114468e-09,0.08059999,7
868346089,868345918,0.7148798,-0.020488137,0.005652013,0.6989244,0.9967466,-1.1341755e-09,-2.114468e-09,0.08059999,7
868364127,868363920,0.7149341,-0.020690518,0.0056036874,0.6988632,0.9967466,-1.1341755e-09,-2.114468e-09,0.08059999,7
868386586,868386422,0.7148705,-0.02121558,0.0058590285,0.6989105,0.9967466,-1.1341755e-09,-2.114468e-09,0.08059999,7
868404634,868404424,0.71474075,-0.021812936,0.006140045,0.6990223,0.9967466,-1.1341755e-09,-2.114468e-09,0.08059999,7
868427147,868426926,0.71486783,-0.022333037,0.0064419364,0.6988733,0.9967466,-1.1341755e-09,-2.114468e-09,0.08059999,7
868445145,868444927,0.7148375,-0.022564694,0.0068666125,0.69889283,0.9967466,-1.1341755e-09,-2.114468e-09,0.08059999,7
868463188,868462976,0.71474916,-0.022856079,0.0071865823,0.6989705,0.9967466,-1.1341755e-09,-2.114468e-09,0.08059999,7
868485668,868485478,0.7147109,-0.023332823,0.007289192,0.6989928,0.9967466,-1.1341755e-09,-2.114468e-09,0.08059999,7
868503597,868503432,0.7146173,-0.023954742,0.0074966713,0.6990652,0.9967466,-1.1341755e-09,-2.114468e-09,0.08059999,7
868526107,868525934,0.7145127,-0.02468823,0.0077217696,0.6991442,0.9967466,-1.1341755e-09,-2.114468e-09,0.08059999,7
868544127,868543936,0.71449244,-0.025092317,0.0077158506,0.6991505,0.9967466,-1.1341755e-09,-2.114468e-09,0.08059999,7
868566641,868566438,0.7141783,-0.025468605,0.007444892,0.69946074,0.9967466,-1.1341755e-09,-2.114468e-09,0.08059999,7
868584647,868584440,0.71406454,-0.025139246,0.007606039,0.699587,0.9967466,-1.1341755e-09,-2.114468e-09,0.08059999,7
868607131,868606941,0.7140973,-0.024526654,0.00822299,0.6995684,0.9967466,-1.1341755e-09,-2.114468e-09,0.08059999,7
868625197,868624943,0.7140281,-0.024174135,0.0088018095,0.6996442,0.9967466,-1.1341755e-09,-2.114468e-09,0.08059999,7
868643184,868642992,0.7139657,-0.023970943,0.0090167755,0.6997122,0.9967466,-1.1341755e-09,-2.114468e-09,0.08059999,7
868665707,868665494,0.7139288,-0.02369954,0.009372466,0.69975436,0.9967466,-1.1341755e-09,-2.114468e-09,0.08059999,7
868683644,868683448,0.7138171,-0.02382327,0.009596557,0.6998611,0.9967466,-1.1341755e-09,-2.114468e-09,0.08059999,7
868706167,868705950,0.713783,-0.02376633,0.010255229,0.6998884,0.9967466,-1.1341755e-09,-2.114468e-09,0.08059999,7
868724145,868723954,0.71377903,-0.023540234,0.010710946,0.69989336,0.9967466,-1.1341755e-09,-2.114468e-09,0.08059999,7
868746615,868746454,0.71359503,-0.023405211,0.011135711,0.7000789,0.9967466,-1.1341755e-09,-2.114468e-09,0.08059999,7
868764684,868764458,0.71356046,-0.023480527,0.011709336,0.70010227,0.9967466,-1.1341755e-09,-2.114468e-09,0.08059999,7
868782655,868782457,0.71347636,-0.023837868,0.012161283,0.70016813,0.9967466,-1.1341755e-09,-2.114468e-09,0.08059999,7
868805173,868804961,0.7133926,-0.024706054,0.012427419,0.7002187,0.9967466,-1.1341755e-09,-2.114468e-09,0.08059999,7
868827685,868827461,0.71321744,-0.025378402,0.012913096,0.70036435,0.9967466,-1.1341755e-09,-2.114468e-09,0.08059999,7
868845697,868845510,0.7130967,-0.02555748,0.013275105,0.70047396,0.9967466,-1.1341755e-09,-2.114468e-09,0.08059999,7
868863641,868863464,0.7129688,-0.025417358,0.013680289,0.7006014,0.9967466,-1.1341755e-09,-2.114468e-09,0.08059999,7
868886133,868885966,0.71280986,-0.025304368,0.014274285,0.70075536,0.9967466,-1.1341755e-09,-2.114468e-09,0.08059999,7
868904159,868903968,0.71267956,-0.025195919,0.01482037,0.70088047,0.9967466,-1.1341755e-09,-2.114468e-09,0.08059999,7
868922193,868921969,0.7125216,-0.025058445,0.015292482,0.7010358,0.9967466,-1.1341755e-09,-2.114468e-09,0.08059999,7
868944680,868944471,0.71241754,-0.024957461,0.016005931,0.70112926,0.9967466,-1.1341755e-09,-2.114468e-09,0.08059999,7
868967204,868966973,0.7122457,-0.025425145,0.01613617,0.70128405,0.9967466,-1.1341755e-09,-2.114468e-09,0.08059999,7
868985164,868984975,0.7121671,-0.02542182,0.016095597,0.701365,0.9967466,-1.1341755e-09,-2.114468e-09,0.08059999,7
869003249,869003024,0.71216625,-0.025121847,0.016394664,0.7013697,0.9967466,-1.1341755e-09,-2.114468e-09,0.08059999,7
869025733,869025526,0.711898,-0.024558991,0.016558386,0.70165795,0.9967466,-1.1341755e-09,-2.114468e-09,0.08059999,7
869048241,869048028,0.7119366,-0.023912331,0.016865062,0.70163393,0.9967466,-1.1341755e-09,-2.114468e-09,0.08059999,7
869061652,869061481,0.71186197,-0.023564424,0.016957404,0.7017192,0.9967466,-1.1341755e-09,-2.114468e-09,0.08059999,7
869084176,869083984,0.71184236,-0.023529522,0.017305108,0.7017317,0.9967466,-1.1341755e-09,-2.114468e-09,0.08059999,7
869106679,869106485,0.7118911,-0.02357318,0.017704345,0.7016708,0.9967466,-1.1341755e-09,-2.114468e-09,0.08059999,7
869124699,869124487,0.7117411,-0.024134973,0.017401699,0.7018115,0.9967466,-1.1341755e-09,-2.114468e-09,0.08059999,7
869142794,869142488,0.71157587,-0.02465477,0.017108541,0.7019682,0.9967466,-1.1341755e-09,-2.114468e-09,0.08059999,7
869165187,869164990,0.7115151,-0.02465717,0.01703009,0.7020316,0.9967466,-1.1341755e-09,-2.114468e-09,0.08059999,7
869187685,869187492,0.71124077,-0.024407752,0.016957171,0.7023199,0.9967466,-1.1341755e-09,-2.114468e-09,0.08059999,7
869205733,869205542,0.71118593,-0.024034893,0.01702697,0.7023867,0.9967466,-1.1341755e-09,-2.114468e-09,0.08059999,7
869223706,869223496,0.711118,-0.023602812,0.016974669,0.7024714,0.9967466,-1.1341755e-09,-2.114468e-09,0.08059999,7
869246200,869246000,0.71087307,-0.023298016,0.016822265,0.70273304,0.9967466,-1.1341755e-09,-2.114468e-09,0.08059999,7
869268663,869268500,0.7107927,-0.023360146,0.016643481,0.70281655,0.9967466,-1.1341755e-09,-2.114468e-09,0.08059999,7
869282209,869282001,0.71061075,-0.023509094,0.016233861,0.70300514,0.9967466,-1.1341755e-09,-2.114468e-09,0.08059999,7
869304755,869304503,0.71045285,-0.023081448,0.016015563,0.70318395,0.9967466,-1.1341755e-09,-2.114468e-09,0.08059999,7
869327196,869327005,0.7103591,-0.022595495,0.015640305,0.70330286,0.9967466,-1.1341755e-09,-2.114468e-09,0.08059999,7
869345214,869345007,0.7102008,-0.022217024,0.015437115,0.70347923,0.9967466,-1.1341755e-09,-2.114468e-09,0.08059999,7
869363294,869363055,0.7100196,-0.021813268,0.015289269,0.703678,0.9967466,-1.1341755e-09,-2.114468e-09,0.08059999,7
869385757,869385557,0.70988536,-0.02171182,0.014869583,0.70382553,0.9967466,-1.1341755e-09,-2.114468e-09,0.08059999,7
869408266,869408059,0.7097565,-0.02186429,0.014649248,0.7039554,0.9967466,-1.1341755e-09,-2.114468e-09,0.08059999,7
869426176,869426013,0.7096278,-0.022121793,0.014123031,0.7040878,0.9967466,-1.1341755e-09,-2.114468e-09,0.08059999,7
869444257,869444015,0.709468,-0.022328574,0.013611307,0.70425236,0.9967466,-1.1341755e-09,-2.114468e-09,0.08059999,7
869466682,869466517,0.70926917,-0.02236553,0.013293394,0.7044575,0.9967466,-1.1341755e-09,-2.114468e-09,0.08059999,7
869484817,869484519,0.709107,-0.022274517,0.013260915,0.7046243,0.9967466,-1.1341755e-09,-2.114468e-09,0.08059999,7
869502710,869502520,0.70896465,-0.022247745,0.013160472,0.7047702,0.9967466,-1.1341755e-09,-2.114468e-09,0.08059999,7
869525257,869525023,0.7088391,-0.022262167,0.013308332,0.7048933,0.9967466,-1.1341755e-09,-2.114468e-09,0.08059999,7
869547744,869547524,0.70854324,-0.02206977,0.013628971,0.7051906,0.9967466,-1.1341755e-09,-2.114468e-09,0.08059999,7
869565811,869565573,0.708326,-0.022039171,0.013421874,0.7054137,0.9967466,-1.1341755e-09,-2.114468e-09,0.08059999,7
869583721,869583527,0.70805806,-0.022319326,0.013020301,0.7056813,0.9967466,-1.1341755e-09,-2.114468e-09,0.08059999,7
869606229,869606029,0.7076993,-0.022946501,0.012276913,0.7060343,0.9967466,-1.1341755e-09,-2.114468e-09,0.08059999,7
869624220,869624031,0.7074555,-0.023404893,0.011746099,0.70627266,0.9967466,-1.1341755e-09,-2.114468e-09,0.08059999,7
869646715,869646533,0.70709985,-0.023721725,0.011280176,0.70662576,0.9967466,-1.1341755e-09,-2.114468e-09,0.08059999,7
869664748,869664534,0.70679283,-0.023474835,0.0112185655,0.70694196,0.9967466,-1.1341755e-09,-2.114468e-09,0.08059999,7
869687264,869687036,0.70668966,-0.022607563,0.011443421,0.70706975,0.9967466,-1.1341755e-09,-2.114468e-09,0.08059999,7
869705286,869705039,0.70644236,-0.022035563,0.011609787,0.70733225,0.9967466,-1.1341755e-09,-2.114468e-09,0.08059999,7
869723275,869723087,0.7061467,-0.0214845,0.011594578,0.7076446,0.9967466,-1.1341755e-09,-2.114468e-09,0.08059999,7
869745784,869745589,0.705845,-0.02090049,0.011388637,0.7079664,0.9967466,-1.1341755e-09,-2.114468e-09,0.08059999,7
869763728,869763543,0.7057023,-0.02081402,0.011207656,0.70811397,0.9967466,-1.1341755e-09,-2.114468e-09,0.08059999,7
869786261,869786045,0.70536387,-0.021070147,0.010708263,0.7084513,0.9967466,-1.1341755e-09,-2.114468e-09,0.08059999,7
869804240,869804047,0.705094,-0.021091856,0.010505355,0.70872235,0.9967466,-1.1341755e-09,-2.114468e-09,0.08059999,7
869823768,869822048,0.7049023,-0.021089338,0.010399598,0.70891464,0.9967466,-1.1341755e-09,-2.114468e-09,0.08059999,7
869844763,869844550,0.7047572,-0.021119094,0.010598415,0.70905507,0.9967466,-1.1341755e-09,-2.114468e-09,0.08059999,7
869867294,869867052,0.70455647,-0.021062035,0.0103411535,0.70926005,0.9967466,-1.1341755e-09,-2.114468e-09,0.08059999,7
869885275,869885054,0.70441335,-0.020882806,0.010508186,0.709405,0.9967466,-1.1341755e-09,-2.114468e-09,0.08059999,7
869903295,869903103,0.70425284,-0.020715788,0.010693894,0.7095665,0.9967466,-1.1341755e-09,-2.114468e-09,0.08059999,7
869925816,869925605,0.7040132,-0.020692045,0.010652394,0.7098054,0.9967466,-1.1341755e-09,-2.114468e-09,0.08059999,7
869943754,869943559,0.70384836,-0.020629961,0.010574442,0.70997196,0.9967466,-1.1341755e-09,-2.114468e-09,0.08059999,7
869966267,869966061,0.70350873,-0.020619096,0.010534389,0.7103094,0.9967466,-1.1341755e-09,-2.114468e-09,0.08059999,7
869984251,869984062,0.7033089,-0.020799495,0.0104035195,0.71050394,0.9967466,-1.1341755e-09,-2.114468e-09,0.08059999,7
870006730,870006564,0.7033434,-0.021156447,0.009685864,0.71046937,0.9967466,-1.1341755e-09,-2.114468e-09,0.08059999,7
870024786,870024566,0.70318323,-0.021616155,0.009172735,0.7106209,0.9967466,-1.1341755e-09,-2.114468e-09,0.08059999,7
