timestamp,q[0],q[1],q[2],q[3],delta_q_reset[0],delta_q_reset[1],delta_q_reset[2],delta_q_reset[3],quat_reset_counter
125867161,0.7069264,0.005451479,0.00014473624,0.70726615,0.9521346,-3.2748115e-10,-3.7863132e-10,0.30567926,3
125872158,0.7069269,0.0054535456,0.00014713644,0.7072657,0.9521346,-3.2748115e-10,-3.7863132e-10,0.30567926,3
125887148,0.70692843,0.005450108,0.0001452736,0.7072641,0.9521346,-3.2748115e-10,-3.7863132e-10,0.30567926,3
125907133,0.70692587,0.005450062,0.0001496664,0.7072667,0.9521346,-3.2748115e-10,-3.7863132e-10,0.30567926,3
125927118,0.706922,0.005456919,0.00013715411,0.70727044,0.9521346,-3.2748115e-10,-3.7863132e-10,0.30567926,3
125947106,0.7069252,0.0054620113,0.0001428684,0.7072673,0.9521346,-3.2748115e-10,-3.7863132e-10,0.30567926,3
125967089,0.7069676,0.0054538473,0.00013693538,0.70722497,0.9521346,-3.2748115e-10,-3.7863132e-10,0.30567926,3
125987076,0.70692426,0.0054672128,0.00014522874,0.7072682,0.9521346,-3.2748115e-10,-3.7863132e-10,0.30567926,3
126007062,0.70688164,0.005441389,0.00013410275,0.707311,0.9521346,-3.2748115e-10,-3.7863132e-10,0.30567926,3
126027045,0.7069531,0.0054492257,0.00013565543,0.70723945,0.9521346,-3.2748115e-10,-3.7863132e-10,0.30567926,3
126047031,0.7068984,0.0054574055,0.00015430962,0.70729405,0.9521346,-3.2748115e-10,-3.7863132e-10,0.30567926,3
126067019,0.7069107,0.0054681706,0.00017061296,0.7072817,0.9521346,-3.2748115e-10,-3.7863132e-10,0.30567926,3
126087010,0.70693153,0.0055017257,0.00020505994,0.7072606,0.9521346,-3.2748115e-10,-3.7863132e-10,0.30567926,3
126106989,0.7069102,0.00543416,0.000119892095,0.7072824,0.9521346,-3.2748115e-10,-3.7863132e-10,0.30567926,3
126126974,0.7069226,0.005449677,0.00019656279,0.70726997,0.9521346,-3.2748115e-10,-3.7863132e-10,0.30567926,3
126146965,0.7069276,0.0054278346,0.00010751807,0.70726514,0.9521346,-3.2748115e-10,-3.7863132e-10,0.30567926,3
126166944,0.7069092,0.0054366086,0.00014388264,0.7072835,0.9521346,-3.2748115e-10,-3.7863132e-10,0.30567926,3
126186931,0.70692104,0.0054568504,0.00017362984,0.70727146,0.9521346,-3.2748115e-10,-3.7863132e-10,0.30567926,3
126206915,0.7069174,0.005471543,0.00016661645,0.707275,0.9521346,-3.2748115e-10,-3.7863132e-10,0.30567926,3
126226902,0.7068978,0.005455507,0.0001591919,0.70729476,0.9521346,-3.2748115e-10,-3.7863132e-10,0.30567926,3
126246889,0.7069388,0.0054548667,0.00014595105,0.7072537,0.9521346,-3.2748115e-10,-3.7863132e-10,0.30567926,3
126266872,0.7069161,0.005466163,0.00016343067,0.70727634,0.9521346,-3.2748115e-10,-3.7863132e-10,0.30567926,3
126286857,0.7069081,0.005458109,0.00015675316,0.7072844,0.9521346,-3.2748115e-10,-3.7863132e-10,0.30567926,3
126306844,0.7069191,0.0054857656,0.00020614262,0.7072732,0.9521346,-3.2748115e-10,-3.7863132e-10,0.30567926,3
126326830,0.7068968,0.0054861037,0.00020606631,0.70729554,0.9521346,-3.2748115e-10,-3.7863132e-10,0.30567926,3
126346813,0.7069144,0.0054810466,0.00022994372,0.70727783,0.9521346,-3.2748115e-10,-3.7863132e-10,0.30567926,3
126366804,0.7069218,0.005441438,0.00019235056,0.70727074,0.9521346,-3.2748115e-10,-3.7863132e-10,0.30567926,3
126386785,0.7069237,0.005472662,0.0002497765,0.7072686,0.9521346,-3.2748115e-10,-3.7863132e-10,0.30567926,3
126406770,0.7069412,0.005418367,0.00015452954,0.70725167,0.9521346,-3.2748115e-10,-3.7863132e-10,0.30567926,3
126426756,0.7069771,0.005390658,0.00019519984,0.7072159,0.9521346,-3.2748115e-10,-3.7863132e-10,0.30567926,3
126446742,0.7069133,0.005344598,0.00018420776,0.70728004,0.9521346,-3.2748115e-10,-3.7863132e-10,0.30567926,3
126466727,0.7069299,0.0053403885,0.00021730768,0.7072634,0.9521346,-3.2748115e-10,-3.7863132e-10,0.30567926,3
126486711,0.70698893,0.005306972,0.00023700763,0.70720476,0.9521346,-3.2748115e-10,-3.7863132e-10,0.30567926,3
126506702,0.70681536,0.005388089,0.00026144375,0.70737755,0.9521346,-3.2748115e-10,-3.7863132e-10,0.30567926,3
126526684,0.70692587,0.0053421664,0.00018736025,0.7072675,0.9521346,-3.2748115e-10,-3.7863132e-10,0.30567926,3
126546669,0.70696443,0.0052615455,0.000112901,0.70722955,0.9521346,-3.2748115e-10,-3.7863132e-10,0.30567926,3
126566654,0.70676327,0.0053405543,0.00014461376,0.70743,0.9521346,-3.2748115e-10,-3.7863132e-10,0.30567926,3
126586639,0.7069798,0.005357903,0.00021717296,0.70721346,0.9521346,-3.2748115e-10,-3.7863132e-10,0.30567926,3
126606625,0.7068487,0.0053087478,0.0001378264,0.7073449,0.9521346,-3.2748115e-10,-3.7863132e-10,0.30567926,3
126626610,0.70683956,0.0052508553,0.00025102962,0.70735437,0.9521346,-3.2748115e-10,-3.7863132e-10,0.30567926,3
126646596,0.7069985,0.0053590997,0.00031359383,0.70719475,0.9521346,-3.2748115e-10,-3.7863132e-10,0.30567926,3
126666581,0.7066349,0.0052913846,0.000117198186,0.70755863,0.9521346,-3.2748115e-10,-3.7863132e-10,0.30567926,3
126686567,0.707111,0.00526317,0.000108280976,0.707083,0.9521346,-3.2748115e-10,-3.7863132e-10,0.30567926,3
126706553,0.70683193,0.005349581,0.00015523192,0.7073613,0.9521346,-3.2748115e-10,-3.7863132e-10,0.30567926,3
126726537,0.7066405,0.0052873623,0.00012728978,0.707553,0.9521346,-3.2748115e-10,-3.7863132e-10,0.30567926,3
126746527,0.70735013,0.0051951827,0.00013434747,0.7068443,0.9521346,-3.2748115e-10,-3.7863132e-10,0.30567926,3
126766509,0.7063465,0.0052347174,0.0002208782,0.7078469,0.9521346,-3.2748115e-10,-3.7863132e-10,0.30567926,3
126786494,0.70711637,0.0052247937,0.00023030197,0.707078,0.9521346,-3.2748115e-10,-3.7863132e-10,0.30567926,3
126806489,0.7068932,0.005291266,0.00010204071,0.70730054,0.9521346,-3.2748115e-10,-3.7863132e-10,0.30567926,3
126826465,0.7065135,0.005221261,0.00015593418,0.7076803,0.9521346,-3.2748115e-10,-3.7863132e-10,0.30567926,3
126846451,0.7072551,0.005186922,0.00010642729,0.70693946,0.9521346,-3.2748115e-10,-3.7863132e-10,0.30567926,3
126866438,0.7064506,0.0053176424,3.2298118e-05,0.7077425,0.9521346,-3.2748115e-10,-3.7863132e-10,0.30567926,3
126886423,0.7070413,0.0051269867,5.8752707e-05,0.70715374,0.9521346,-3.2748115e-10,-3.7863132e-10,0.30567926,3
126906407,0.7069562,0.005255515,0.00016175176,0.70723784,0.9521346,-3.2748115e-10,-3.7863132e-10,0.30567926,3
126926394,0.70647603,0.005342006,0.0001776992,0.7077168,0.9521346,-3.2748115e-10,-3.7863132e-10,0.30567926,3
126946378,0.7073703,0.005201073,0.0001778989,0.70682406,0.9521346,-3.2748115e-10,-3.7863132e-10,0.30567926,3
126966363,0.70642114,0.0052561658,0.0002273448,0.7077723,0.9521346,-3.2748115e-10,-3.7863132e-10,0.30567926,3
126991345,0.70655715,0.005312545,0.00021636451,0.70763606,0.9521346,-3.2748115e-10,-3.7863132e-10,0.30567926,3
127006337,0.707026,0.0053144647,0.00012527026,0.7071676,0.9521346,-3.2748115e-10,-3.7863132e-10,0.30567926,3
127026319,0.70642316,0.0052614226,0.00014833415,0.70777017,0.9521346,-3.2748115e-10,-3.7863132e-10,0.30567926,3
127051302,0.70708895,0.005231754,0.00012657193,0.70710534,0.9521346,-3.2748115e-10,-3.7863132e-10,0.30567926,3
127066291,0.70638686,0.005393255,0.00018643559,0.70780545,0.9521346,-3.2748115e-10,-3.7863132e-10,0.30567926,3
127086277,0.7070344,0.0052244724,0.00017807313,0.7071599,0.9521346,-3.2748115e-10,-3.7863132e-10,0.30567926,3
127106262,0.7071827,0.005147051,0.00012633501,0.70701224,0.9521346,-3.2748115e-10,-3.7863132e-10,0.30567926,3
127126247,0.7064426,0.0052624615,0.000261806,0.70775086,0.9521346,-3.2748115e-10,-3.7863132e-10,0.30567926,3
127146233,0.7073869,0.005194917,0.00021658863,0.7068075,0.9521346,-3.2748115e-10,-3.7863132e-10,0.30567926,3
127166219,0.70654005,0.005239073,0.00014566965,0.70765376,0.9521346,-3.2748115e-10,-3.7863132e-10,0.30567926,3
127191200,0.7065859,0.0052640704,0.00029456997,0.70760775,0.9521346,-3.2748115e-10,-3.7863132e-10,0.30567926,3
127206191,0.70705014,0.005225442,0.00019608455,0.70714414,0.9521346,-3.2748115e-10,-3.7863132e-10,0.30567926,3
127226175,0.7065093,0.0052950596,0.00015786935,0.70768404,0.9521346,-3.2748115e-10,-3.7863132e-10,0.30567926,3
127246160,0.7074981,0.005163957,-1.6936315e-06,0.7066965,0.9521346,-3.2748115e-10,-3.7863132e-10,0.30567926,3
127271142,0.7068333,0.005291227,0.00013795788,0.70736045,0.9521346,-3.2748115e-10,-3.7863132e-10,0.30567926,3
127286132,0.70716363,0.005116542,0.0002103055,0.7070314,0.9521346,-3.2748115e-10,-3.7863132e-10,0.30567926,3
127306117,0.7070425,0.005266477,0.0001863036,0.7071515,0.9521346,-3.2748115e-10,-3.7863132e-10,0.30567926,3
127331100,0.70645505,0.005179623,0.00024144705,0.70773894,0.9521346,-3.2748115e-10,-3.7863132e-10,0.30567926,3
127346090,0.7074306,0.0050609666,0.00015249549,0.70676476,0.9521346,-3.2748115e-10,-3.7863132e-10,0.30567926,3
127366074,0.70643777,0.005270441,0.0001697283,0.70775557,0.9521346,-3.2748115e-10,-3.7863132e-10,0.30567926,3
127386059,0.70729613,0.004844392,3.6329195e-05,0.70690084,0.9521346,-3.2748115e-10,-3.7863132e-10,0.30567926,3
127411041,0.7070906,0.004580115,-0.0008446341,0.70710766,0.9521346,-3.2748115e-10,-3.7863132e-10,0.30567926,3
127426030,0.70715463,0.003121767,-0.0010717517,0.7070513,0.9521346,-3.2748115e-10,-3.7863132e-10,0.30567926,3
127446018,0.70695066,0.0019434852,-0.00366261,0.7072508,0.9521346,-3.2748115e-10,-3.7863132e-10,0.30567926,3
127470997,0.7074539,-0.0011331791,-0.0066844383,0.706727,0.9521346,-3.2748115e-10,-3.7863132e-10,0.30567926,3
127485988,0.7077219,-0.0028760629,-0.009214301,0.70642525,0.9521346,-3.2748115e-10,-3.7863132e-10,0.30567926,3
127505972,0.7081412,-0.006121481,-0.011483929,0.705951,0.9521346,-3.2748115e-10,-3.7863132e-10,0.30567926,3
127525957,0.708228,-0.0068390695,-0.013500747,0.7058216,0.9521346,-3.2748115e-10,-3.7863132e-10,0.30567926,3
127550939,0.7079543,-0.009382193,-0.015524541,0.70602536,0.9521346,-3.2748115e-10,-3.7863132e-10,0.30567926,3
127565933,0.7077248,-0.009732662,-0.01576323,0.70624536,0.9521346,-3.2748115e-10,-3.7863132e-10,0.30567926,3
127585914,0.70740217,-0.009627234,-0.016197415,0.7065601,0.9521346,-3.2748115e-10,-3.7863132e-10,0.30567926,3
127610895,0.70733446,-0.007585204,-0.015311016,0.70667255,0.9521346,-3.2748115e-10,-3.7863132e-10,0.30567926,3
127625885,0.70782655,-0.0061456305,-0.01640996,0.706169,0.9521346,-3.2748115e-10,-3.7863132e-10,0.30567926,3
127645870,0.7075483,-0.0069866236,-0.018186491,0.70639646,0.9521346,-3.2748115e-10,-3.7863132e-10,0.30567926,3
127665857,0.7080516,-0.00994066,-0.017671475,0.7058696,0.9521346,-3.2748115e-10,-3.7863132e-10,0.30567926,3
127690837,0.7087099,-0.01015848,-0.017747913,0.70520365,0.9521346,-3.2748115e-10,-3.7863132e-10,0.30567926,3
127705826,0.70850587,-0.008417378,-0.01851954,0.70541173,0.9521346,-3.2748115e-10,-3.7863132e-10,0.30567926,3
127725813,0.70888,-0.006450466,-0.01888314,0.70504683,0.9521346,-3.2748115e-10,-3.7863132e-10,0.30567926,3
127750797,0.70896053,-0.005768091,-0.01929692,0.7049606,0.9521346,-3.2748115e-10,-3.7863132e-10,0.30567926,3
127765784,0.7090282,-0.0054398933,-0.01873193,0.70491034,0.9521346,-3.2748115e-10,-3.7863132e-10,0.30567926,3
127785770,0.7095692,-0.004044495,-0.017463936,0.7044078,0.9521346,-3.2748115e-10,-3.7863132e-10,0.30567926,3
127805756,0.7099453,-0.0034047,-0.016840428,0.7040473,0.9521346,-3.2748115e-10,-3.7863132e-10,0.30567926,3
127825741,0.7099738,-0.0029388347,-0.016218739,0.70403516,0.9521346,-3.2748115e-10,-3.7863132e-10,0.30567926,3
127845725,0.7103405,-0.002448797,-0.016524402,0.7036601,0.9521346,-3.2748115e-10,-3.7863132e-10,0.30567926,3
127865711,0.7107157,0.00020892786,-0.01594802,0.70329857,0.9521346,-3.2748115e-10,-3.7863132e-10,0.30567926,3
127890693,0.71099275,0.0045762993,-0.014795774,0.7030288,0.9521346,-3.2748115e-10,-3.7863132e-10,0.30567926,3
127905683,0.7112839,0.0067637144,-0.014691888,0.7027188,0.9521346,-3.2748115e-10,-3.7863132e-10,0.30567926,3
127925668,0.711376,0.0079788985,-0.015321219,0.7025993,0.9521346,-3.2748115e-10,-3.7863132e-10,0.30567926,3
127945653,0.7114467,0.007877201,-0.017276429,0.7024836,0.9521346,-3.2748115e-10,-3.7863132e-10,0.30567926,3
127965639,0.7115655,0.0070915977,-0.018211855,0.70234793,0.9521346,-3.2748115e-10,-3.7863132e-10,0.30567926,3
127985623,0.7115809,0.008254688,-0.016047964,0.70237243,0.9521346,-3.2748115e-10,-3.7863132e-10,0.30567926,3
128005609,0.71150726,0.010133552,-0.0138079,0.70247,0.9521346,-3.2748115e-10,-3.7863132e-10,0.30567926,3
128030593,0.711702,0.016850794,-0.011222199,0.70218974,0.9521346,-3.2748115e-10,-3.7863132e-10,0.30567926,3
128045580,0.7115727,0.020926269,-0.010251773,0.7022259,0.9521346,-3.2748115e-10,-3.7863132e-10,0.30567926,3
128065565,0.7112588,0.024211764,-0.009821548,0.7024445,0.9521346,-3.2748115e-10,-3.7863132e-10,0.30567926,3
128085551,0.71130455,0.025458213,-0.01001244,0.70235145,0.9521346,-3.2748115e-10,-3.7863132e-10,0.30567926,3
128105536,0.71075225,0.026715092,-0.0102689,0.70286,0.9521346,-3.2748115e-10,-3.7863132e-10,0.30567926,3
128125522,0.7102532,0.030005926,-0.0076134466,0.7032654,0.9521346,-3.2748115e-10,-3.7863132e-10,0.30567926,3
128145508,0.7099445,0.03402988,-0.0032451148,0.70342755,0.9521346,-3.2748115e-10,-3.7863132e-10,0.30567926,3
128170489,0.7094564,0.037954498,0.00023080377,0.7037266,0.9521346,-3.2748115e-10,-3.7863132e-10,0.30567926,3
128185480,0.70912117,0.038780212,-0.00028989863,0.7040193,0.9521346,-3.2748115e-10,-3.7863132e-10,0.30567926,3
128205464,0.708872,0.039853267,-0.003293716,0.70420265,0.9521346,-3.2748115e-10,-3.7863132e-10,0.30567926,3
128225449,0.70864224,0.04135199,-0.0051310947,0.70433646,0.9521346,-3.2748115e-10,-3.7863132e-10,0.30567926,3
128245435,0.7082371,0.04388218,-0.002859363,0.70460373,0.9521346,-3.2748115e-10,-3.7863132e-10,0.30567926,3
128265420,0.70810115,0.044592254,0.00094788044,0.70470095,0.9521346,-3.2748115e-10,-3.7863132e-10,0.30567926,3
128285407,0.70755476,0.04243607,0.0033003103,0.7053755,0.9521346,-3.2748115e-10,-3.7863132e-10,0.30567926,3
128310387,0.70666933,0.039333917,0.0018805261,0.70644736,0.9521346,-3.2748115e-10,-3.7863132e-10,0.30567926,3
128325378,0.7061528,0.039706174,0.0006751215,0.70694506,0.9521346,-3.2748115e-10,-3.7863132e-10,0.30567926,3
128345364,0.70549333,0.040419154,0.00091443595,0.7075625,0.9521346,-3.2748115e-10,-3.7863132e-10,0.30567926,3
128365350,0.70482075,0.04013629,0.004170876,0.7082368,0.9521346,-3.2748115e-10,-3.7863132e-10,0.30567926,3
128385334,0.7043118,0.039905827,0.008391336,0.70871854,0.9521346,-3.2748115e-10,-3.7863132e-10,0.30567926,3
128405319,0.7034161,0.03793794,0.009626361,0.7096999,0.9521346,-3.2748115e-10,-3.7863132e-10,0.30567926,3
128425305,0.70320934,0.033652175,0.007249432,0.71014905,0.9521346,-3.2748115e-10,-3.7863132e-10,0.30567926,3
128450286,0.7023983,0.02890877,0.005147203,0.71117824,0.9521346,-3.2748115e-10,-3.7863132e-10,0.30567926,3
128465277,0.70208126,0.027993508,0.0060624788,0.7115207,0.9521346,-3.2748115e-10,-3.7863132e-10,0.30567926,3
128485262,0.70216066,0.026428767,0.008828941,0.7114731,0.9521346,-3.2748115e-10,-3.7863132e-10,0.30567926,3
128510242,0.701383,0.02342535,0.010784918,0.71231794,0.9521346,-3.2748115e-10,-3.7863132e-10,0.30567926,3
128525232,0.7012379,0.021255942,0.009686386,0.7125446,0.9521346,-3.2748115e-10,-3.7863132e-10,0.30567926,3
128545219,0.70103073,0.01816439,0.0064618043,0.7128704,0.9521346,-3.2748115e-10,-3.7863132e-10,0.30567926,3
128565203,0.70083445,0.0143027,0.0036191726,0.71317136,0.9521346,-3.2748115e-10,-3.7863132e-10,0.30567926,3
128590184,0.7003398,0.010531265,0.0021777155,0.7137286,0.9521346,-3.2748115e-10,-3.7863132e-10,0.30567926,3
128605174,0.70009625,0.008003649,0.0008545625,0.71400315,0.9521346,-3.2748115e-10,-3.7863132e-10,0.30567926,3
128625160,0.6996852,0.0041409545,-0.0016895079,0.7144373,0.9521346,-3.2748115e-10,-3.7863132e-10,0.30567926,3
128650140,0.6994125,0.0020011861,-0.0058047874,0.7146919,0.9521346,-3.2748115e-10,-3.7863132e-10,0.30567926,3
128665132,0.69929814,0.00083733053,-0.0065173474,0.71479994,0.9521346,-3.2748115e-10,-3.7863132e-10,0.30567926,3
128685116,0.69920015,0.0012143219,-0.005172306,0.7149063,0.9521346,-3.2748115e-10,-3.7863132e-10,0.30567926,3
128705101,0.6995018,0.0007317596,-0.006507954,0.7146009,0.9521346,-3.2748115e-10,-3.7863132e-10,0.30567926,3
128730083,0.6996575,-0.0020800643,-0.012613649,0.71436405,0.9521346,-3.2748115e-10,-3.7863132e-10,0.30567926,3
128745078,0.6996627,-0.0034862028,-0.015481359,0.7142971,0.9521346,-3.2748115e-10,-3.7863132e-10,0.30567926,3
128765058,0.7001156,-0.0026434667,-0.015523581,0.7138559,0.9521346,-3.2748115e-10,-3.7863132e-10,0.30567926,3
128790041,0.7003775,-0.00089489645,-0.015318729,0.71360767,0.9521346,-3.2748115e-10,-3.7863132e-10,0.30567926,3
128805031,0.7005942,-1.8171555e-05,-0.015611049,0.71338916,0.9521346,-3.2748115e-10,-3.7863132e-10,0.30567926,3
128825014,0.70081836,0.0010137581,-0.01702105,0.7131361,0.9521346,-3.2748115e-10,-3.7863132e-10,0.30567926,3
128845001,0.7011304,0.0025464513,-0.018706877,0.7127831,0.9521346,-3.2748115e-10,-3.7863132e-10,0.30567926,3
128869981,0.70160043,0.0063307546,-0.019439757,0.71227723,0.9521346,-3.2748115e-10,-3.7863132e-10,0.30567926,3
128884978,0.70210487,0.009054617,-0.017769717,0.7117943,0.9521346,-3.2748115e-10,-3.7863132e-10,0.30567926,3
128904960,0.7029279,0.0120580355,-0.015185471,0.7109968,0.9521346,-3.2748115e-10,-3.7863132e-10,0.30567926,3
128929939,0.7035352,0.014664932,-0.015088132,0.71034896,0.9521346,-3.2748115e-10,-3.7863132e-10,0.30567926,3
128944930,0.7042512,0.01591232,-0.015842346,0.7095958,0.9521346,-3.2748115e-10,-3.7863132e-10,0.30567926,3
128964914,0.70480424,0.018472562,-0.015050932,0.7090016,0.9521346,-3.2748115e-10,-3.7863132e-10,0.30567926,3
128984900,0.705458,0.020101096,-0.0134112965,0.70833975,0.9521346,-3.2748115e-10,-3.7863132e-10,0.30567926,3
129009880,0.70637786,0.02507943,-0.010765433,0.70730865,0.9521346,-3.2748115e-10,-3.7863132e-10,0.30567926,3
129024871,0.7066611,0.028115058,-0.010069112,0.70692176,0.9521346,-3.2748115e-10,-3.7863132e-10,0.30567926,3
129044855,0.7069245,0.032974806,-0.00866204,0.7064669,0.9521346,-3.2748115e-10,-3.7863132e-10,0.30567926,3
129069836,0.70728636,0.04085207,-0.005198586,0.7057267,0.9521346,-3.2748115e-10,-3.7863132e-10,0.30567926,3
129084825,0.7074344,0.04456142,-0.0026450825,0.7053679,0.9521346,-3.2748115e-10,-3.7863132e-10,0.30567926,3
129104813,0.7074776,0.048032425,0.00066952145,0.7051014,0.9521346,-3.2748115e-10,-3.7863132e-10,0.30567926,3
129129793,0.7076917,0.051519804,0.003938578,0.7046294,0.9521346,-3.2748115e-10,-3.7863132e-10,0.30567926,3
129149779,0.7074529,0.055106796,0.0060533984,0.70458287,0.9521346,-3.2748115e-10,-3.7863132e-10,0.30567926,3
129164770,0.7072818,0.059549037,0.008565117,0.7043671,0.9521346,-3.2748115e-10,-3.7863132e-10,0.30567926,3
129184754,0.70720625,0.06413734,0.0119893495,0.70399004,0.9521346,-3.2748115e-10,-3.7863132e-10,0.30567926,3
129209736,0.70682406,0.06813366,0.017332118,0.70388716,0.9521346,-3.2748115e-10,-3.7863132e-10,0.30567926,3
129224726,0.70683813,0.07063816,0.02022525,0.7035489,0.9521346,-3.2748115e-10,-3.7863132e-10,0.30567926,3
129244716,0.70702523,0.07359138,0.02290843,0.70297575,0.9521346,-3.2748115e-10,-3.7863132e-10,0.30567926,3
129269692,0.707254,0.07731658,0.02420817,0.7023019,0.9521346,-3.2748115e-10,-3.7863132e-10,0.30567926,3
129289679,0.7077716,0.07952911,0.023781668,0.7015476,0.9521346,-3.2748115e-10,-3.7863132e-10,0.30567926,3
129304666,0.7081786,0.08087549,0.023462722,0.7009935,0.9521346,-3.2748115e-10,-3.7863132e-10,0.30567926,3
129324652,0.7085899,0.08201709,0.023691295,0.70043725,0.9521346,-3.2748115e-10,-3.7863132e-10,0.30567926,3
129349634,0.7093384,0.08244345,0.024745464,0.69959265,0.9521346,-3.2748115e-10,-3.7863132e-10,0.30567926,3
129364625,0.70958996,0.08282999,0.026133351,0.6992413,0.9521346,-3.2748115e-10,-3.7863132e-10,0.30567926,3
129384608,0.70998067,0.08124261,0.0275212,0.6989777,0.9521346,-3.2748115e-10,-3.7863132e-10,0.30567926,3
129409590,0.71092886,0.07634716,0.027085938,0.69858265,0.9521346,-3.2748115e-10,-3.7863132e-10,0.30567926,3
129429575,0.7114591,0.07214685,0.027234707,0.69848347,0.9521346,-3.2748115e-10,-3.7863132e-10,0.30567926,3
129444565,0.71200526,0.0685335,0.028168,0.69825375,0.9521346,-3.2748115e-10,-3.7863132e-10,0.30567926,3
129464550,0.7129809,0.065819986,0.030265572,0.69743097,0.9521346,-3.2748115e-10,-3.7863132e-10,0.30567926,3
129489532,0.71411425,0.061977506,0.031789385,0.69655526,0.9521346,-3.2748115e-10,-3.7863132e-10,0.30567926,3
129504521,0.71464497,0.059792407,0.031458974,0.69621676,0.9521346,-3.2748115e-10,-3.7863132e-10,0.30567926,3
129524506,0.715528,0.053988118,0.030108748,0.6958437,0.9521346,-3.2748115e-10,-3.7863132e-10,0.30567926,3
129549488,0.7160999,0.04867707,0.028479863,0.6957157,0.9521346,-3.2748115e-10,-3.7863132e-10,0.30567926,3
129569474,0.7165628,0.04450282,0.028686969,0.69551015,0.9521346,-3.2748115e-10,-3.7863132e-10,0.30567926,3
129584462,0.716826,0.041444182,0.02861524,0.6954308,0.9521346,-3.2748115e-10,-3.7863132e-10,0.30567926,3
129604448,0.716751,0.036295056,0.025422687,0.69591993,0.9521346,-3.2748115e-10,-3.7863132e-10,0.30567926,3
129629430,0.7167934,0.02884864,0.021374352,0.6963607,0.9521346,-3.2748115e-10,-3.7863132e-10,0.30567926,3
129644419,0.71677655,0.02385043,0.01802626,0.6966617,0.9521346,-3.2748115e-10,-3.7863132e-10,0.30567926,3
129664404,0.7162296,0.018402392,0.014509662,0.6974712,0.9521346,-3.2748115e-10,-3.7863132e-10,0.30567926,3
129689387,0.716238,0.013039989,0.013606525,0.6976016,0.9521346,-3.2748115e-10,-3.7863132e-10,0.30567926,3
129709372,0.716228,0.0084320735,0.012564302,0.69770235,0.9521346,-3.2748115e-10,-3.7863132e-10,0.30567926,3
129724362,0.71613884,0.0042002057,0.010271098,0.6978697,0.9521346,-3.2748115e-10,-3.7863132e-10,0.30567926,3
129744347,0.71605414,-0.0013405485,0.006338885,0.69801474,0.9521346,-3.2748115e-10,-3.7863132e-10,0.30567926,3
129769329,0.7160478,-0.00808508,0.0033953881,0.6979962,0.9521346,-3.2748115e-10,-3.7863132e-10,0.30567926,3
129784317,0.71614516,-0.011429297,0.00230017,0.697854,0.9521346,-3.2748115e-10,-3.7863132e-10,0.30567926,3
129809300,0.7159362,-0.015710583,-0.0024732235,0.6979846,0.9521346,-3.2748115e-10,-3.7863132e-10,0.30567926,3
129829285,0.7159577,-0.02075901,-0.009187309,0.6977745,0.9521346,-3.2748115e-10,-3.7863132e-10,0.30567926,3
129844274,0.7157967,-0.024780547,-0.0154920705,0.69769704,0.9521346,-3.2748115e-10,-3.7863132e-10,0.30567926,3
129864259,0.7155289,-0.02806959,-0.022684427,0.6976504,0.9521346,-3.2748115e-10,-3.7863132e-10,0.30567926,3
129889243,0.71551704,-0.029889949,-0.026963437,0.6974346,0.9521346,-3.2748115e-10,-3.7863132e-10,0.30567926,3
129909231,0.7158972,-0.02913913,-0.027161976,0.69706845,0.9521346,-3.2748115e-10,-3.7863132e-10,0.30567926,3
129924216,0.7158881,-0.030016316,-0.02789546,0.69701165,0.9521346,-3.2748115e-10,-3.7863132e-10,0.30567926,3
129949199,0.715463,-0.03226867,-0.031858042,0.69717765,0.9521346,-3.2748115e-10,-3.7863132e-10,0.30567926,3
129969184,0.7150306,-0.03354169,-0.038145144,0.6972455,0.9521346,-3.2748115e-10,-3.7863132e-10,0.30567926,3
129989170,0.7149222,-0.031466488,-0.04245897,0.697204,0.9521346,-3.2748115e-10,-3.7863132e-10,0.30567926,3
130004158,0.71483845,-0.027063591,-0.041849233,0.6975115,0.9521346,-3.2748115e-10,-3.7863132e-10,0.30567926,3
130029140,0.7156292,-0.018498253,-0.037884496,0.697207,0.9521346,-3.2748115e-10,-3.7863132e-10,0.30567926,3
130049125,0.71603507,-0.012338408,-0.03628111,0.69701165,0.9521346,-3.2748115e-10,-3.7863132e-10,0.30567926,3
130064115,0.71635777,-0.008629014,-0.03663639,0.6967172,0.9521346,-3.2748115e-10,-3.7863132e-10,0.30567926,3
130089096,0.7167956,-0.00067158655,-0.03606604,0.6963497,0.9521346,-3.2748115e-10,-3.7863132e-10,0.30567926,3
130109082,0.71731037,0.009072849,-0.032610994,0.6959311,0.9521346,-3.2748115e-10,-3.7863132e-10,0.30567926,3
130124073,0.71757483,0.018087503,-0.028403444,0.69566697,0.9521346,-3.2748115e-10,-3.7863132e-10,0.30567926,3
130144056,0.7179032,0.027607767,-0.024398655,0.69516736,0.9521346,-3.2748115e-10,-3.7863132e-10,0.30567926,3
130169039,0.71794873,0.03653849,-0.021128109,0.6948152,0.9521346,-3.2748115e-10,-3.7863132e-10,0.30567926,3
130189024,0.7180946,0.04331932,-0.017231338,0.6943823,0.9521346,-3.2748115e-10,-3.7863132e-10,0.30567926,3
130204013,0.71787953,0.050087053,-0.012679922,0.6942475,0.9521346,-3.2748115e-10,-3.7863132e-10,0.30567926,3
130228996,0.7174752,0.06392009,-0.0027454305,0.6936398,0.9521346,-3.2748115e-10,-3.7863132e-10,0.30567926,3
130248982,0.7168787,0.073229454,0.0036073674,0.6933321,0.9521346,-3.2748115e-10,-3.7863132e-10,0.30567926,3
130263971,0.7166022,0.07783553,0.0074015316,0.6930859,0.9521346,-3.2748115e-10,-3.7863132e-10,0.30567926,3
130283959,0.7161823,0.08035087,0.011756205,0.6931728,0.9521346,-3.2748115e-10,-3.7863132e-10,0.30567926,3
130308937,0.7156728,0.085620426,0.017392682,0.69294965,0.9521346,-3.2748115e-10,-3.7863132e-10,0.30567926,3
130328924,0.7150437,0.09311587,0.022202114,0.6924948,0.9521346,-3.2748115e-10,-3.7863132e-10,0.30567926,3
130348908,0.7145354,0.10093388,0.02621858,0.6917833,0.9521346,-3.2748115e-10,-3.7863132e-10,0.30567926,3
130368893,0.7141507,0.10437165,0.02851292,0.69157964,0.9521346,-3.2748115e-10,-3.7863132e-10,0.30567926,3
130388879,0.7144576,0.10572836,0.030325845,0.6909793,0.9521346,-3.2748115e-10,-3.7863132e-10,0.30567926,3
130403869,0.7147115,0.103064865,0.032262135,0.69103134,0.9521346,-3.2748115e-10,-3.7863132e-10,0.30567926,3
130423853,0.7148454,0.099617004,0.035730567,0.6912278,0.9521346,-3.2748115e-10,-3.7863132e-10,0.30567926,3
130448836,0.71512854,0.096640825,0.041148685,0.69105613,0.9521346,-3.2748115e-10,-3.7863132e-10,0.30567926,3
130468821,0.7153618,0.0944272,0.04355353,0.6909734,0.9521346,-3.2748115e-10,-3.7863132e-10,0.30567926,3
130483810,0.7156044,0.0918473,0.04339787,0.6910797,0.9521346,-3.2748115e-10,-3.7863132e-10,0.30567926,3
130508792,0.71644294,0.08516749,0.043514267,0.69105905,0.9521346,-3.2748115e-10,-3.7863132e-10,0.30567926,3
130528778,0.71689975,0.07974528,0.045517717,0.69110316,0.9521346,-3.2748115e-10,-3.7863132e-10,0.30567926,3
130548763,0.7170193,0.07692814,0.047596477,0.6911584,0.9521346,-3.2748115e-10,-3.7863132e-10,0.30567926,3
130568748,0.7174673,0.07390375,0.048187103,0.6909826,0.9521346,-3.2748115e-10,-3.7863132e-10,0.30567926,3
130588734,0.7178267,0.06905379,0.047754638,0.69114107,0.9521346,-3.2748115e-10,-3.7863132e-10,0.30567926,3
130608721,0.7182957,0.06180857,0.04607705,0.6914535,0.9521346,-3.2748115e-10,-3.7863132e-10,0.30567926,3
130628705,0.718441,0.054166958,0.04649747,0.6919151,0.9521346,-3.2748115e-10,-3.7863132e-10,0.30567926,3
130648691,0.7189022,0.04578958,0.045594,0.69210136,0.9521346,-3.2748115e-10,-3.7863132e-10,0.30567926,3
130668676,0.7191027,0.03779536,0.045103647,0.6924078,0.9521346,-3.2748115e-10,-3.7863132e-10,0.30567926,3
130688663,0.71929425,0.029976958,0.04347772,0.69269544,0.9521346,-3.2748115e-10,-3.7863132e-10,0.30567926,3
130703651,0.71942824,0.024419166,0.04171567,0.69288284,0.9521346,-3.2748115e-10,-3.7863132e-10,0.30567926,3
130728633,0.7195031,0.015333224,0.038556382,0.6932486,0.9521346,-3.2748115e-10,-3.7863132e-10,0.30567926,3
130748618,0.7193857,0.0077099777,0.034574404,0.6937071,0.9521346,-3.2748115e-10,-3.7863132e-10,0.30567926,3
130768603,0.71943295,0.0020876066,0.030943414,0.69386923,0.9521346,-3.2748115e-10,-3.7863132e-10,0.30567926,3
130788589,0.71943897,-0.0051190606,0.027677126,0.6939851,0.9521346,-3.2748115e-10,-3.7863132e-10,0.30567926,3
130808576,0.71912795,-0.011369083,0.024865612,0.6943396,0.9521346,-3.2748115e-10,-3.7863132e-10,0.30567926,3
130828560,0.71905243,-0.018076625,0.021443212,0.69438976,0.9521346,-3.2748115e-10,-3.7863132e-10,0.30567926,3
130843549,0.7188549,-0.02264924,0.019326584,0.69452226,0.9521346,-3.2748115e-10,-3.7863132e-10,0.30567926,3
130868531,0.71847767,-0.030082192,0.013360713,0.6947709,0.9521346,-3.2748115e-10,-3.7863132e-10,0.30567926,3
130888520,0.7179211,-0.035303302,0.009038032,0.69517004,0.9521346,-3.2748115e-10,-3.7863132e-10,0.30567926,3
130908508,0.7175359,-0.04123654,0.005194814,0.6952804,0.9521346,-3.2748115e-10,-3.7863132e-10,0.30567926,3
130928487,0.7171646,-0.044491578,0.0019767315,0.69547933,0.9521346,-3.2748115e-10,-3.7863132e-10,0.30567926,3
130948473,0.71651495,-0.048152354,-0.0015508964,0.69590616,0.9521346,-3.2748115e-10,-3.7863132e-10,0.30567926,3
130968458,0.715912,-0.051733006,-0.0042616837,0.69625837,0.9521346,-3.2748115e-10,-3.7863132e-10,0.30567926,3
130983449,0.71548265,-0.054921146,-0.0065614046,0.69643754,0.9521346,-3.2748115e-10,-3.7863132e-10,0.30567926,3
131008430,0.71457624,-0.057036754,-0.008687884,0.69717443,0.9521346,-3.2748115e-10,-3.7863132e-10,0.30567926,3
131028418,0.71420944,-0.056659438,-0.008830712,0.6975792,0.9521346,-3.2748115e-10,-3.7863132e-10,0.30567926,3
131048405,0.713932,-0.055156395,-0.008841162,0.6979834,0.9521346,-3.2748115e-10,-3.7863132e-10,0.30567926,3
131068391,0.7135693,-0.05371791,-0.010712344,0.6984401,0.9521346,-3.2748115e-10,-3.7863132e-10,0.30567926,3
131088378,0.71306705,-0.05255489,-0.013297386,0.69899684,0.9521346,-3.2748115e-10,-3.7863132e-10,0.30567926,3
131108363,0.71297705,-0.050366636,-0.015207252,0.69921076,0.9521346,-3.2748115e-10,-3.7863132e-10,0.30567926,3
131128346,0.7128436,-0.046783026,-0.016892256,0.69955707,0.9521346,-3.2748115e-10,-3.7863132e-10,0.30567926,3
131148327,0.71262443,-0.043016296,-0.019009983,0.6999676,0.9521346,-3.2748115e-10,-3.7863132e-10,0.30567926,3
131168313,0.7122446,-0.040433634,-0.021180365,0.70044583,0.9521346,-3.2748115e-10,-3.7863132e-10,0.30567926,3
131183302,0.71214986,-0.03872932,-0.022762364,0.70058876,0.9521346,-3.2748115e-10,-3.7863132e-10,0.30567926,3
131208286,0.712,-0.033798296,-0.02378056,0.7009623,0.9521346,-3.2748115e-10,-3.7863132e-10,0.30567926,3
131228273,0.712267,-0.027967783,-0.022856826,0.70097876,0.9521346,-3.2748115e-10,-3.7863132e-10,0.30567926,3
131248257,0.7125261,-0.022382496,-0.022123426,0.7009395,0.9521346,-3.2748115e-10,-3.7863132e-10,0.30567926,3
131268241,0.71314186,-0.017795648,-0.021961626,0.7004497,0.9521346,-3.2748115e-10,-3.7863132e-10,0.30567926,3
131288226,0.7132656,-0.01435121,-0.023308562,0.7003592,0.9521346,-3.2748115e-10,-3.7863132e-10,0.30567926,3
131308214,0.7139764,-0.008573944,-0.0225353,0.69975454,0.9521346,-3.2748115e-10,-3.7863132e-10,0.30567926,3
131323202,0.7144105,-0.00373225,-0.020794405,0.6994079,0.9521346,-3.2748115e-10,-3.7863132e-10,0.30567926,3
131348182,0.7150749,0.005073852,-0.017510017,0.6988101,0.9521346,-3.2748115e-10,-3.7863132e-10,0.30567926,3
131368173,0.7152803,0.01015564,-0.015465704,0.6985928,0.9521346,-3.2748115e-10,-3.7863132e-10,0.30567926,3
131388154,0.7154295,0.014504255,-0.014613817,0.69838154,0.9521346,-3.2748115e-10,-3.7863132e-10,0.30567926,3
131408141,0.7155016,0.0204775,-0.013884573,0.6981729,0.9521346,-3.2748115e-10,-3.7863132e-10,0.30567926,3
131428125,0.7156164,0.028845752,-0.011926387,0.69779575,0.9521346,-3.2748115e-10,-3.7863132e-10,0.30567926,3
131448111,0.7153639,0.038627744,-0.009067275,0.69762474,0.9521346,-3.2748115e-10,-3.7863132e-10,0.30567926,3
131468095,0.71521014,0.044265836,-0.006397367,0.697477,0.9521346,-3.2748115e-10,-3.7863132e-10,0.30567926,3
131488081,0.7148745,0.04894788,-0.0054189265,0.69751644,0.9521346,-3.2748115e-10,-3.7863132e-10,0.30567926,3
131508067,0.71480024,0.05235954,-0.0044133235,0.69735193,0.9521346,-3.2748115e-10,-3.7863132e-10,0.30567926,3
131523057,0.7143943,0.05628083,-0.003252124,0.6974688,0.9521346,-3.2748115e-10,-3.7863132e-10,0.30567926,3
131548038,0.7138042,0.065528125,0.0018586281,0.6972706,0.9521346,-3.2748115e-10,-3.7863132e-10,0.30567926,3
131568023,0.71352464,0.06902863,0.0064218543,0.69719183,0.9521346,-3.2748115e-10,-3.7863132e-10,0.30567926,3
131588008,0.7131576,0.0699569,0.007372509,0.6974654,0.9521346,-3.2748115e-10,-3.7863132e-10,0.30567926,3
131607996,0.71311194,0.07035755,0.007851854,0.6974666,0.9521346,-3.2748115e-10,-3.7863132e-10,0.30567926,3
131627980,0.7129976,0.07046593,0.010117444,0.6975434,0.9521346,-3.2748115e-10,-3.7863132e-10,0.30567926,3
131647967,0.71286625,0.069582224,0.013374468,0.69771147,0.9521346,-3.2748115e-10,-3.7863132e-10,0.30567926,3
131667951,0.71242344,0.06725016,0.016571065,0.6983235,0.9521346,-3.2748115e-10,-3.7863132e-10,0.30567926,3
131687941,0.7124119,0.06272169,0.018951025,0.69869614,0.9521346,-3.2748115e-10,-3.7863132e-10,0.30567926,3
131707924,0.7121455,0.05821273,0.019814719,0.6993336,0.9521346,-3.2748115e-10,-3.7863132e-10,0.30567926,3
131727907,0.7117244,0.056725264,0.021111334,0.6998464,0.9521346,-3.2748115e-10,-3.7863132e-10,0.30567926,3
131747893,0.7111219,0.055568617,0.022539673,0.70050675,0.9521346,-3.2748115e-10,-3.7863132e-10,0.30567926,3
131767880,0.71079516,0.053977616,0.024355682,0.7009019,0.9521346,-3.2748115e-10,-3.7863132e-10,0.30567926,3
131787863,0.7104849,0.049898993,0.025331207,0.70148385,0.9521346,-3.2748115e-10,-3.7863132e-10,0.30567926,3
131807852,0.70999247,0.044432938,0.025561985,0.70234114,0.9521346,-3.2748115e-10,-3.7863132e-10,0.30567926,3
131827837,0.70985186,0.03979368,0.024158694,0.702811,0.9521346,-3.2748115e-10,-3.7863132e-10,0.30567926,3
131847823,0.70956206,0.036285583,0.022453884,0.7033497,0.9521346,-3.2748115e-10,-3.7863132e-10,0.30567926,3
131867806,0.709185,0.03208574,0.02231331,0.70393836,0.9521346,-3.2748115e-10,-3.7863132e-10,0.30567926,3
131887792,0.7091045,0.027837733,0.02359802,0.7041585,0.9521346,-3.2748115e-10,-3.7863132e-10,0.30567926,3
131907778,0.7089592,0.023051051,0.024136705,0.70445937,0.9521346,-3.2748115e-10,-3.7863132e-10,0.30567926,3
131927764,0.7086426,0.017159,0.021531356,0.7050303,0.9521346,-3.2748115e-10,-3.7863132e-10,0.30567926,3
131947749,0.7085304,0.0120284045,0.018284656,0.7053408,0.9521346,-3.2748115e-10,-3.7863132e-10,0.30567926,3
131967735,0.7083864,0.008448574,0.01599726,0.705593,0.9521346,-3.2748115e-10,-3.7863132e-10,0.30567926,3
131987720,0.70853627,0.0059629655,0.015011917,0.7054895,0.9521346,-3.2748115e-10,-3.7863132e-10,0.30567926,3
132007707,0.7082422,0.0016432378,0.013379532,0.70584095,0.9521346,-3.2748115e-10,-3.7863132e-10,0.30567926,3
132027690,0.7084396,-0.0047538574,0.010216931,0.70568156,0.9521346,-3.2748115e-10,-3.7863132e-10,0.30567926,3
132047676,0.7082877,-0.009776925,0.007105637,0.7058205,0.9521346,-3.2748115e-10,-3.7863132e-10,0.30567926,3
132067661,0.70821995,-0.014716091,0.003992437,0.7058273,0.9521346,-3.2748115e-10,-3.7863132e-10,0.30567926,3
132087646,0.7081256,-0.01869639,0.0029137975,0.70583296,0.9521346,-3.2748115e-10,-3.7863132e-10,0.30567926,3
132107631,0.7078602,-0.021782156,0.0027054583,0.7060115,0.9521346,-3.2748115e-10,-3.7863132e-10,0.30567926,3
132127617,0.70762354,-0.023526508,0.0016466898,0.706196,0.9521346,-3.2748115e-10,-3.7863132e-10,0.30567926,3
132147604,0.7075689,-0.021835936,0.00028612194,0.7063069,0.9521346,-3.2748115e-10,-3.7863132e-10,0.30567926,3
132167588,0.7073388,-0.020572174,-0.0017787202,0.70657307,0.9521346,-3.2748115e-10,-3.7863132e-10,0.30567926,3
132187574,0.7076217,-0.020684775,-0.0029499854,0.7062825,0.9521346,-3.2748115e-10,-3.7863132e-10,0.30567926,3
132207559,0.70782524,-0.021017324,-0.0041344287,0.70606273,0.9521346,-3.2748115e-10,-3.7863132e-10,0.30567926,3
132227544,0.7079757,-0.020235252,-0.005785236,0.7059232,0.9521346,-3.2748115e-10,-3.7863132e-10,0.30567926,3
132247530,0.708442,-0.017707122,-0.0076881237,0.7055051,0.9521346,-3.2748115e-10,-3.7863132e-10,0.30567926,3
132267517,0.7087422,-0.013481927,-0.009515006,0.70527464,0.9521346,-3.2748115e-10,-3.7863132e-10,0.30567926,3
132287504,0.7090953,-0.010679172,-0.011818495,0.70493275,0.9521346,-3.2748115e-10,-3.7863132e-10,0.30567926,3
132307487,0.7094956,-0.009223429,-0.014665645,0.704497,0.9521346,-3.2748115e-10,-3.7863132e-10,0.30567926,3
132327473,0.7101367,-0.008205705,-0.016380502,0.70382535,0.9521346,-3.2748115e-10,-3.7863132e-10,0.30567926,3
132347457,0.71069634,-0.00666292,-0.015683131,0.70329255,0.9521346,-3.2748115e-10,-3.7863132e-10,0.30567926,3
132367447,0.71164346,-0.003960064,-0.015363065,0.70236164,0.9521346,-3.2748115e-10,-3.7863132e-10,0.30567926,3
132387428,0.7119701,-0.002451515,-0.015312587,0.7020385,0.9521346,-3.2748115e-10,-3.7863132e-10,0.30567926,3
132407419,0.71265334,-0.0023032124,-0.01717842,0.7013023,0.9521346,-3.2748115e-10,-3.7863132e-10,0.30567926,3
132427401,0.7129769,-0.0031295514,-0.018796459,0.7009287,0.9521346,-3.2748115e-10,-3.7863132e-10,0.30567926,3
132447386,0.7131998,-0.0041951123,-0.018673506,0.7006996,0.9521346,-3.2748115e-10,-3.7863132e-10,0.30567926,3
132467371,0.7133838,-0.0028835875,-0.018101122,0.70053387,0.9521346,-3.2748115e-10,-3.7863132e-10,0.30567926,3
132487357,0.71343774,-5.459907e-05,-0.017957985,0.70048857,0.9521346,-3.2748115e-10,-3.7863132e-10,0.30567926,3
132507341,0.71325433,0.0036330428,-0.018138891,0.70066124,0.9521346,-3.2748115e-10,-3.7863132e-10,0.30567926,3
132527327,0.7134713,0.0054925308,-0.019300068,0.7003971,0.9521346,-3.2748115e-10,-3.7863132e-10,0.30567926,3
132547314,0.7135427,0.007031523,-0.018916028,0.7003211,0.9521346,-3.2748115e-10,-3.7863132e-10,0.30567926,3
132567298,0.71378857,0.008765653,-0.017756447,0.70008135,0.9521346,-3.2748115e-10,-3.7863132e-10,0.30567926,3
132587284,0.71416545,0.01307353,-0.015715381,0.69967836,0.9521346,-3.2748115e-10,-3.7863132e-10,0.30567926,3
132607269,0.7143548,0.014867507,-0.013530224,0.69949496,0.9521346,-3.2748115e-10,-3.7863132e-10,0.30567926,3
132627255,0.71489847,0.01647458,-0.011651527,0.69893706,0.9521346,-3.2748115e-10,-3.7863132e-10,0.30567926,3
132647240,0.7154229,0.017488908,-0.0100123,0.69840103,0.9521346,-3.2748115e-10,-3.7863132e-10,0.30567926,3
132667226,0.7156791,0.021907426,-0.009059385,0.69802684,0.9521346,-3.2748115e-10,-3.7863132e-10,0.30567926,3
132687211,0.71639574,0.025277857,-0.008914336,0.6971792,0.9521346,-3.2748115e-10,-3.7863132e-10,0.30567926,3
132707197,0.7168404,0.02518944,-0.009680197,0.69671494,0.9521346,-3.2748115e-10,-3.7863132e-10,0.30567926,3
132727183,0.71753025,0.023319304,-0.010063438,0.69606423,0.9521346,-3.2748115e-10,-3.7863132e-10,0.30567926,3
132747167,0.71802557,0.022015752,-0.010234083,0.6955932,0.9521346,-3.2748115e-10,-3.7863132e-10,0.30567926,3
132767154,0.7184649,0.020731745,-0.009635861,0.6951874,0.9521346,-3.2748115e-10,-3.7863132e-10,0.30567926,3
132787139,0.7188647,0.020056168,-0.009338612,0.694798,0.9521346,-3.2748115e-10,-3.7863132e-10,0.30567926,3
132807124,0.7189182,0.018932456,-0.008895427,0.69477993,0.9521346,-3.2748115e-10,-3.7863132e-10,0.30567926,3
132827110,0.7188486,0.019307572,-0.009885868,0.6948283,0.9521346,-3.2748115e-10,-3.7863132e-10,0.30567926,3
132847096,0.7188267,0.02045553,-0.009755624,0.6948198,0.9521346,-3.2748115e-10,-3.7863132e-10,0.30567926,3
132867080,0.71858525,0.021387197,-0.008986755,0.6950519,0.9521346,-3.2748115e-10,-3.7863132e-10,0.30567926,3
132887066,0.71828836,0.02244218,-0.008323607,0.6953337,0.9521346,-3.2748115e-10,-3.7863132e-10,0.30567926,3
132907052,0.71822196,0.022865163,-0.007898457,0.6953935,0.9521346,-3.2748115e-10,-3.7863132e-10,0.30567926,3
132927038,0.71777546,0.021886008,-0.007756739,0.69588745,0.9521346,-3.2748115e-10,-3.7863132e-10,0.30567926,3
132947022,0.7177548,0.018918855,-0.008808509,0.6959832,0.9521346,-3.2748115e-10,-3.7863132e-10,0.30567926,3
132967009,0.71739316,0.018255375,-0.009563222,0.69636375,0.9521346,-3.2748115e-10,-3.7863132e-10,0.30567926,3
132986993,0.71703637,0.018835183,-0.010017688,0.6967093,0.9521346,-3.2748115e-10,-3.7863132e-10,0.30567926,3
133006981,0.7169448,0.020639295,-0.009913652,0.69675386,0.9521346,-3.2748115e-10,-3.7863132e-10,0.30567926,3
133026964,0.7164032,0.02090107,-0.010671496,0.6972918,0.9521346,-3.2748115e-10,-3.7863132e-10,0.30567926,3
133046950,0.716109,0.019931149,-0.011724406,0.6976054,0.9521346,-3.2748115e-10,-3.7863132e-10,0.30567926,3
133066935,0.71608984,0.018976388,-0.010895942,0.69766504,0.9521346,-3.2748115e-10,-3.7863132e-10,0.30567926,3
133086921,0.715677,0.019219812,-0.009129831,0.6981072,0.9521346,-3.2748115e-10,-3.7863132e-10,0.30567926,3
133106906,0.7157686,0.019642483,-0.0057505975,0.6980376,0.9521346,-3.2748115e-10,-3.7863132e-10,0.30567926,3
133126892,0.71559453,0.01929905,-0.0044731577,0.6982349,0.9521346,-3.2748115e-10,-3.7863132e-10,0.30567926,3
133146877,0.7154005,0.015741017,-0.0057622143,0.69851357,0.9521346,-3.2748115e-10,-3.7863132e-10,0.30567926,3
133166864,0.7155394,0.01437447,-0.0077007473,0.6983821,0.9521346,-3.2748115e-10,-3.7863132e-10,0.30567926,3
133186850,0.7157193,0.014048303,-0.0078082737,0.6982031,0.9521346,-3.2748115e-10,-3.7863132e-10,0.30567926,3
133206834,0.7160363,0.013243324,-0.006428449,0.69790787,0.9521346,-3.2748115e-10,-3.7863132e-10,0.30567926,3
133226820,0.7163698,0.011041686,-0.0053641265,0.6976129,0.9521346,-3.2748115e-10,-3.7863132e-10,0.30567926,3
133246807,0.7168517,0.0067104665,-0.005467535,0.697172,0.9521346,-3.2748115e-10,-3.7863132e-10,0.30567926,3
133266791,0.7171359,0.0015643535,-0.0056500575,0.6969087,0.9521346,-3.2748115e-10,-3.7863132e-10,0.30567926,3
133286776,0.7174683,-0.0015737136,-0.00493712,0.6965718,0.9521346,-3.2748115e-10,-3.7863132e-10,0.30567926,3
133306763,0.7176395,-0.0025105206,-0.003711119,0.6964004,0.9521346,-3.2748115e-10,-3.7863132e-10,0.30567926,3
133326747,0.7175242,-0.003045675,-0.0028705786,0.69652104,0.9521346,-3.2748115e-10,-3.7863132e-10,0.30567926,3
133346732,0.7175406,-0.0043992614,-0.0029381714,0.6964966,0.9521346,-3.2748115e-10,-3.7863132e-10,0.30567926,3
133366718,0.71740186,-0.0068973573,-0.0025454382,0.6966208,0.9521346,-3.2748115e-10,-3.7863132e-10,0.30567926,3
133386704,0.717367,-0.007210052,-0.001448711,0.6966567,0.9521346,-3.2748115e-10,-3.7863132e-10,0.30567926,3
133406690,0.7174863,-0.0044021076,0.0009629936,0.6965581,0.9521346,-3.2748115e-10,-3.7863132e-10,0.30567926,3
133426675,0.7176545,-0.002424525,0.004536679,0.6963803,0.9521346,-3.2748115e-10,-3.7863132e-10,0.30567926,3
133446662,0.7174295,-0.0015442148,0.0069119246,0.6965952,0.9521346,-3.2748115e-10,-3.7863132e-10,0.30567926,3
133466646,0.71741736,-0.0037979437,0.009260787,0.6965717,0.9521346,-3.2748115e-10,-3.7863132e-10,0.30567926,3
133486632,0.7170766,-0.006101231,0.010778301,0.69688433,0.9521346,-3.2748115e-10,-3.7863132e-10,0.30567926,3
133506617,0.71668273,-0.0057670115,0.0141667975,0.6972317,0.9521346,-3.2748115e-10,-3.7863132e-10,0.30567926,3
133526602,0.7165293,-0.005703794,0.017859377,0.697305,0.9521346,-3.2748115e-10,-3.7863132e-10,0.30567926,3
133546588,0.7160746,-0.005585685,0.021375792,0.69767416,0.9521346,-3.2748115e-10,-3.7863132e-10,0.30567926,3
133566573,0.7154516,-0.007134336,0.023126489,0.698243,0.9521346,-3.2748115e-10,-3.7863132e-10,0.30567926,3
133586560,0.7151286,-0.007480704,0.025079262,0.6985029,0.9521346,-3.2748115e-10,-3.7863132e-10,0.30567926,3
133606548,0.71463615,-0.00643537,0.027056774,0.6989433,0.9521346,-3.2748115e-10,-3.7863132e-10,0.30567926,3
133626530,0.71413773,-0.0033693877,0.030736877,0.69932204,0.9521346,-3.2748115e-10,-3.7863132e-10,0.30567926,3
133646516,0.7138143,-0.0037747824,0.033461392,0.69952506,0.9521346,-3.2748115e-10,-3.7863132e-10,0.30567926,3
133666505,0.71298754,-0.004679718,0.03449838,0.70031196,0.9521346,-3.2748115e-10,-3.7863132e-10,0.30567926,3
133686487,0.71229875,-0.00498604,0.034157593,0.7010271,0.9521346,-3.2748115e-10,-3.7863132e-10,0.30567926,3
133706472,0.71171767,-0.0027613933,0.03431751,0.7016215,0.9521346,-3.2748115e-10,-3.7863132e-10,0.30567926,3
133726457,0.71125144,0.0014796677,0.035613064,0.7020335,0.9521346,-3.2748115e-10,-3.7863132e-10,0.30567926,3
133746443,0.7106398,0.0048689083,0.036995843,0.70256585,0.9521346,-3.2748115e-10,-3.7863132e-10,0.30567926,3
133766428,0.7103687,0.0068428796,0.037745602,0.7027836,0.9521346,-3.2748115e-10,-3.7863132e-10,0.30567926,3
133786413,0.70987016,0.008629089,0.03681535,0.7033168,0.9521346,-3.2748115e-10,-3.7863132e-10,0.30567926,3
133806401,0.7094338,0.010218429,0.03198024,0.703972,0.9521346,-3.2748115e-10,-3.7863132e-10,0.30567926,3
133826384,0.7088128,0.013962564,0.026148412,0.7047736,0.9521346,-3.2748115e-10,-3.7863132e-10,0.30567926,3
133846370,0.7084452,0.020345269,0.02360692,0.70507747,0.9521346,-3.2748115e-10,-3.7863132e-10,0.30567926,3
133866355,0.7081064,0.026154058,0.023730176,0.7052222,0.9521346,-3.2748115e-10,-3.7863132e-10,0.30567926,3
133886341,0.70764565,0.02995407,0.023786487,0.7055315,0.9521346,-3.2748115e-10,-3.7863132e-10,0.30567926,3
133906326,0.7068763,0.030598238,0.020276764,0.7063842,0.9521346,-3.2748115e-10,-3.7863132e-10,0.30567926,3
133926313,0.7063222,0.033477753,0.016536785,0.7069051,0.9521346,-3.2748115e-10,-3.7863132e-10,0.30567926,3
133946297,0.7055186,0.038414206,0.014302023,0.70750505,0.9521346,-3.2748115e-10,-3.7863132e-10,0.30567926,3
133966284,0.7047049,0.046097867,0.014740315,0.707848,0.9521346,-3.2748115e-10,-3.7863132e-10,0.30567926,3
133986269,0.703922,0.05175549,0.01413554,0.7082482,0.9521346,-3.2748115e-10,-3.7863132e-10,0.30567926,3
134006256,0.70345527,0.05559864,0.010942109,0.70847714,0.9521346,-3.2748115e-10,-3.7863132e-10,0.30567926,3
134026241,0.7029526,0.059920598,0.006431228,0.708679,0.9521346,-3.2748115e-10,-3.7863132e-10,0.30567926,3
134046229,0.70238096,0.063191354,0.0030525115,0.70898426,0.9521346,-3.2748115e-10,-3.7863132e-10,0.30567926,3
134066210,0.701972,0.06683207,0.002749401,0.70905656,0.9521346,-3.2748115e-10,-3.7863132e-10,0.30567926,3
134086198,0.7020458,0.06951238,0.0026576857,0.7087261,0.9521346,-3.2748115e-10,-3.7863132e-10,0.30567926,3
134106182,0.7020274,0.07086387,0.00043420025,0.7086154,0.9521346,-3.2748115e-10,-3.7863132e-10,0.30567926,3
134126166,0.7024803,0.07189412,-0.0044349083,0.70804876,0.9521346,-3.2748115e-10,-3.7863132e-10,0.30567926,3
134146154,0.70289105,0.07309703,-0.008967275,0.7074749,0.9521346,-3.2748115e-10,-3.7863132e-10,0.30567926,3
134166138,0.70307815,0.07370416,-0.011683075,0.7071862,0.9521346,-3.2748115e-10,-3.7863132e-10,0.30567926,3
134186124,0.7035314,0.074336044,-0.012894222,0.7066482,0.9521346,-3.2748115e-10,-3.7863132e-10,0.30567926,3
134206111,0.70416886,0.07382037,-0.0134951,0.70605576,0.9521346,-3.2748115e-10,-3.7863132e-10,0.30567926,3
134226094,0.7047298,0.07298938,-0.014868095,0.7055547,0.9521346,-3.2748115e-10,-3.7863132e-10,0.30567926,3
134246082,0.7055011,0.07372379,-0.016364379,0.70467395,0.9521346,-3.2748115e-10,-3.7863132e-10,0.30567926,3
134266066,0.705952,0.07521847,-0.017051306,0.7040478,0.9521346,-3.2748115e-10,-3.7863132e-10,0.30567926,3
134286050,0.7067312,0.07636331,-0.018726049,0.70309967,0.9521346,-3.2748115e-10,-3.7863132e-10,0.30567926,3
134306036,0.7076787,0.073788784,-0.020788535,0.70236325,0.9521346,-3.2748115e-10,-3.7863132e-10,0.30567926,3
134331018,0.7090656,0.068802975,-0.02215547,0.70142806,0.9521346,-3.2748115e-10,-3.7863132e-10,0.30567926,3
134346008,0.70957977,0.066616185,-0.021498406,0.70113957,0.9521346,-3.2748115e-10,-3.7863132e-10,0.30567926,3
134365993,0.710361,0.06537439,-0.021059118,0.7004784,0.9521346,-3.2748115e-10,-3.7863132e-10,0.30567926,3
134385978,0.7111576,0.06379792,-0.021158231,0.6998122,0.9521346,-3.2748115e-10,-3.7863132e-10,0.30567926,3
134405966,0.71171844,0.060288545,-0.022126043,0.6995232,0.9521346,-3.2748115e-10,-3.7863132e-10,0.30567926,3
134425949,0.71257955,0.05257435,-0.021441394,0.6992901,0.9521346,-3.2748115e-10,-3.7863132e-10,0.30567926,3
134445937,0.71363467,0.045835853,-0.019117549,0.69875544,0.9521346,-3.2748115e-10,-3.7863132e-10,0.30567926,3
134465920,0.7142836,0.0416808,-0.0149491625,0.69845414,0.9521346,-3.2748115e-10,-3.7863132e-10,0.30567926,3
134485906,0.7146621,0.038762238,-0.01224486,0.69828767,0.9521346,-3.2748115e-10,-3.7863132e-10,0.30567926,3
134505893,0.71499187,0.0343496,-0.010519232,0.6982093,0.9521346,-3.2748115e-10,-3.7863132e-10,0.30567926,3
134525879,0.7154628,0.028751161,-0.008850772,0.698003,0.9521346,-3.2748115e-10,-3.7863132e-10,0.30567926,3
134545864,0.71573937,0.024967551,-0.006075484,0.69789463,0.9521346,-3.2748115e-10,-3.7863132e-10,0.30567926,3
134565850,0.71620613,0.022107756,-0.0020571065,0.6975355,0.9521346,-3.2748115e-10,-3.7863132e-10,0.30567926,3
134585835,0.7162596,0.019294553,0.001761402,0.69756496,0.9521346,-3.2748115e-10,-3.7863132e-10,0.30567926,3
134605821,0.7161747,0.013229053,0.0073281555,0.6977572,0.9521346,-3.2748115e-10,-3.7863132e-10,0.30567926,3
134625804,0.7158344,0.0056855977,0.013542613,0.6981157,0.9521346,-3.2748115e-10,-3.7863132e-10,0.30567926,3
134645790,0.71531385,-0.00081042136,0.018718077,0.69855213,0.9521346,-3.2748115e-10,-3.7863132e-10,0.30567926,3
134670772,0.714412,-0.003366581,0.021470467,0.69938785,0.9521346,-3.2748115e-10,-3.7863132e-10,0.30567926,3
134685762,0.71393895,-0.003249099,0.021910444,0.6998576,0.9521346,-3.2748115e-10,-3.7863132e-10,0.30567926,3
134705749,0.7135258,-0.003625343,0.023818888,0.7002147,0.9521346,-3.2748115e-10,-3.7863132e-10,0.30567926,3
134725735,0.7128811,-0.008892467,0.026201619,0.70073897,0.9521346,-3.2748115e-10,-3.7863132e-10,0.30567926,3
134750716,0.7118875,-0.014814017,0.030194363,0.7014878,0.9521346,-3.2748115e-10,-3.7863132e-10,0.30567926,3
134765702,0.71141285,-0.015647668,0.033784885,0.70178735,0.9521346,-3.2748115e-10,-3.7863132e-10,0.30567926,3
134785688,0.71075845,-0.015941635,0.03754512,0.7022526,0.9521346,-3.2748115e-10,-3.7863132e-10,0.30567926,3
134810670,0.7097465,-0.016402483,0.03945608,0.7031601,0.9521346,-3.2748115e-10,-3.7863132e-10,0.30567926,3
134825659,0.70912486,-0.017115865,0.039137486,0.70378786,0.9521346,-3.2748115e-10,-3.7863132e-10,0.30567926,3
134845644,0.7082081,-0.01913214,0.037719525,0.7047359,0.9521346,-3.2748115e-10,-3.7863132e-10,0.30567926,3
134865632,0.7075093,-0.0177818,0.03818498,0.7054477,0.9521346,-3.2748115e-10,-3.7863132e-10,0.30567926,3
134890612,0.7067463,-0.012834549,0.04035283,0.7061988,0.9521346,-3.2748115e-10,-3.7863132e-10,0.30567926,3
134905601,0.70641845,-0.0092289345,0.041727617,0.7065031,0.9521346,-3.2748115e-10,-3.7863132e-10,0.30567926,3
134925586,0.70603436,-0.005813676,0.040823065,0.7069761,0.9521346,-3.2748115e-10,-3.7863132e-10,0.30567926,3
134945573,0.7056073,-0.0024314595,0.038551558,0.7075495,0.9521346,-3.2748115e-10,-3.7863132e-10,0.30567926,3
134965558,0.7050902,0.0015489223,0.03518675,0.7082424,0.9521346,-3.2748115e-10,-3.7863132e-10,0.30567926,3
134985544,0.70477164,0.008209803,0.033384014,0.70860076,0.9521346,-3.2748115e-10,-3.7863132e-10,0.30567926,3
135005531,0.70403326,0.015920237,0.03198273,0.7092678,0.9521346,-3.2748115e-10,-3.7863132e-10,0.30567926,3
135030512,0.7033661,0.026378032,0.0283282,0.7097732,0.9521346,-3.2748115e-10,-3.7863132e-10,0.30567926,3
135045502,0.7031903,0.030635731,0.02254519,0.7099836,0.9521346,-3.2748115e-10,-3.7863132e-10,0.30567926,3
135065491,0.7022545,0.03616958,0.014854926,0.7108515,0.9521346,-3.2748115e-10,-3.7863132e-10,0.30567926,3
135090467,0.7014791,0.043613743,0.01043092,0.71127784,0.9521346,-3.2748115e-10,-3.7863132e-10,0.30567926,3
135105456,0.70127815,0.048674915,0.010628956,0.71114475,0.9521346,-3.2748115e-10,-3.7863132e-10,0.30567926,3
135125442,0.7007729,0.05386635,0.009748273,0.7112811,0.9521346,-3.2748115e-10,-3.7863132e-10,0.30567926,3
135145429,0.7002958,0.058170352,0.0057856124,0.7114553,0.9521346,-3.2748115e-10,-3.7863132e-10,0.30567926,3
135165412,0.6999122,0.061848223,-0.0016516066,0.71154416,0.9521346,-3.2748115e-10,-3.7863132e-10,0.30567926,3
135185403,0.6996125,0.06774524,-0.0064643323,0.7112744,0.9521346,-3.2748115e-10,-3.7863132e-10,0.30567926,3
135205384,0.6992916,0.07255645,-0.008524461,0.7110937,0.9521346,-3.2748115e-10,-3.7863132e-10,0.30567926,3
135230367,0.69912535,0.07455159,-0.010512081,0.71102417,0.9521346,-3.2748115e-10,-3.7863132e-10,0.30567926,3
135245354,0.6989719,0.07460673,-0.014999388,0.7110888,0.9521346,-3.2748115e-10,-3.7863132e-10,0.30567926,3
135265341,0.69898623,0.07529983,-0.021991968,0.7108197,0.9521346,-3.2748115e-10,-3.7863132e-10,0.30567926,3
135285327,0.6987652,0.074946456,-0.025795767,0.71094644,0.9521346,-3.2748115e-10,-3.7863132e-10,0.30567926,3
135305313,0.69875014,0.07527033,-0.025036715,0.7109542,0.9521346,-3.2748115e-10,-3.7863132e-10,0.30567926,3
135325297,0.6986558,0.07373144,-0.026523324,0.7111543,0.9521346,-3.2748115e-10,-3.7863132e-10,0.30567926,3
135345284,0.6982678,0.072450735,-0.031171221,0.71147835,0.9521346,-3.2748115e-10,-3.7863132e-10,0.30567926,3
135370264,0.6976759,0.07079233,-0.038410395,0.71187186,0.9521346,-3.2748115e-10,-3.7863132e-10,0.30567926,3
135385255,0.6974865,0.0702276,-0.04035266,0.7120059,0.9521346,-3.2748115e-10,-3.7863132e-10,0.30567926,3
135405239,0.69683576,0.066792764,-0.040262006,0.712978,0.9521346,-3.2748115e-10,-3.7863132e-10,0.30567926,3
135425226,0.6960545,0.06318189,-0.037230898,0.71423393,0.9521346,-3.2748115e-10,-3.7863132e-10,0.30567926,3
135445211,0.695216,0.060957108,-0.033325784,0.71543586,0.9521346,-3.2748115e-10,-3.7863132e-10,0.30567926,3
135465195,0.6941709,0.058214173,-0.03265805,0.7167087,0.9521346,-3.2748115e-10,-3.7863132e-10,0.30567926,3
135485181,0.6929976,0.054991186,-0.033785675,0.7180452,0.9521346,-3.2748115e-10,-3.7863132e-10,0.30567926,3
135510163,0.69147813,0.05222069,-0.032010674,0.71979606,0.9521346,-3.2748115e-10,-3.7863132e-10,0.30567926,3
135525152,0.69098634,0.050215427,-0.029609919,0.7205135,0.9521346,-3.2748115e-10,-3.7863132e-10,0.30567926,3
135545138,0.68998563,0.048946112,-0.026555022,0.7216779,0.9521346,-3.2748115e-10,-3.7863132e-10,0.30567926,3
135565122,0.6895535,0.048170872,-0.024550473,0.72221386,0.9521346,-3.2748115e-10,-3.7863132e-10,0.30567926,3
135585108,0.6883307,0.04776777,-0.022035018,0.72348714,0.9521346,-3.2748115e-10,-3.7863132e-10,0.30567926,3
135605094,0.6874445,0.04642767,-0.018354878,0.72451895,0.9521346,-3.2748115e-10,-3.7863132e-10,0.30567926,3
135625079,0.6869802,0.0438336,-0.014145984,0.725215,0.9521346,-3.2748115e-10,-3.7863132e-10,0.30567926,3
135650061,0.68655753,0.03986666,-0.008475331,0.72593224,0.9521346,-3.2748115e-10,-3.7863132e-10,0.30567926,3
135670047,0.6862841,0.040205993,-0.0026688436,0.7262166,0.9521346,-3.2748115e-10,-3.7863132e-10,0.30567926,3
135685036,0.6866087,0.04157949,0.0003092983,0.7258372,0.9521346,-3.2748115e-10,-3.7863132e-10,0.30567926,3
135705024,0.6869874,0.044420388,0.004874656,0.72529405,0.9521346,-3.2748115e-10,-3.7863132e-10,0.30567926,3
135730006,0.68689185,0.044677008,0.007468765,0.7253466,0.9521346,-3.2748115e-10,-3.7863132e-10,0.30567926,3
135744992,0.68702674,0.042425204,0.009747869,0.7253271,0.9521346,-3.2748115e-10,-3.7863132e-10,0.30567926,3
135764978,0.6876926,0.040044315,0.015219372,0.72473705,0.9521346,-3.2748115e-10,-3.7863132e-10,0.30567926,3
135789960,0.6880715,0.040194035,0.023104234,0.72416043,0.9521346,-3.2748115e-10,-3.7863132e-10,0.30567926,3
135804949,0.6882995,0.040370744,0.025896885,0.7238394,0.9521346,-3.2748115e-10,-3.7863132e-10,0.30567926,3
135824935,0.68885744,0.040319066,0.026190013,0.7233007,0.9521346,-3.2748115e-10,-3.7863132e-10,0.30567926,3
135849916,0.6896314,0.038558993,0.025194122,0.72269434,0.9521346,-3.2748115e-10,-3.7863132e-10,0.30567926,3
135864905,0.68971276,0.03659048,0.026034484,0.7226893,0.9521346,-3.2748115e-10,-3.7863132e-10,0.30567926,3
135884892,0.6900942,0.037847728,0.029148892,0.72214127,0.9521346,-3.2748115e-10,-3.7863132e-10,0.30567926,3
135904878,0.69084555,0.04032813,0.031864278,0.7211732,0.9521346,-3.2748115e-10,-3.7863132e-10,0.30567926,3
135929858,0.6918512,0.03953935,0.034296855,0.7201405,0.9521346,-3.2748115e-10,-3.7863132e-10,0.30567926,3
135944848,0.69215715,0.037310123,0.03454049,0.71995384,0.9521346,-3.2748115e-10,-3.7863132e-10,0.30567926,3
135964833,0.6926821,0.036026396,0.035500243,0.7194674,0.9521346,-3.2748115e-10,-3.7863132e-10,0.30567926,3
135989815,0.69353575,0.0324953,0.030783685,0.7190303,0.9521346,-3.2748115e-10,-3.7863132e-10,0.30567926,3
136009801,0.6939061,0.028679337,0.023797166,0.7191005,0.9521346,-3.2748115e-10,-3.7863132e-10,0.30567926,3
136024789,0.69458085,0.028165862,0.02333028,0.71848446,0.9521346,-3.2748115e-10,-3.7863132e-10,0.30567926,3
136044775,0.69536674,0.02758831,0.025873283,0.7176591,0.9521346,-3.2748115e-10,-3.7863132e-10,0.30567926,3
136069757,0.69650334,0.022260275,0.02827197,0.71665084,0.9521346,-3.2748115e-10,-3.7863132e-10,0.30567926,3
136089742,0.697572,0.017624857,0.026999475,0.71578896,0.9521346,-3.2748115e-10,-3.7863132e-10,0.30567926,3
136104731,0.6981193,0.016741917,0.024793355,0.7153563,0.9521346,-3.2748115e-10,-3.7863132e-10,0.30567926,3
136129713,0.69856316,0.017934758,0.022353986,0.71497434,0.9521346,-3.2748115e-10,-3.7863132e-10,0.30567926,3
136149699,0.6992512,0.018489372,0.0200622,0.71435535,0.9521346,-3.2748115e-10,-3.7863132e-10,0.30567926,3
136164688,0.6993267,0.016856365,0.016533444,0.71441215,0.9521346,-3.2748115e-10,-3.7863132e-10,0.30567926,3
136184673,0.69974387,0.012727053,0.010388997,0.7142049,0.9521346,-3.2748115e-10,-3.7863132e-10,0.30567926,3
136209656,0.6998637,0.006541616,0.0049010925,0.7142297,0.9521346,-3.2748115e-10,-3.7863132e-10,0.30567926,3
136229640,0.7001928,0.004408846,0.0045380145,0.71392584,0.9521346,-3.2748115e-10,-3.7863132e-10,0.30567926,3
136244630,0.700514,0.0024932513,0.0036580588,0.7136249,0.9521346,-3.2748115e-10,-3.7863132e-10,0.30567926,3
136269611,0.70032513,-0.0012891106,-0.0011849905,0.71382195,0.9521346,-3.2748115e-10,-3.7863132e-10,0.30567926,3
136289597,0.70063794,-0.0055916295,-0.0050950884,0.71347696,0.9521346,-3.2748115e-10,-3.7863132e-10,0.30567926,3
136304588,0.7005886,-0.009416097,-0.0077788667,0.7134609,0.9521346,-3.2748115e-10,-3.7863132e-10,0.30567926,3
136324572,0.70081764,-0.014455731,-0.011368009,0.7131035,0.9521346,-3.2748115e-10,-3.7863132e-10,0.30567926,3
136349554,0.70082563,-0.01777458,-0.016997257,0.7129086,0.9521346,-3.2748115e-10,-3.7863132e-10,0.30567926,3
136369539,0.7012374,-0.018648645,-0.018992538,0.71243083,0.9521346,-3.2748115e-10,-3.7863132e-10,0.30567926,3
136384528,0.7014878,-0.020224942,-0.018870862,0.7121445,0.9521346,-3.2748115e-10,-3.7863132e-10,0.30567926,3
136409510,0.70199144,-0.02267836,-0.0167141,0.7116281,0.9521346,-3.2748115e-10,-3.7863132e-10,0.30567926,3
136429495,0.7028072,-0.02402317,-0.015676254,0.71080184,0.9521346,-3.2748115e-10,-3.7863132e-10,0.30567926,3
136444485,0.7029193,-0.026515922,-0.01816721,0.710543,0.9521346,-3.2748115e-10,-3.7863132e-10,0.30567926,3
136464473,0.70291394,-0.028178623,-0.0241121,0.7103074,0.9521346,-3.2748115e-10,-3.7863132e-10,0.30567926,3
136489453,0.70331013,-0.024268743,-0.026075467,0.7099902,0.9521346,-3.2748115e-10,-3.7863132e-10,0.30567926,3
136509438,0.70388776,-0.020758297,-0.022909494,0.7096381,0.9521346,-3.2748115e-10,-3.7863132e-10,0.30567926,3
136524426,0.70382506,-0.01740463,-0.02054601,0.7098628,0.9521346,-3.2748115e-10,-3.7863132e-10,0.30567926,3
136549408,0.7041345,-0.015145028,-0.019112157,0.7096478,0.9521346,-3.2748115e-10,-3.7863132e-10,0.30567926,3
136564397,0.7046755,-0.01390481,-0.019764325,0.7091182,0.9521346,-3.2748115e-10,-3.7863132e-10,0.30567926,3
136584383,0.70468384,-0.015027115,-0.0215139,0.709036,0.9521346,-3.2748115e-10,-3.7863132e-10,0.30567926,3
136604370,0.70500875,-0.014058138,-0.023082966,0.70868355,0.9521346,-3.2748115e-10,-3.7863132e-10,0.30567926,3
136629350,0.70501614,-0.0076445094,-0.021976197,0.70880955,0.9521346,-3.2748115e-10,-3.7863132e-10,0.30567926,3
136649336,0.7053164,0.00076276273,-0.018312326,0.7086557,0.9521346,-3.2748115e-10,-3.7863132e-10,0.30567926,3
136664325,0.7055303,0.004863572,-0.016765859,0.7084648,0.9521346,-3.2748115e-10,-3.7863132e-10,0.30567926,3
136689307,0.70579785,0.005836192,-0.016315235,0.7082014,0.9521346,-3.2748115e-10,-3.7863132e-10,0.30567926,3
136709292,0.7054457,0.004343448,-0.017239144,0.7085411,0.9521346,-3.2748115e-10,-3.7863132e-10,0.30567926,3
136724281,0.70557195,0.00490095,-0.01732955,0.7084094,0.9521346,-3.2748115e-10,-3.7863132e-10,0.30567926,3
136749263,0.70597184,0.013726733,-0.011275004,0.7080172,0.9521346,-3.2748115e-10,-3.7863132e-10,0.30567926,3
136769248,0.7060669,0.021901518,-0.0042114737,0.70779383,0.9521346,-3.2748115e-10,-3.7863132e-10,0.30567926,3
136784243,0.70614254,0.02352421,-0.0019959763,0.70767605,0.9521346,-3.2748115e-10,-3.7863132e-10,0.30567926,3
136804223,0.70652694,0.02357816,-0.003081391,0.7072866,0.9521346,-3.2748115e-10,-3.7863132e-10,0.30567926,3
136829205,0.70630586,0.027068254,-0.0038659933,0.70737857,0.9521346,-3.2748115e-10,-3.7863132e-10,0.30567926,3
136849191,0.7063777,0.034027465,-0.00030044795,0.7070167,0.9521346,-3.2748115e-10,-3.7863132e-10,0.30567926,3
