timestamp,gyro_rad[0],gyro_rad[1],gyro_rad[2],gyro_integral_dt,accelerometer_timestamp_relative,accelerometer_m_s2[0],accelerometer_m_s2[1],accelerometer_m_s2[2],accelerometer_integral_dt,accelerometer_clipping
125867161,-0.0021864062,-0.0010860328,-0.0124816485,4996,0,-0.06741104,-0.06787297,-9.847645,4996,0
125872158,-0.00040414452,-0.0006312091,-0.012339339,4997,0,-0.07560415,-0.052770033,-9.850486,4997,0
125887148,0.0011204839,-0.0017519392,-0.010881793,4997,0,-0.0785633,-0.0998759,-9.813547,4997,0
125907133,-0.001206439,-0.0019656422,-0.013573123,4997,0,-0.04250067,-0.04405751,-9.84586,4997,0
125927118,-0.0015080926,-0.003163402,-0.0111311115,4996,0,-0.043919787,-0.057300095,-9.839813,4996,0
125947106,0.0008521862,-0.0013835067,-0.012114694,4999,0,-0.04391208,-0.058621082,-9.836938,4999,0
125967089,-0.0015894861,-0.0015747409,-0.014632123,4996,0,-0.06293466,-0.1402922,-9.979819,4996,0
125987076,0.004619214,-0.00071358087,-0.048603974,4998,0,0.10275653,-0.024482485,-9.872229,4998,0
126007062,-0.019328313,0.0034106805,0.009423781,4998,0,0.0024900308,-0.10836182,-9.576622,4998,0
126027045,-0.00839691,0.003051783,-0.01761063,4996,0,-0.16466507,-0.24859667,-9.659012,4996,0
126047031,-0.005643948,-0.0023320778,-0.018937618,4995,0,0.020161686,-0.0904194,-9.782466,4995,0
126067019,0.0023212833,-0.00018637007,-0.00027636235,4999,0,-0.034291156,-0.076933965,-9.96257,4999,0
126087010,0.021676406,0.014635034,-0.02469676,5005,0,-0.25766236,-0.09948246,-9.747056,5005,0
126106989,-0.029010117,-0.00906581,-0.005210396,4998,0,-0.035642784,-0.18243492,-9.712312,4998,0
126126974,0.010800646,0.01190514,-0.012830654,4996,0,-0.104628935,-0.14491472,-9.993128,4996,0
126146965,-0.020454178,-0.0054880045,-0.013186648,5002,0,-0.12085474,0.043931965,-9.975979,5002,0
126166944,-0.009493712,-0.00899867,-0.01506862,4996,0,0.20104842,-0.052547332,-10.035688,4996,0
126186931,-0.007863976,0.00034956963,-0.0063812914,4996,0,-0.10062715,-0.16563238,-9.827063,4996,0
126206915,0.0033739218,-0.0003518334,-0.017982988,4995,0,-0.038970977,-0.026982926,-9.816405,4995,0
126226902,-0.005022808,-0.0042123385,-0.00042161992,4997,0,0.019346483,-0.10680406,-9.799276,4997,0
126246889,-0.0038976425,-0.006805817,-0.017484462,4999,0,-0.12681115,-0.042897694,-9.872979,4999,0
126266872,-0.011983694,-0.0041167354,-0.02914047,4997,0,-0.26098055,-0.14058144,-9.763444,4997,0
126286857,-0.0051503847,-0.010289851,-0.014053498,4996,0,-0.13123883,-0.12961146,-9.737882,4996,0
126306844,0.016774792,-0.0057178657,-0.01778112,4998,0,-0.23755117,-0.2843461,-9.860864,4998,0
126326830,0.02152049,-0.0024423013,-0.011444737,4998,0,-0.16810901,-0.11213677,-10.018619,4998,0
126346813,0.005461237,0.0059575625,-0.015726801,4996,0,-0.06362393,-0.008257017,-9.835605,4996,0
126366804,-0.015390473,0.0031978572,-0.019025395,5001,0,-0.28672618,-0.11720243,-9.800607,5001,0
126386785,0.007852267,0.008499041,-0.01944936,4997,0,-0.64014,-0.0056533003,-10.395081,4997,0
126406770,-0.06467649,-0.020903625,-0.01301948,4997,0,0.020171395,-1.330084,-9.384131,4997,0
126426756,0.0061646197,0.011754485,-0.03412031,4997,0,-1.3746793,-0.89031076,-9.803096,4997,0
126446742,0.012368544,0.0070035597,0.00025755548,4997,0,0.32444954,1.0998318,-9.732868,4997,0
126466727,0.0011765519,0.017824486,0.0016407532,4997,0,-0.61400914,-1.9427905,-9.977935,4997,0
126486711,-0.020701153,0.021149319,-0.05193319,4996,0,-0.24663734,1.1115261,-9.5697975,4996,0
126506702,0.040870085,0.010874788,0.03438522,5001,0,0.5172483,1.4816351,-9.826504,5001,0
126526684,-0.011580256,-0.0035464165,-0.022927731,4998,0,-1.3949704,-1.6882424,-9.842097,4998,0
126546669,-0.054983757,0.023508487,-0.06682367,4997,0,-1.2648853,1.1470795,-10.130306,4997,0
126566654,0.0097293975,-0.03348144,0.070944265,4996,0,0.8512434,2.2519693,-10.372539,4996,0
126586639,-0.004494536,-0.044708133,-0.03558172,4996,0,0.54610765,-3.7667277,-9.819843,4996,0
126606625,-0.052299634,-0.036314134,-0.09487203,4995,0,-0.45517528,-0.36327448,-9.787537,4995,0
126626610,0.04046523,0.026229603,0.10595059,4995,0,0.6932812,1.5009544,-9.4477005,4995,0
126646596,0.052769404,0.01690193,-0.08900222,4995,0,1.0952495,-0.08510738,-9.638581,4995,0
126666581,-0.012342335,0.00027613176,0.005829195,4997,0,-2.8005924,-1.6617078,-10.246178,4997,0
126686567,-0.018776612,0.014853143,0.013257246,4997,0,-0.45244184,2.4792018,-10.123232,4997,0
126706553,0.026286095,0.0060294606,-0.114115104,4998,0,0.5400596,0.8844007,-10.139243,4998,0
126726537,-0.014632299,-0.05409636,0.20249401,4996,0,0.04051649,-2.1751904,-9.808273,4996,0
126746527,-0.07424446,0.0020849737,-0.24735977,5000,0,-0.7686741,-2.062056,-9.815415,5000,0
126766509,0.033761878,0.010302972,0.09729419,4997,0,1.4023983,3.3070667,-9.576507,4997,0
126786494,0.038351297,0.020228429,0.09692298,4994,0,0.56604534,-1.8512465,-9.33549,4994,0
126806489,-0.042614836,0.00073476904,-0.280102,5006,0,-2.1261272,-0.4523945,-10.281984,5006,0
126826465,0.03866005,0.011523042,0.23718855,4997,0,-0.39824566,2.2796497,-10.047344,4997,0
126846451,0.013179938,0.0040442697,-0.11717003,4996,0,1.0297904,1.034784,-10.243087,4996,0
126866438,-0.035492852,-0.046472624,-0.060871392,4999,0,-1.9062092,-2.8367267,-10.512362,4999,0
126886423,-0.0416146,-0.018290715,0.12420379,4998,0,0.4112316,1.69422,-9.693779,4998,0
126906407,0.012761125,0.0004449771,-0.20560612,4996,0,2.0558252,0.27580228,-9.675387,4996,0
126926394,0.020436037,-0.040861204,0.1928906,4998,0,-0.10021184,-2.851389,-9.405915,4998,0
126946378,-0.050787743,0.031235721,-0.16949654,4995,0,-1.0376191,-1.259371,-9.463532,4995,0
126966363,0.053814836,0.034606908,0.0018645937,4995,0,0.52118766,3.417353,-10.02761,4995,0
126991345,0.009881051,-0.015865186,0.21660167,4997,0,-1.2376465,-1.7677832,-9.432891,4997,0
127006337,-0.029159684,-0.013086103,-0.31134662,4999,0,-1.8841279,-1.9873884,-10.105967,4999,0
127026319,-0.028140698,0.010065351,0.19870707,4994,0,-1.5067071,1.0212961,-9.664521,4994,0
127051302,0.014946305,-0.0103453575,0.14247136,4996,0,-0.16029854,-2.0132706,-9.65541,4996,0
127066291,0.019114872,-0.053492323,-0.043007758,4997,0,0.7649961,-1.1703888,-10.076966,4997,0
127086277,-0.007236337,-0.027833244,0.16037856,4996,0,-0.76404375,-2.6035142,-9.730551,4996,0
127106262,-0.061010092,0.044417556,-0.31419677,4997,0,0.2302936,1.6169192,-10.071671,4997,0
127126247,0.075657606,0.00062838395,0.2642758,4996,0,1.2709945,0.9968984,-9.725992,4996,0
127146233,0.035947535,0.007577216,-0.116767816,4996,0,0.5494701,-1.4239442,-9.542568,4996,0
127166219,-0.03406855,0.008945452,-0.11101678,4998,0,-2.733086,-0.7962881,-10.29382,4998,0
127191200,0.0697476,0.0035815784,0.28017768,4995,0,1.164347,-0.20551014,-9.511209,4995,0
127206191,0.0049169986,0.018179847,-0.22407855,4998,0,0.5410771,1.797352,-9.858395,4998,0
127226175,-0.00014630909,-0.04666382,0.2351776,4997,0,-0.726288,-2.6393669,-9.852272,4997,0
127246160,-0.090346724,-0.017769476,-0.2038286,4995,0,-1.3121067,-1.6124228,-10.115719,4995,0
127271142,0.025201865,-0.031560052,-0.17321867,4997,0,1.4302562,0.60772216,-10.007141,4997,0
127286132,0.035200704,-0.015908416,0.1866121,4997,0,2.7515233,0.121015,-9.276375,4997,0
127306117,-0.026566183,-0.018069124,-0.27419686,4997,0,-0.16577919,-3.3546143,-9.845116,4997,0
127331100,0.032405287,0.0014878223,0.09975982,4991,0,1.795335,1.3944752,-9.561634,4991,0
127346090,-0.00034224085,0.067294426,-0.13946699,4997,0,0.6044974,2.797274,-9.814177,4997,0
127366074,0.07401513,-0.017213294,0.060943585,4997,0,0.7799012,0.71184874,-10.33479,4997,0
127386059,-0.0016618696,-0.014909358,0.14508171,4996,0,1.5797453,1.1952906,-9.668369,4996,0
127411041,-0.23149055,0.07216532,-0.18313429,4995,0,-1.7511894,-1.0824882,-10.808987,4995,0
127426030,-0.09520472,0.028187566,0.059811756,4997,0,0.78475827,0.00027825634,-11.049353,4997,0
127446018,-0.39718515,-0.15097088,-0.08756235,4999,0,1.4021842,-0.9777866,-8.731312,4999,0
127470997,-0.3769047,-0.07587993,0.029887693,4996,0,0.52670044,-1.0518023,-10.250165,4996,0
127485988,-0.4167566,-0.037955634,-0.1120248,4998,0,-0.91966957,-0.07585231,-10.742433,4998,0
127505972,-0.27716878,0.0637351,-0.0044371183,4997,0,-0.20758367,0.9185051,-9.933561,4997,0
127525957,-0.2454464,-0.1448531,-0.05569292,4996,0,-0.09297058,0.15581974,-8.505493,4996,0
127550939,-0.19938892,0.07092839,0.05962447,4997,0,-0.65089536,1.0704823,-9.651191,4997,0
127565933,0.0011248095,-0.02911909,0.01734781,5002,0,1.0216432,1.5700907,-8.579649,5002,0
127585914,-0.04227362,0.033089466,0.06725691,4995,0,-0.6868117,1.0181366,-10.924998,4995,0
127610895,0.23168485,-0.18414499,-0.049095817,4995,0,0.93786985,-0.03553919,-8.156857,4995,0
127625885,-0.061000455,-0.27387413,-0.09137254,4996,0,0.5004436,0.8612783,-8.4466505,4996,0
127645870,-0.20283419,0.11165569,0.031469505,4997,0,0.1832856,-0.79861635,-10.171696,4997,0
127665857,-0.14626323,0.23502234,-0.1392059,4998,0,-0.49374697,-0.28580496,-10.223055,4998,0
127690837,0.10765219,-0.1950298,-0.018634222,4996,0,0.273135,0.6251624,-10.787351,4996,0
127705826,0.074810214,-0.22489208,0.011143998,4996,0,0.45358592,0.40205374,-9.33809,4996,0
127725813,0.146001,-0.12618902,-0.097453006,4997,0,-0.41384068,0.05045623,-9.867755,4997,0
127750797,-0.010143852,-0.012303545,0.012027254,4998,0,-0.050684243,-0.26357898,-12.167662,4998,0
127765784,0.12655184,0.03961493,-0.04201412,4996,0,-0.7135134,0.7714682,-10.00536,4996,0
127785770,0.18365298,-0.04703435,-0.10124741,4997,0,-0.108522035,-0.7303387,-10.824536,4997,0
127805756,0.0595256,0.030160876,-0.044824857,4998,0,-0.46177056,-1.2603542,-9.166061,4998,0
127825741,0.1179712,-0.04302072,-0.027997125,4998,0,0.5388863,-0.12859279,-12.11121,4998,0
127845725,0.021942716,-0.07174307,-0.08011045,4997,0,-0.14053768,0.699374,-9.031738,4997,0
127865711,0.3529314,-0.19132793,-0.058783457,4996,0,-0.3873341,0.48316175,-12.377502,4996,0
127890693,0.22873673,-0.1948634,-0.055901837,4997,0,-0.25310695,-0.5936219,-9.920959,4997,0
127905683,0.20381506,-0.17336163,-0.08428646,4996,0,-0.57955277,0.08192282,-10.06427,4996,0
127925668,-0.06291148,-0.11832417,-0.0027263232,4997,0,-0.4195962,-0.66479385,-11.996549,4997,0
127945653,-0.17255923,-0.118241295,-0.051008012,4995,0,-0.3280272,-0.10760237,-10.711049,4995,0
127965639,-0.06657208,0.06377848,-0.0069369758,4998,0,-0.050597884,0.46678364,-9.650287,4998,0
127985623,0.3999398,0.05053287,-0.006954946,4996,0,0.58190596,0.21391264,-10.6789,4996,0
128005609,0.26917845,-0.036613345,-0.031072898,4996,0,-0.78368676,-0.24686815,-10.479053,4996,0
128030593,0.55547386,-0.3052919,-0.026985148,4997,0,-0.592022,-0.7595927,-11.236321,4997,0
128045580,0.4211986,-0.26243302,0.0052409647,4996,0,-0.8613291,-0.6365438,-8.850406,4996,0
128065565,0.17436914,-0.16390124,0.016607031,4996,0,-0.2792949,0.21542089,-9.176186,4996,0
128085551,0.030144302,-0.09186263,-0.015795026,4995,0,-0.37859625,-0.06980742,-9.714007,4995,0
128105536,0.16480549,-0.09377871,0.10579658,4996,0,-0.6948678,-0.2958459,-9.959627,4996,0
128125522,0.5448259,-0.0014669539,0.014113818,4994,0,-0.36199173,-0.23217203,-9.850134,4994,0
128145508,0.5768306,0.06614992,0.012167743,4996,0,-0.18280257,0.41235816,-8.53352,4996,0
128170489,0.24617863,-0.11292976,0.03255327,4996,0,-0.07147835,-1.0746144,-10.681471,4996,0
128185480,-0.03885415,-0.1531277,0.055330824,4997,0,-0.20915718,-0.2659515,-9.542583,4997,0
128205464,-0.21895638,-0.3132493,0.001710481,4996,0,-0.5949344,-0.6248689,-9.2134695,4996,0
128225449,0.16506054,-0.1837612,0.05094179,4994,0,-0.20160013,0.39399666,-9.268157,4994,0
128245435,0.4114377,0.07462431,-0.00039824928,4996,0,-0.2960524,-0.20783171,-10.6325865,4996,0
128265420,0.2143282,0.30792817,0.0126781305,4996,0,-0.3321541,-0.8940406,-11.115504,4996,0
128285407,-0.0903794,0.25300142,0.08749492,4997,0,0.3053569,-0.50069076,-12.4033,4997,0
128310387,-0.2567675,-0.061595146,0.097390875,4994,0,0.44198954,0.66317624,-11.565106,4994,0
128325378,-0.063924186,-0.113879494,0.05598958,4994,0,-0.18090916,0.7644369,-8.527992,4994,0
128345364,0.06762744,0.06762485,0.09632361,4999,0,-0.6730338,-0.68376184,-10.487146,4999,0
128365350,0.31092548,0.2905656,0.042129517,4999,0,-0.30584583,0.27001703,-11.972016,4999,0
128385334,0.13939285,0.32010937,0.07553017,4998,0,0.14092131,-0.18650404,-10.400157,4998,0
128405319,-0.32518303,0.18724611,0.10406647,4997,0,-0.07301315,-0.52414364,-9.823781,4997,0
128425305,-0.62768656,0.103397205,0.025673376,4997,0,-0.20635316,-0.688444,-11.316957,4997,0
128450286,-0.15606633,0.1892351,0.0944927,4995,0,0.06898093,0.54825264,-9.752678,4995,0
128465277,0.0018842191,0.2148926,-0.004559043,4998,0,-0.4762739,-0.71342564,-9.254464,4998,0
128485262,0.12392377,0.29347685,0.017495891,4998,0,-0.12621374,-0.85727626,-12.167344,4998,0
128510242,-0.17756851,0.197679,0.059390023,4994,0,0.47863054,-0.68664724,-11.942619,4994,0
128525232,-0.4389965,0.08126211,-0.0073944065,4996,0,0.40329254,0.34557068,-7.138528,4996,0
128545219,-0.54043716,0.050794676,0.028039072,4997,0,-0.9246258,0.32089216,-7.828421,4997,0
128565203,-0.44234753,0.11239383,0.01747963,4997,0,-1.164487,-0.8951998,-11.018563,4997,0
128590184,-0.2322573,0.033614893,0.052048136,4995,0,0.3217896,-0.32530195,-10.459002,4995,0
128605174,-0.41359365,0.15397847,0.039215017,4997,0,-1.2074981,0.039946612,-8.500624,4997,0
128625160,-0.4639924,0.07125581,0.05105859,4997,0,-0.8318191,-1.0028512,-10.276437,4997,0
128650140,-0.28652462,-0.16147706,-0.005064125,4995,0,-0.664457,-0.81758404,-11.40086,4995,0
128665132,-0.06811447,0.1222795,0.012075585,4998,0,-1.317114,1.0488588,-10.072025,4998,0
128685116,0.095649876,0.013024858,-0.011711607,4997,0,0.2903897,-0.4148145,-9.770222,4997,0
128705101,-0.25720632,-0.18342297,-0.07218325,4996,0,-0.13605937,-1.1453853,-12.897229,4996,0
128730083,-0.52190095,-0.20571361,0.011027613,4996,0,-0.19464184,-0.88560474,-12.429795,4996,0
128745078,-0.30538946,-0.09548528,-0.04602735,5002,0,-0.46088308,-0.030415662,-10.250123,5002,0
128765058,0.1961471,-0.054584917,-0.095310986,4997,0,0.10785304,0.12935534,-8.915814,4997,0
128790041,0.059511248,-0.08725349,-0.027231805,4997,0,-0.50121164,-0.42419636,-8.863556,4997,0
128805031,0.047167774,-0.13069814,-0.05806201,4999,0,-0.5079572,-0.5053579,-10.79701,4999,0
128825014,-0.096679956,-0.16915111,-0.06949306,4996,0,-1.0825536,-0.06052667,-9.512613,4996,0
128845001,0.047649562,-0.2856573,-0.047427323,4998,0,-0.071007505,0.40119272,-9.460478,4998,0
128869981,0.31108472,-0.19219726,-0.10283656,4996,0,-0.7440296,-0.3295331,-10.190073,4996,0
128884978,0.42098996,-0.06418499,-0.131904,5004,0,-1.1294445,-1.2281853,-9.933947,5004,0
128904960,0.36557522,-0.050826807,-0.116923824,5000,0,-0.23103252,-0.4190421,-10.0464735,5000,0
128929939,-0.0068539022,-0.18036029,-0.11091663,4996,0,-0.6883054,-0.8999184,-8.821126,4996,0
128944930,0.10112838,-0.20379579,-0.15695825,4999,0,-0.79117364,-0.15239139,-9.4845705,4999,0
128964914,0.23253568,-0.056279838,-0.07074347,4998,0,-0.6829899,-0.75749207,-9.548441,4998,0
128984900,0.33831516,-0.025617616,-0.13196677,4998,0,-0.18367663,-0.2316995,-10.299001,4998,0
129009880,0.26252958,-0.16069092,-0.1183488,4996,0,-0.1907642,-1.365154,-8.622358,4996,0
129024871,0.440447,-0.25366947,-0.078042895,4998,0,-0.030933578,-0.493235,-10.714244,4998,0
129044855,0.40535516,-0.2206092,-0.07101742,4997,0,-0.6750897,-1.0854093,-8.622849,4997,0
129069836,0.7068304,-0.19674191,-0.07128359,4995,0,-0.73092717,-0.47561687,-10.042504,4995,0
129084825,0.5407963,-0.076578334,-0.06861123,4995,0,-0.6371113,-0.8590227,-9.831565,4995,0
129104813,0.43353662,0.009331258,-0.034803227,4998,0,-0.32639486,-0.9847043,-10.772664,4998,0
129129793,0.33797687,-0.04813654,-0.06243444,4996,0,-0.4591724,-0.52353895,-8.492044,4996,0
129149779,0.5224074,-0.15048616,0.009283214,4997,0,-0.27395076,-0.29668245,-9.2933855,4997,0
129164770,0.6840497,-0.18283135,-0.04630492,4999,0,-0.29493403,-0.47802782,-10.221554,4999,0
129184754,0.5068296,-0.011621435,-0.040565293,4997,0,-0.7901292,-0.88747567,-8.702786,4997,0
129209736,0.5239388,0.08874125,-0.027543679,4995,0,-0.4007743,-0.3713077,-9.766234,4995,0
129224726,0.49186316,0.011893592,-0.07722799,4998,0,0.024954837,-0.82458633,-10.759231,4998,0
129244716,0.34608358,-0.05336406,-0.06291184,5002,0,-0.6946719,0.009851586,-9.294341,5002,0
129269692,0.19321424,-0.17837083,-0.076738164,4996,0,-0.021530861,-0.915572,-9.783783,4996,0
129289679,0.104226716,-0.19587334,-0.09487722,4994,0,-0.1259461,-0.24969642,-9.173427,4994,0
129304666,0.091089584,-0.1423833,-0.08606103,4996,0,-0.18367958,0.021173792,-9.003687,4996,0
129324652,0.06632395,-0.022770558,-0.09088569,4994,0,0.21945103,-0.3256824,-8.217059,4994,0
129349634,0.1379876,0.04782549,-0.08614639,4997,0,-0.26807857,-0.3593585,-9.230902,4997,0
129364625,0.14496765,0.12647626,-0.08057548,4999,0,-0.43147054,-0.6214917,-10.17953,4999,0
129384608,-0.14077553,0.23115501,-0.06349405,4996,0,-0.32026583,-0.89433557,-9.203009,4996,0
129409590,-0.3664051,0.24923125,-0.10245501,4996,0,0.02566078,-0.18720698,-8.773103,4996,0
129429575,-0.25161472,0.35884356,-0.0572851,4996,0,-0.13236843,-0.17497915,-9.629893,4996,0
129444565,-0.26272893,0.42065707,-0.13336203,4996,0,-0.42703325,-0.9204154,-8.529974,4996,0
129464550,0.079881854,0.28468344,-0.15148288,4993,0,-0.7069006,-0.14527518,-10.378026,4993,0
129489532,-0.23772968,0.21882874,-0.123229966,4996,0,0.8388252,0.08632192,-9.936015,4996,0
129504521,-0.28567958,0.177996,-0.09444409,4997,0,-0.052382845,-0.32429674,-9.599391,4997,0
129524506,-0.5831813,0.30413827,-0.10882407,4996,0,-0.66298866,-1.0912808,-10.454049,4996,0
129549488,-0.39479223,0.21686527,-0.021337543,4996,0,0.010088468,-0.030026985,-7.730149,4996,0
129569474,-0.17286584,0.31578475,-0.08797919,4997,0,-0.7940305,-0.119415075,-11.773948,4997,0
129584462,-0.44330302,0.23987918,-0.023650773,4996,0,0.20631908,-1.5592093,-10.993305,4996,0
129604448,-0.60413015,0.107266806,0.051342405,4996,0,0.09246188,0.5462493,-8.867664,4996,0
129629430,-0.7523443,0.19042107,-0.020223694,4995,0,-0.7865774,-1.0626078,-10.809636,4995,0
129644419,-0.79256594,0.12116649,0.05799771,4996,0,-0.24615759,-0.87893933,-11.063288,4996,0
129664404,-0.50661737,0.15101667,0.06326225,4996,0,-0.55011207,0.23608503,-10.272679,4996,0
129689387,-0.29490885,0.2737364,-0.01625386,4995,0,-0.43180323,0.02846453,-9.924639,4995,0
129709372,-0.5031019,0.22876571,-0.008219837,4996,0,-0.29728216,-0.08639532,-8.876378,4996,0
129724362,-0.6649068,0.13946597,0.014181699,4997,0,-0.3162559,0.13353457,-8.865495,4997,0
129744347,-0.684848,0.122267246,-0.011859803,4997,0,-0.569115,-0.5402955,-9.953954,4997,0
129769329,-0.4569858,0.24713847,-0.034074448,4993,0,-0.58759236,0.18150899,-8.783877,4993,0
129784317,-0.41671848,0.15746638,-0.032732766,4996,0,-0.0663245,-0.17628296,-8.625108,4996,0
129809300,-0.62486356,-0.13056834,0.015321948,4997,0,-0.24420959,-0.65497255,-9.6937685,4997,0
129829285,-0.90670097,-0.15772372,-0.040978625,4996,0,-0.90108144,-0.4491011,-8.496203,4996,0
129844274,-0.9886559,-0.26852354,0.0011629598,4996,0,-0.6380515,-0.9839986,-8.798803,4996,0
129864259,-0.5286268,-0.26979792,-0.025996309,4996,0,-0.6164644,0.08208254,-10.460858,4996,0
129889243,-0.18656276,-0.09965836,-0.01648328,4998,0,-0.79340726,-0.53084534,-9.950375,4998,0
129909231,0.039384197,-0.024970718,-0.089874715,5001,0,-0.7504549,-0.8351997,-9.830266,5001,0
129924216,-0.25306755,0.015184912,0.014852001,4997,0,-0.7770891,-1.1941032,-8.69395,4997,0
129949199,-0.41848907,-0.22540751,0.004244822,4997,0,-0.469708,-1.2632899,-11.1340275,4997,0
129969184,-0.36441618,-0.46243086,-0.008931129,4997,0,-0.32170686,-0.34965622,-11.486803,4997,0
129989170,-0.060461767,-0.3966714,0.014773259,4997,0,-1.3800066,-1.7660741,-9.518623,4997,0
130004158,0.7261395,-0.3286141,-0.017489523,4997,0,-0.6840989,-0.31878838,-10.964641,4997,0
130029140,0.7218469,-0.26713204,-0.085697785,4996,0,-0.15596524,-0.85408664,-10.359839,4996,0
130049125,0.3054254,-0.31380975,-0.068387836,4995,0,-0.5008038,-1.7896057,-8.856469,4995,0
130064115,0.40825477,-0.4135498,-0.10019921,4997,0,-0.1625302,-0.39181748,-11.109906,4997,0
130089096,0.7611138,-0.42739066,-0.09202697,4995,0,0.21112886,0.29826355,-10.842976,4995,0
130109082,0.99743676,-0.4090886,-0.08649487,4997,0,-0.3338758,-0.04489683,-8.636978,4997,0
130124073,1.2067465,-0.39898744,-0.111245275,4998,0,-0.73528993,-1.1545886,-9.404566,4998,0
130144056,0.92233694,-0.40262365,-0.093576215,4996,0,0.27095547,0.16603877,-10.514475,4996,0
130169039,0.5007323,-0.2068103,-0.062237926,4997,0,-0.6835647,-0.8028065,-7.642822,4997,0
130189024,0.83789223,-0.16587277,-0.06745369,4995,0,-0.3882257,-1.2208844,-8.8002405,4995,0
130204013,1.3138009,-0.23203751,-0.0653826,4996,0,-0.16839619,-0.121860415,-11.698916,4996,0
130228996,1.4125865,-0.213175,-0.08566188,4998,0,-0.24623866,-0.16761985,-11.349367,4998,0
130248982,0.90402573,-0.20099916,-0.021954965,4997,0,0.4110089,-0.10509882,-7.8293324,4997,0
130263971,0.7152111,0.016473671,-0.050446335,4998,0,-1.2658819,-0.87651753,-10.143477,4998,0
130283959,0.41223013,0.13075481,0.017279668,5001,0,0.22420307,-0.21743912,-8.745502,5001,0
130308937,0.66278356,-0.01605449,-0.024939544,4995,0,0.23712964,-0.11429934,-8.579539,4995,0
130328924,0.7827808,-0.22364797,-0.033359867,4998,0,0.1762853,-0.4752632,-7.4444585,4998,0
130348908,0.76801723,-0.19574642,-0.048428245,4996,0,-0.61477035,-1.0588263,-9.276735,4996,0
130368893,0.3097107,-0.08961865,-0.020135092,4996,0,0.64956987,0.18924388,-9.623037,4996,0
130388879,0.13136823,0.22203355,-0.11302634,4996,0,-1.4329888,-0.4668598,-9.663115,4996,0
130403869,-0.15871382,0.47961202,-0.031680215,4997,0,-0.1352105,-0.85870403,-9.993755,4997,0
130423853,0.1537697,0.5044475,-0.10622354,4995,0,0.040879015,0.43208364,-9.831459,4995,0
130448836,0.27609295,0.3801593,-0.06104464,4997,0,-0.538528,-0.3378249,-11.055203,4997,0
130468821,0.012668741,0.2509809,-0.07078325,4997,0,0.2886182,-0.107958905,-12.322634,4997,0
130483810,-0.441309,0.23184788,-0.02259776,4995,0,0.68053275,-0.43868312,-8.523822,4995,0
130508792,-0.4438307,0.513897,-0.1340878,4997,0,-1.1142161,-1.3293568,-9.443448,4997,0
130528778,-0.033059772,0.45740688,-0.050593052,4997,0,-0.28101644,-0.5170791,-12.090943,4997,0
130548763,0.09889501,0.23590615,-0.07545567,4995,0,0.9426887,1.2027264,-11.236172,4995,0
130568748,-0.34756482,0.29235494,-0.041216955,4995,0,-0.89476717,-0.77632505,-8.780647,4995,0
130588734,-0.42724684,0.25902894,-0.046282794,4997,0,1.0411907,0.2624872,-10.849575,4997,0
130608721,-0.6974157,0.53008986,-0.039954156,4998,0,-0.8393169,-1.0267086,-9.236988,4998,0
130628705,-0.5386461,0.55330354,-0.029648688,4997,0,0.46027306,-0.3833552,-10.505447,4997,0
130648691,-0.6005088,0.4935281,-0.06875201,4997,0,-0.23740584,0.75717837,-9.456205,4997,0
130668676,-0.77823234,0.54880226,-0.0061126025,4996,0,-0.78368604,-1.4140538,-9.826966,4996,0
130688663,-0.5889567,0.34678525,-0.057455245,4998,0,0.77605927,0.28139487,-10.491825,4998,0
130703651,-0.76126945,0.3489791,-0.0059022177,4993,0,0.0973781,-0.55205745,-7.698162,4993,0
130728633,-0.68550014,0.29364714,-0.034008916,4997,0,-0.3129854,-0.68041915,-11.241778,4997,0
130748618,-0.7988753,0.1735125,0.033361427,4997,0,1.0360637,0.13847284,-9.985894,4997,0
130768603,-0.67348516,0.16576475,-0.056074575,4996,0,0.0046117986,-0.3503598,-8.671287,4996,0
130788589,-0.7326387,0.30221865,0.013498883,4997,0,-0.7391624,-0.72068965,-10.444743,4997,0
130808576,-0.6282651,0.1681748,-0.0036050132,4998,0,0.8831741,0.22497438,-9.7258415,4998,0
130828560,-0.72251964,0.24047336,-0.013778858,4996,0,-0.337115,-0.18504326,-8.965403,4996,0
130843549,-0.619267,0.2033836,-0.0024924988,4997,0,-0.40376124,-0.4009418,-12.214174,4997,0
130868531,-0.8184774,0.0026457408,0.022346953,4997,0,0.6750583,0.5388694,-8.702882,4997,0
130888520,-0.6421935,0.106027395,0.021735668,5000,0,-0.79604864,-0.7358299,-10.643252,5000,0
130908508,-0.67010796,0.1116559,0.006406119,5001,0,0.006738123,-0.80349433,-10.236929,5001,0
130928487,-0.3943967,-0.051977735,0.020127373,4996,0,0.5972728,0.29501125,-10.476922,4996,0
130948473,-0.52405924,0.0375529,0.064030655,4997,0,-0.09533239,-0.15658544,-8.841146,4997,0
130968458,-0.47888672,0.06440466,0.02481867,4996,0,-0.62610984,-0.64734364,-10.630323,4996,0
130983449,-0.51834434,0.07344827,0.045781255,4998,0,-0.44128683,-0.75686574,-9.45574,4998,0
131008430,-0.040619902,-0.04691004,0.0655602,4997,0,-0.06299677,0.047660995,-10.332649,4997,0
131028418,0.04984369,-0.03451411,0.05065088,5000,0,-0.29753536,0.23532252,-8.31764,5000,0
131048405,0.08421064,-0.17013723,0.0220274,5001,0,0.04557561,-0.24986595,-10.235089,5001,0
131068391,-0.11963885,-0.25922516,0.04458479,5002,0,0.34642723,-0.088121094,-9.877998,5002,0
131088378,-0.06313756,-0.2810747,0.024531376,5003,0,-0.04681859,0.15944174,-8.6002,5003,0
131108363,0.0659503,-0.30623558,0.0034151596,5003,0,-0.09794435,0.13751109,-8.962722,5003,0
131128346,0.15252148,-0.4192376,0.0074681737,5000,0,0.30185157,0.3490337,-9.625238,5000,0
131148327,0.08059405,-0.38544378,0.035028543,4996,0,-0.3398374,-0.20414779,-9.351318,4996,0
131168313,0.0027636103,-0.3161683,0.01888397,4996,0,-0.36426276,-0.19439268,-9.080514,4996,0
131183302,0.025102625,-0.3091915,-0.0021777903,4995,0,-0.27632824,-0.36333516,-9.118863,4995,0
131208286,0.41075537,-0.35970473,-0.0051701334,4998,0,-0.057444725,0.048813295,-10.541139,4998,0
131228273,0.45255542,-0.33431032,-0.043447923,4998,0,-0.3643874,-0.41342187,-9.1230955,4998,0
131248257,0.45559642,-0.3394666,-0.07611307,4995,0,-0.4221639,-0.38515732,-9.941676,4995,0
131268241,0.21787329,-0.31857815,-0.08019029,4997,0,0.04161822,-1.2121714,-11.116318,4997,0
131288226,0.23823248,-0.3670033,-0.044678036,4995,0,0.5913916,0.57441527,-9.358369,4995,0
131308214,0.4594378,-0.3009192,-0.13070299,4999,0,-0.20364603,-0.8513665,-8.463064,4999,0
131323202,0.7724535,-0.29540765,-0.09166775,4997,0,-0.58026856,0.03839364,-11.724795,4997,0
131348182,0.6829675,-0.37929177,-0.08969739,4995,0,0.9249807,0.7147242,-10.404575,4995,0
131368173,0.29527634,-0.06760906,-0.032308806,5001,0,-0.8074669,-1.6028646,-11.270213,5001,0
131388154,0.45395896,-0.338612,-0.06429505,4993,0,0.5816904,0.8170259,-10.255903,4993,0
131408141,0.67960477,-0.43827298,-0.04028108,4998,0,-0.023679748,0.18698487,-11.639081,4998,0
131428125,0.7320807,-0.43288928,-0.062267,4997,0,0.14305821,0.11797987,-10.821141,4997,0
131448111,0.8395492,-0.45189124,-0.0066205086,4997,0,0.20313694,0.41839305,-8.454847,4997,0
131468095,0.47261646,-0.1437611,-0.036366787,4995,0,-0.25884148,-0.46418166,-11.539855,4995,0
131488081,0.3649456,-0.23339282,0.013995845,4996,0,0.1487014,0.43187445,-8.233421,4996,0
131508067,0.307768,-0.16066056,-0.029871903,4995,0,-0.48081434,-1.3865446,-9.609058,4995,0
131523057,0.61236924,-0.29312855,0.036769453,4998,0,0.48565096,-0.5329125,-10.729887,4998,0
131548038,0.79512334,-0.117842115,-0.050016955,4996,0,-0.14611179,-0.07299634,-7.4777665,4996,0
131568023,0.39061368,0.15325807,-0.0006820629,4997,0,-0.75824416,-1.6364981,-10.662418,4997,0
131588008,0.036658466,-0.049315803,0.013387247,4994,0,-0.057859115,0.31586483,-7.3521943,4994,0
131607996,0.09465017,0.048503943,-0.013248004,4999,0,-0.6464684,-0.11743701,-9.626228,4999,0
131627980,0.16407497,0.2141961,-0.025191115,4995,0,-0.2883227,-1.100146,-9.534695,4995,0
131647967,0.1479152,0.33278674,0.011891302,4997,0,-0.023450492,0.19135793,-9.635941,4997,0
131667951,-0.0033490278,0.43281433,0.030210417,4997,0,-0.23499033,0.38225067,-9.134183,4997,0
131687941,-0.26133436,0.4792052,-0.0071522677,5000,0,-0.68154836,-0.6264119,-9.217941,5000,0
131707924,-0.1554172,0.28223276,0.058731496,4999,0,-0.12689699,0.46261382,-10.217989,4999,0
131727907,-0.04627596,0.19875199,0.03967982,4997,0,-0.22809952,-1.0174658,-8.787512,4997,0
131747893,0.10256281,0.17609917,0.06912081,4997,0,-0.6657639,-0.0008390346,-10.194165,4997,0
131767880,-0.09059184,0.28422084,-0.007790827,4998,0,-0.13872983,-0.45963225,-10.808737,4998,0
131787863,-0.28708017,0.39157927,0.061018243,4995,0,0.42064068,-0.24463862,-9.406036,4995,0
131807852,-0.43668345,0.37766182,0.045149446,4997,0,-0.5351178,-0.29470506,-8.286011,4997,0
131827837,-0.39723745,0.13705721,0.03196383,4997,0,0.15496416,-0.1062202,-10.781512,4997,0
131847823,-0.372464,0.18270467,0.047290865,4998,0,-0.45313558,-0.5134305,-9.908737,4998,0
131867806,-0.25192708,0.34157372,0.036882453,4996,0,-0.45403302,-0.5974233,-10.202282,4996,0
131887792,-0.21881321,0.41251928,-0.030370314,4992,0,-0.413068,-0.014156475,-10.302087,4992,0
131907778,-0.37834895,0.30890304,0.0532193,4995,0,0.3626471,0.19527295,-10.654967,4995,0
131927764,-0.7055639,0.21507221,0.01878831,4997,0,-0.2724592,-0.26144874,-8.516526,4997,0
131947749,-0.47063395,0.08313447,0.031113505,4997,0,-0.2194936,0.5270419,-10.547954,4997,0
131967735,-0.37057143,0.09730712,-0.026185904,4996,0,-0.3284391,-0.8617103,-9.312204,4996,0
131987720,-0.2425678,0.13417675,-0.009198981,4998,0,-0.25275686,-0.70669895,-11.270162,4998,0
132007707,-0.542178,0.20912565,0.019264705,4994,0,0.12996261,-0.49457735,-10.071474,4994,0
132027690,-0.7166551,0.22158377,-0.06201446,4996,0,-0.2449793,0.13007218,-8.405364,4996,0
132047676,-0.51419675,0.100086465,0.026241962,4994,0,0.023118788,0.23534712,-10.194633,4994,0
132067661,-0.48022598,0.1377333,-0.043989323,4996,0,0.093979746,0.4106082,-10.113069,4996,0
132087646,-0.41815186,0.27462122,0.03595836,4997,0,-0.49303615,-1.3747919,-9.025721,4997,0
132107631,-0.12798469,0.14207752,-0.027004275,4997,0,-0.16685444,-0.19466087,-11.015901,4997,0
132127617,-0.15616705,-0.048086643,0.015559884,4995,0,-0.46551183,0.06898196,-9.5111885,4995,0
132147604,0.010681205,-0.27847013,-0.007109023,4998,0,0.30767095,-0.45583996,-11.155251,4998,0
132167588,-0.08241383,-0.19677426,0.016685778,4996,0,-0.3860048,0.34768215,-8.482129,4996,0
132187574,-0.12153352,-0.011930267,-0.099061176,4997,0,-0.50594896,-0.19453934,-9.53706,4997,0
132207559,-0.07541128,-0.10735843,-0.0039040034,4997,0,0.12263456,-0.5351495,-11.724584,4997,0
132227544,-0.09052433,-0.209536,-0.075179204,4996,0,-0.14473894,-0.68043876,-9.426533,4996,0
132247530,0.13606668,-0.3683839,-0.057307545,4995,0,0.4441981,0.49599835,-10.567462,4995,0
132267517,0.13869418,-0.43639168,-0.06487932,4996,0,0.2100988,0.6682696,-8.474962,4996,0
132287504,-0.040234067,-0.2973998,-0.06685201,4998,0,-0.8543616,-0.86322695,-10.1970825,4998,0
132307487,-0.116498366,-0.3346525,-0.09615782,4997,0,0.6749862,0.25069976,-9.0494795,4997,0
132327473,0.034717806,-0.09689685,-0.08512837,4997,0,-0.9157329,0.110736005,-10.109758,4997,0
132347457,0.21241952,-0.095478326,-0.11891094,4995,0,0.06190459,-0.52473164,-10.932435,4995,0
132367447,0.21218899,-0.18108171,-0.12015232,4999,0,0.38279092,0.38410953,-8.258474,4999,0
132387428,0.027638042,-0.060086735,-0.06146561,4996,0,-0.8127277,-0.7685845,-11.751206,4996,0
132407419,-0.22164878,-0.14290988,-0.123075165,5002,0,0.022931516,0.004008582,-7.766271,5002,0
132427401,-0.040928036,0.0025737733,-0.022775989,4995,0,-0.65905523,0.45926797,-10.478,4995,0
132447386,-0.1192635,0.109057434,-0.027650336,4998,0,-0.45040193,-0.29732132,-8.766729,4998,0
132467371,0.21288101,-0.121157095,-0.048463415,4997,0,-0.79854137,-0.28565124,-9.4752035,4997,0
132487357,0.32574797,-0.25722817,0.0029398953,4997,0,-0.35603935,0.2604274,-10.332647,4997,0
132507341,0.13156712,-0.25392303,-6.2650843e-06,4995,0,-0.0257282,-0.023449294,-8.304998,4995,0
132527327,0.041300002,-0.17210619,-0.048517514,4996,0,-0.2682468,0.3720632,-8.263123,4996,0
132547314,0.18651941,-0.021957971,-0.03518574,4996,0,-0.88867867,0.009624919,-10.290098,4996,0
132567298,0.24824834,-0.08871519,-0.05088617,4997,0,-0.14716819,0.3437941,-9.749844,4997,0
132587284,0.47064155,-0.15474911,-0.07390785,4996,0,0.52899206,0.5852228,-8.6074295,4996,0
132607269,0.1978192,0.12996326,-0.034119297,4996,0,-1.3077698,-0.8274825,-10.524748,4996,0
132627255,0.19325323,-0.021328952,-0.13280761,4995,0,-0.055171207,0.47935027,-7.9029894,4995,0
132647240,0.3438953,-0.0023644157,-0.050915733,4994,0,-0.2616923,0.6074508,-13.153661,4994,0
132667226,0.30268756,-0.2773739,-0.11789903,4997,0,-0.23208728,0.13835482,-8.180637,4997,0
132687211,0.15627529,-0.27934957,-0.06658278,4995,0,0.9086834,0.1841112,-11.010264,4995,0
132707197,0.011636966,0.030228516,-0.111596756,4997,0,0.9333471,1.2410306,-14.409375,4997,0
132727183,-0.2802616,0.26523376,-0.10179107,4998,0,-0.9882036,-0.052266862,-12.262907,4998,0
132747167,-0.23278274,0.08908516,-0.06032293,4996,0,-1.1599361,-1.2068284,-7.972551,4996,0
132767154,-0.089623205,0.0894557,-0.049528506,4998,0,0.7805476,0.2498857,-10.786791,4998,0
132787139,-0.18801072,0.15974702,-0.047028452,4998,0,-1.2072871,-0.3873461,-9.10003,4998,0
132807124,-0.162321,0.03309464,0.030802645,4996,0,0.6158361,-0.3869272,-10.054175,4996,0
132827110,-0.12579168,-0.0860375,-0.006978164,4997,0,-0.5822382,0.06935441,-8.340461,4997,0
132847096,0.037298333,-0.016673017,0.021047257,4995,0,-0.9908851,-0.6283021,-8.932736,4995,0
132867080,0.23637266,-0.036429375,0.025147978,4996,0,0.01609112,0.3816253,-10.461764,4996,0
132887066,0.0636429,-0.019718865,0.020948924,4996,0,-0.19314867,0.24030392,-7.3580775,4996,0
132907052,0.07104072,0.013412584,0.00812908,4997,0,-0.07091749,0.023363316,-8.787154,4997,0
132927038,-0.16567278,0.13651519,0.05893251,4997,0,-0.64065737,-0.35971355,-8.6440935,4997,0
132947022,-0.29749757,0.100613505,-0.014298935,4994,0,-0.2818899,0.039927624,-8.811534,4994,0
132967009,0.030953731,-0.08108466,0.079361364,4998,0,-0.082615025,1.1458924,-8.549446,4998,0
132986993,0.024180738,-0.1008883,-0.0026849865,4996,0,-0.12166881,-0.47794515,-7.578801,4996,0
133006981,0.13114974,-0.09860752,0.034407914,4999,0,-0.027410662,0.15197662,-10.066798,4999,0
133026964,-0.11606567,-0.06554433,0.06704789,4994,0,0.20523238,0.353208,-7.614307,4994,0
133046950,-0.10112747,0.054706756,0.018633768,4997,0,-0.4413403,0.15040919,-8.980247,4997,0
133066935,-0.0020952274,0.15516958,0.001704396,4996,0,-0.3100436,-0.29258206,-10.027444,4996,0
133086921,0.3185037,0.062073402,0.053240884,4996,0,0.5591299,1.7011545,-9.696926,4996,0
133106906,0.11773115,0.30924228,-0.05545913,4996,0,-0.95486337,-1.227032,-10.505966,4996,0
133126892,0.0058831014,0.022957012,0.052436963,4995,0,0.67700636,0.50665164,-9.4438925,4995,0
133146877,-0.38452744,0.07918801,0.0025470618,4995,0,0.6587601,0.49553826,-10.610666,4995,0
133166864,-0.28875074,0.026753603,-0.04237226,4998,0,-0.922328,-1.1194149,-8.781015,4998,0
133186850,0.111405104,-0.050377134,-0.03461487,4997,0,0.84694123,0.14950936,-11.105661,4997,0
133206834,0.08449869,0.30942306,-0.08267056,4997,0,-0.76333857,-0.72758526,-14.356434,4997,0
133226820,-0.20823088,0.32750404,-0.09394233,4997,0,-1.5020809,-0.9562617,-10.847722,4997,0
133246807,-0.4053312,0.26347244,-0.041844472,4999,0,-0.13934337,0.12935309,-8.001954,4999,0
133266791,-0.29278153,0.23898992,-0.048069797,4997,0,1.2954082,1.2498069,-11.249293,4997,0
133286776,-0.06894951,0.29577205,-0.06545237,4995,0,-0.48676366,0.07060204,-12.616128,4995,0
133306763,0.16126558,0.0077391397,-0.030601973,4998,0,1.1379423,1.1003134,-11.256643,4998,0
133326747,0.06973418,0.1495505,0.006256319,4996,0,-0.33042425,-0.42684907,-13.0789,4996,0
133346732,-0.105380684,0.04503454,-0.02726261,4995,0,0.9639634,0.61005807,-9.808211,4995,0
133366718,-0.2549693,0.29211864,0.028935187,4997,0,-0.3859171,-1.6123883,-10.632191,4997,0
133386704,0.116295494,0.0251894,-0.023113366,4996,0,0.7053402,-0.34864148,-8.661678,4996,0
133406690,0.5703872,-0.017861975,-0.057887893,4997,0,-0.45388347,0.7112811,-9.2603655,4997,0
133426675,0.28276283,0.1408898,0.006926344,4996,0,0.035623055,-1.1076669,-10.4209175,4996,0
133446662,0.13636091,0.20898414,0.00040078166,4999,0,-0.8400824,-0.87748146,-8.797159,4999,0
133466646,-0.03931514,0.30983418,-0.0019498368,4997,0,0.75564224,-0.3143352,-9.787615,4997,0
133486632,0.03252161,0.273746,0.034890305,4998,0,-0.11664737,0.2744075,-7.638514,4998,0
133506617,0.27604875,0.2280396,0.043005396,4997,0,-0.3936256,-1.2257899,-9.002812,4997,0
133526602,0.30833882,0.26612648,-0.010812689,4995,0,-0.4064221,-0.6609917,-10.628229,4995,0
133546588,0.18924753,0.22485182,0.08996574,4996,0,0.2817081,0.24381965,-9.555813,4996,0
133566573,-0.047474172,0.24194515,0.04099401,4997,0,-0.09489357,0.046041127,-7.774839,4997,0
133586560,0.21101592,0.1124463,0.035611868,4997,0,-0.020734843,0.12175579,-10.113927,4997,0
133606548,0.30789042,0.03740208,0.06959403,4999,0,-0.58190244,-0.34048933,-9.1015415,4999,0
133626530,0.40934432,0.13014738,0.05034048,4996,0,-0.845342,-1.3143102,-9.430477,4996,0
133646516,0.08853264,0.21610212,0.029117987,4998,0,0.17944968,-0.66601783,-11.339507,4998,0
133666505,-0.075976126,0.09945819,0.118789464,5001,0,-0.23225754,-0.8811794,-9.256611,5001,0
133686487,0.1587135,-0.09899909,0.055023942,4994,0,-0.3202621,0.5944637,-10.539977,4994,0
133706472,0.287139,-0.20101157,0.09607629,4997,0,-0.1302527,0.7745882,-9.841279,4997,0
133726457,0.28717768,-0.16788809,0.07920934,4995,0,-0.6277445,-1.4823073,-9.10278,4995,0
133746443,0.39050418,-0.1269433,0.050084405,4996,0,-0.80137503,-0.6865574,-12.114973,4996,0
133766428,0.058663856,-0.07490459,0.03843057,4996,0,-0.49555156,-1.0524569,-9.24273,4996,0
133786413,0.0324687,-0.27884853,0.06120538,4996,0,0.21028326,-0.052068338,-10.4785185,4996,0
133806401,-0.24578615,-0.5787737,0.09973801,4998,0,0.15352897,-0.004976171,-10.4893,4998,0
133826384,-0.19523574,-0.6635505,0.1025638,4995,0,-0.7656964,-1.5216488,-8.841456,4995,0
133846370,0.43650708,-0.5533557,0.029913051,4996,0,-0.65378654,-0.8418068,-9.940885,4996,0
133866355,0.455065,-0.34480143,0.024327092,4996,0,-1.0991719,-0.73264384,-10.17877,4996,0
133886341,0.10321982,-0.23339961,0.091285616,4996,0,-0.66864586,-1.2031214,-11.267915,4996,0
133906326,-0.30674925,-0.3510836,0.107313916,4996,0,-0.24984212,-0.5698272,-8.895206,4996,0
133926313,0.04696081,-0.49462223,0.09076321,4996,0,-0.6933698,-0.21892062,-10.027511,4996,0
133946297,0.40668914,-0.5372896,0.0759903,4996,0,-0.6622888,0.30445117,-10.676867,4996,0
133966284,0.54121304,-0.4793211,0.079078354,4997,0,-0.1904778,-0.47781032,-9.391815,4997,0
133986269,0.20724326,-0.4405832,0.08035352,4993,0,-0.4505332,-0.6712179,-8.958181,4993,0
134006256,0.0011862413,-0.5574903,0.062437657,4997,0,-0.35806522,-0.35054415,-9.378658,4997,0
134026241,-0.031231992,-0.60941434,0.058626506,4997,0,-0.43703806,-0.5812607,-9.782043,4997,0
134046229,0.0632433,-0.37250006,0.07440765,4999,0,-0.63774264,-0.5383432,-9.250062,4999,0
134066210,0.2908242,-0.24715295,-0.027295664,4995,0,-0.49200574,-0.4317481,-10.52931,4995,0
134086198,0.05591019,-0.17972226,-0.021811204,4997,0,-0.6706306,-1.0553739,-8.709314,4997,0
134106182,-0.06761238,-0.33559737,-0.008151062,4997,0,0.31094354,0.29053628,-11.066899,4997,0
134126166,-0.43187505,-0.43058637,-0.054686148,4995,0,-0.036442414,-1.2150732,-8.582318,4995,0
134146154,-0.21743682,-0.35337204,-0.050336007,4998,0,-0.1011844,-0.5200892,-9.042274,4998,0
134166138,0.023365367,-0.2126107,-0.049393475,4995,0,-0.21086615,-0.17052345,-10.131174,4995,0
134186124,0.08570265,-0.11629221,-0.10229451,4996,0,-0.42999732,0.23996192,-10.50936,4996,0
134206111,-0.21481363,0.020303966,-0.062281318,4998,0,-0.7216755,-0.75798535,-10.011954,4998,0
134226094,-0.30656168,-0.07132484,-0.09138286,4996,0,0.103787266,-0.9105159,-8.993759,4996,0
134246082,-0.06362,-0.16186172,-0.10531888,4997,0,-0.25860426,-1.1082741,-7.9592338,4997,0
134266066,0.102484584,-0.13378395,-0.113351695,4996,0,-0.87600756,-1.3901837,-11.611499,4996,0
134286050,-0.01202858,-0.24159707,-0.115399316,4995,0,0.3691356,0.36170408,-9.315876,4995,0
134306036,-0.39268175,0.03646878,-0.094290376,4994,0,1.2107325,0.2860284,-11.26391,4994,0
134331018,-0.37464085,0.3672315,-0.099732205,4996,0,-0.62541854,-0.1454203,-11.660828,4996,0
134346008,-0.24157454,0.21391161,-0.066867985,4997,0,0.61587375,-0.54738677,-7.848603,4997,0
134365993,-0.18745981,0.11543027,-0.14359346,4994,0,-0.73666936,-1.9918784,-7.4724135,4994,0
134385978,-0.2888724,0.115612514,-0.07821514,4994,0,0.3522653,-1.7866671,-9.785465,4994,0
134405966,-0.44185525,0.40796947,-0.052852403,4998,0,-1.8646783,-1.58121,-8.738259,4998,0
134425949,-0.37469235,0.5662578,-0.09981276,4996,0,1.1230597,0.3424999,-9.397662,4996,0
134445937,-0.033360854,0.62813085,-0.10240614,4997,0,-0.2987892,0.14248152,-11.325079,4997,0
134465920,0.11834336,0.50623965,-0.092842564,4995,0,-0.020072235,-1.0569873,-10.791944,4995,0
134485906,-0.025276849,0.31783006,-0.0253956,4996,0,0.7880026,-0.31390807,-8.880853,4996,0
134505893,-0.20499764,0.5333929,-0.069642484,4998,0,-1.3152194,-1.3361531,-11.351076,4998,0
134525879,-0.11990627,0.43017817,-0.049072728,4997,0,1.184418,0.48570356,-10.933175,4997,0
134545864,0.115398794,0.46260294,-0.056760713,4998,0,-0.7735948,-0.6181935,-11.4401245,4998,0
134565850,0.21700801,0.42423835,-0.04487689,4999,0,0.5987832,0.66192544,-11.945116,4999,0
134585835,0.13910687,0.62826985,-0.033477355,4998,0,-1.0554026,-0.17463271,-10.171294,4998,0
134605821,0.019632226,0.7807609,0.050997533,4998,0,1.0850978,1.3432032,-10.050512,4998,0
134625804,-0.1513545,1.0424055,0.010073904,4995,0,-0.9461702,-0.5256963,-11.299207,4995,0
134645790,-0.15904811,0.6814079,0.086165056,4996,0,0.45738313,0.0708161,-11.866927,4996,0
134670772,0.15443484,0.074896656,0.06548024,4997,0,-0.059850954,0.5081502,-11.809686,4997,0
134685762,0.06291275,0.019816848,0.08699364,4994,0,-0.26158112,0.036840428,-9.2420635,4994,0
134705749,-0.06326691,0.36198127,0.023797344,4997,0,-1.8380977,-1.3717532,-9.585774,4997,0
134725735,-0.19596525,0.5407777,0.08107141,4997,0,-0.12750883,-0.2306554,-11.37675,4997,0
134750716,-0.07925358,0.557455,0.08476524,4999,0,-1.0366107,-0.39527103,-9.209666,4999,0
134765702,0.32097265,0.3711726,0.056073956,4992,0,-1.0342597,-0.67278,-10.497376,4992,0
134785688,0.3330608,0.20694494,0.07804335,4996,0,-0.2549114,-0.5841998,-11.489641,4996,0
134810670,-0.10551576,0.091880515,0.11339553,4996,0,-0.8781881,-0.97014135,-9.079379,4996,0
134825659,-0.13449001,0.025749585,0.098049246,4996,0,-1.1402025,-0.77426374,-10.17892,4996,0
134845644,-0.25567928,0.042726126,0.107575946,4996,0,-1.0265448,-1.4264522,-9.032061,4996,0
134865632,0.31516245,-0.120179735,0.09894903,4999,0,-0.13954782,-0.025441682,-8.969925,4999,0
134890612,0.5204908,-0.17776975,0.06581198,4996,0,-0.91713035,0.38307512,-10.485818,4996,0
134905601,0.39561975,-0.23907599,0.066179596,4996,0,-0.8527023,-1.2580115,-9.853634,4996,0
134925586,0.078798875,-0.3343779,0.04695643,4994,0,-0.9680905,-1.1219609,-9.199518,4994,0
134945573,0.09608316,-0.44029835,0.08370114,4997,0,-0.86579657,-0.18495281,-9.515341,4997,0
134965558,0.010521813,-0.5522165,0.06683539,4997,0,-0.66020495,-0.7171994,-8.418305,4997,0
134985544,0.51570475,-0.6358389,0.06019809,4996,0,-0.29127786,-0.160143,-9.741305,4996,0
135005531,0.46171585,-0.6932685,0.12474717,4999,0,0.34660068,-0.6644422,-9.083531,4999,0
135030512,0.1329092,-0.8480101,0.060139373,4996,0,-0.49051932,-0.9794672,-8.9248705,4996,0
135045502,-0.23905881,-0.9711664,0.083223425,4999,0,-0.37806645,-1.2349242,-10.946828,4999,0
135065491,-0.03440782,-0.88859075,0.18060684,5001,0,-0.39007214,0.10829718,-10.460182,5001,0
135090467,0.34747264,-0.54859436,0.001663271,4995,0,-0.7351209,0.21450156,-9.454492,4995,0
135105456,0.52321225,-0.44326732,0.009061062,4997,0,0.031560823,-0.08891176,-11.236769,4997,0
135125442,0.1342478,-0.42301518,0.046042107,4997,0,-0.301741,-0.58932394,-7.9094563,4997,0
135145429,-0.028280577,-0.7159659,0.07605514,4998,0,-0.28411907,-0.9252158,-13.122772,4998,0
135165412,-0.30600607,-0.80137205,0.036530815,4996,0,-0.4857373,-0.38097525,-9.441536,4996,0
135185403,0.204064,-0.6911014,0.0037810565,5000,0,0.14031553,-0.17833991,-10.599121,5000,0
135205384,0.16882071,-0.3700699,0.0012403689,4996,0,-0.58508307,-0.5100899,-8.863396,4996,0
135230367,-0.13187669,-0.2716626,0.03711736,4996,0,0.19931109,-0.042774405,-11.329912,4996,0
135245354,-0.5357409,-0.47691116,0.05536763,4996,0,-0.02763289,-0.10980972,-7.217336,4996,0
135265341,-0.3275956,-0.519443,0.018189782,4996,0,-0.34116536,-0.52316105,-11.143354,4996,0
135285327,-0.18566695,-0.096936144,0.037800018,4998,0,-0.66232353,-0.65553415,-9.716167,4998,0
135305313,0.06432473,0.06489993,-0.02536165,4998,0,-0.28996298,-0.8879566,-10.665101,4998,0
135325297,-0.3325173,-0.09652157,0.073066995,4997,0,0.15768208,-0.84140337,-10.380722,4997,0
135345284,-0.5194427,-0.27574274,0.0869046,4997,0,-0.43940803,-0.8164184,-9.3821745,4997,0
135370264,-0.31792575,-0.32065526,0.06510484,4995,0,-0.19866613,-0.77366734,-10.8895645,4995,0
135385255,-0.21886489,-0.014842166,0.046612132,4998,0,-0.58571875,-0.53896546,-9.6147375,4998,0
135405239,-0.20157984,0.39121816,0.15892276,4996,0,-1.0118638,-0.72297007,-9.07484,4996,0
135425226,0.065290056,0.49472287,0.08875215,4999,0,-0.7260708,-0.51598406,-10.671596,4999,0
135445211,0.12886806,0.345754,0.14135702,4998,0,-0.3046678,-1.0259355,-9.2328415,4998,0
135465195,-0.2545702,0.1794475,0.17185178,4996,0,-0.2945277,-0.7528634,-8.290336,4996,0
135485181,-0.2527306,0.19063622,0.18968542,4996,0,-0.80785495,-1.2625949,-11.468107,4996,0
135510163,0.06427663,0.2930498,0.13890783,4995,0,-0.12609915,-0.37484193,-8.5011835,4995,0
135525152,0.02120656,0.46204075,0.09001535,4996,0,-1.854616,-0.3356207,-9.45535,4996,0
135545138,0.17402965,0.18572968,0.100301445,4997,0,0.49007505,-1.2038006,-9.449282,4997,0
135565122,0.10131948,0.2208259,0.07610045,4995,0,-1.3740659,-0.123799734,-9.58789,4995,0
135585108,0.18056837,0.206621,0.13851437,4996,0,-0.40785125,-1.0328096,-10.945391,4996,0
135605094,0.16278905,0.43052566,0.07256105,4995,0,-0.44914126,-0.46934405,-8.3039255,4995,0
135625079,0.07241013,0.47356433,0.04255664,4996,0,-0.5103795,-1.0604502,-10.359638,4996,0
135650061,0.25809386,0.57252055,0.039817736,4995,0,-0.93841624,0.29749423,-8.489619,4995,0
135670047,0.4156269,0.23277052,-0.07984769,4997,0,-0.6920763,-1.0941553,-9.620293,4997,0
135685036,0.44902664,0.112249985,-0.096502796,4997,0,-1.4620944,-0.666901,-9.342031,4997,0
135705024,0.4920673,0.07014733,-0.08230535,5000,0,-0.69870424,-0.7419506,-10.037539,5000,0
135730006,0.024055736,0.2748356,-0.015798582,4996,0,-1.4428301,0.058258645,-8.164079,4996,0
135744992,0.010758418,0.46290675,-0.078018844,4996,0,-0.8983746,-0.005249034,-8.459629,4996,0
135764978,0.3790846,0.52761453,-0.16878317,4995,0,-0.46288082,-0.082597174,-9.38629,4995,0
135789960,0.47199953,0.29310578,-0.04511544,4995,0,-0.86402494,-0.6276404,-11.399141,4995,0
135804949,0.19076861,0.20039548,-0.09160023,4997,0,-1.2528623,-0.0803973,-8.483473,4997,0
135824935,-0.07148752,-0.020420596,-0.08635104,4997,0,-1.3508763,-1.1447682,-11.27136,4997,0
135849916,-0.14426881,0.15168463,-0.08363831,4996,0,-0.62399817,0.493278,-9.766349,4996,0
135864905,-0.036128696,0.28414762,-0.015849344,4996,0,-1.1614801,-0.4922544,-8.843708,4996,0
135884892,0.40163854,0.060205348,-0.15038373,4998,0,-0.6550767,0.27543703,-8.752766,4998,0
135904878,0.35342342,0.00072311825,-0.08794684,4997,0,0.62425756,-0.2620811,-11.386296,4997,0
135929858,-0.023567902,0.29237786,-0.15397148,4996,0,-0.98232645,-1.2068614,-12.750847,4996,0
135944848,-0.23308134,0.20006242,-0.056982774,4995,0,0.65534633,0.80509895,-6.815181,4995,0
135964833,-0.050673317,0.1618226,-0.09599808,4996,0,-0.6075241,-1.8466878,-11.58108,4996,0
135989815,-0.5820611,-0.31919396,-0.025341364,4997,0,1.0538244,-0.011203957,-11.678843,4997,0
136009801,-0.60195994,-0.121862195,-0.052628886,4997,0,-1.0905775,0.6790626,-8.879215,4997,0
136024789,-0.023451846,0.10721,-0.15305041,4996,0,-1.3181009,-0.60313743,-9.341943,4996,0
136044775,0.21691582,0.23793308,-0.1361833,4996,0,0.6536269,1.0470707,-9.987959,4996,0
136069757,-0.18670423,0.31997645,-0.13820288,4996,0,1.4409494,0.63715166,-11.662596,4996,0
136089742,-0.63571304,0.18668166,-0.1821769,4995,0,-0.5076111,-0.1521331,-8.949157,4995,0
136104731,-0.2327029,-0.20466541,-0.053016078,4995,0,0.3288421,0.4061068,-8.360749,4995,0
136129713,-0.019036043,-0.3314578,-0.06343648,4996,0,1.4504303,0.44435224,-9.341221,4996,0
136149699,-0.16514827,-0.23199181,-0.07438045,4995,0,1.6035812,-0.33695376,-13.949838,4995,0
136164688,-0.7722465,0.0028949098,-0.003467344,4997,0,-1.5973283,-1.4622207,-7.1736336,4997,0
136184673,-0.9478235,0.077345975,-0.08876665,4996,0,-2.6971812,-1.0402805,-9.309412,4996,0
136209656,-0.4144795,0.1753396,0.012127813,4996,0,-1.5070394,-0.14214773,-11.119813,4996,0
136229640,0.024904944,-0.04518221,-0.05878604,4996,0,0.33516765,0.09951454,-11.52465,4996,0
136244630,-0.4035924,0.1297307,-0.03821995,4995,0,0.13636467,-1.2650802,-9.998267,4995,0
136269611,-0.81560475,0.0105686085,0.0018509757,4994,0,1.4045745,-1.0371314,-13.077203,4994,0
136289597,-0.7750756,0.19607458,-0.03362959,4995,0,-1.7467597,-1.8621501,-12.732016,4995,0
136304588,-0.5711877,3.5486037e-06,0.0012230374,4998,0,1.1190784,0.64647615,-9.8425255,4998,0
136324572,-0.48297766,-0.012619384,-0.07865612,4996,0,0.5696535,-0.24536414,-13.100214,4996,0
136349554,-0.5228805,-0.024194026,-0.035340525,4994,0,-1.3788747,-2.3473186,-11.475736,4994,0
136369539,-0.16588564,-0.047893472,-0.10167512,4995,0,-0.3635121,-0.4957522,-7.914289,4995,0
136384528,-0.009561938,0.22410601,-0.021788703,4996,0,-0.7236108,-0.25425598,-15.119328,4996,0
136409510,0.101497926,0.32433617,-0.12864688,4995,0,-1.4518443,-1.0561769,-13.359358,4995,0
136429495,0.0723655,-0.028717441,-0.09241184,4996,0,0.9384241,0.817566,-11.613041,4996,0
136444485,-0.68391126,-0.030065648,-0.029089019,4996,0,0.047342543,-1.7488073,-11.429664,4996,0
136464473,-0.5042213,-0.42897078,-0.06606153,4999,0,0.3413662,0.89491826,-7.7204394,4999,0
136489453,0.49999365,-0.1887175,-0.083319515,4995,0,-0.46401507,0.0036233857,-10.498757,4995,0
136509438,0.46636173,0.0030246102,-0.038429063,4997,0,0.2639572,-1.0017037,-10.118314,4997,0
136524426,0.49247524,-0.098407276,0.038865052,4995,0,-0.7437611,-0.14921191,-6.847388,4995,0
136549408,0.1578765,-0.21629898,-0.100243226,4996,0,0.9951207,-0.08664751,-8.859143,4996,0
136564397,0.003666077,-0.14078575,-0.102274485,4995,0,0.4158419,0.16235448,-8.045577,4995,0
136584383,-0.3414508,-0.011251142,-0.008625812,4996,0,-0.23207244,-1.4989017,-8.701791,4996,0
136604370,0.017427865,-0.24679829,-0.05347908,4997,0,0.26417574,-1.3198457,-7.541091,4997,0
136629350,0.58504325,-0.31146464,-0.016367659,4996,0,0.41171992,-0.08599745,-6.5262403,4996,0
136649336,0.76554257,-0.27765283,-0.07200229,4997,0,-1.1896615,-0.65794706,-7.3626704,4997,0
136664325,0.46973512,-0.28266808,-0.04497297,4996,0,1.1390882,-0.092537425,-11.15732,4996,0
136689307,-0.23422325,0.15391031,-0.016333107,4996,0,-0.63347006,-1.3289468,-10.755983,4996,0
136709292,-0.06863935,0.021447582,0.006821538,4996,0,-0.1721132,-0.47354314,-9.953987,4996,0
136724281,0.35750514,-0.18984923,-0.07008548,4996,0,-0.15246782,1.2443147,-11.270908,4996,0
136749263,1.1081324,-0.061617196,-0.06298706,4996,0,-1.0697935,-1.0033638,-10.063744,4996,0
136769248,0.9370082,-0.11485915,-0.06092581,4996,0,-0.48448324,-0.9764807,-8.413167,4996,0
136784243,0.200535,-0.08828813,-0.034151584,5001,0,2.0068622,0.6139448,-10.141503,5001,0
136804223,-0.25983807,-0.029327856,-0.070659086,4996,0,1.2749451,0.5663595,-9.52245,4996,0
136829205,0.27657086,-0.14990923,0.00067890034,4996,0,-0.6386235,0.07017884,-10.357453,4996,0
136849191,0.820732,-0.19781011,-0.06337201,4997,0,0.67725265,0.40381655,-7.835851,4997,0
136864180,0.8902277,-0.20836727,-0.029853107,4996,0,1.2051891,0.4602921,-10.106168,4996,0
136889163,0.6616982,-0.35210454,-0.018593963,4998,0,0.78179646,0.45198593,-8.948645,4998,0
136904151,0.28426516,-0.18105052,-0.029741334,4995,0,2.108387,1.9853054,-11.512913,4995,0
136924136,-0.014993083,0.1516383,-0.06835412,4994,0,1.2701755,1.0831959,-6.6887717,4994,0
136949119,0.4626427,0.20472708,-0.05424262,4996,0,-0.2503627,0.20902534,-5.806093,4996,0
136969104,0.6661756,0.08335493,-0.014017766,4997,0,1.1804006,1.1228856,-8.302972,4997,0
136989089,0.36551106,0.09033284,0.032437377,4996,0,1.2810615,1.7033045,-9.246758,4996,0
137004078,-0.04535833,0.20746918,0.01578373,4994,0,1.5143046,1.3827233,-13.770985,4994,0
137029062,-0.16805089,0.1979245,-0.028407013,4998,0,1.4758277,2.2997928,-8.404323,4998,0
137049049,-0.24467103,0.4637288,0.03261214,5000,0,0.62330663,1.2162244,-8.585443,5000,0
137064035,-0.13630174,0.46538264,0.019664936,4995,0,-1.7879487,-0.23979169,-13.543527,4995,0
137084021,-0.16124845,0.3449996,0.014356427,4997,0,-0.49374643,1.3908813,-9.616323,4997,0
137109008,-0.3827053,0.1714813,0.0028282017,5002,0,0.43683004,0.97194624,-6.66092,5002,0
137128988,-0.5999806,-0.03958605,-0.0050638136,4996,0,1.6854442,1.0144128,-7.107082,4996,0
137143978,-0.53781027,0.22067833,-0.067115046,4997,0,-0.8787934,-0.32945666,-9.505729,4997,0
137168959,-0.607937,0.33051163,-0.05412813,4997,0,-0.782219,-0.7370375,-9.918178,4997,0
137188945,-0.6222077,0.43353328,-0.10900514,4997,0,-0.8643871,-0.7929936,-12.662293,4997,0
137208932,-0.8357224,0.53759027,0.0018626102,4999,0,-1.1603694,-1.8716171,-9.521022,4999,0
137228916,-0.9196089,0.37615627,-0.07786398,4997,0,-0.25223163,-0.75540525,-6.4555745,4997,0
137248901,-0.7770638,0.08212266,-0.049574107,4997,0,1.2435732,0.20105681,-9.19027,4997,0
137268888,-0.36321723,0.0744818,-0.061512675,4998,0,0.019560257,-0.7937193,-12.4530115,4998,0
137288872,-0.28548115,0.446287,-0.0013034636,4995,0,-1.2529523,-1.6859224,-9.027254,4995,0
137308857,-0.43641597,0.46911138,-0.048334066,4996,0,-0.07827632,0.37216008,-13.351401,4996,0
137328846,-0.8663842,0.30881086,0.012877853,4999,0,1.3230357,0.07236693,-14.320125,4999,0
137348834,-0.7774062,0.13332975,-0.024293665,5002,0,0.031651434,-0.58931243,-12.545288,5002,0
137363818,-0.11310477,-0.11713391,-0.0013170491,4997,0,0.050388306,-0.29559025,-8.014674,4997,0
137388801,0.34173846,0.079930276,-0.08481576,4998,0,0.13987611,-0.44252664,-7.858908,4998,0
137408785,-0.32012796,0.42411909,-0.020800926,4997,0,-1.766737,-0.706198,-4.9691796,4997,0
137428770,-0.60053456,0.18650028,0.012380025,4996,0,-1.9162009,-0.4555271,-8.233544,4996,0
137448756,-0.6255447,0.016117085,0.06560369,4996,0,0.20527127,0.4490931,-7.043665,4996,0
137468741,-0.4944015,0.29446825,-0.007651989,4996,0,0.8979198,-0.1737671,-8.874956,4996,0
137488727,-0.100540765,0.5020743,-0.040312212,4997,0,-1.218259,-1.2032607,-8.973787,4997,0
137508714,0.14852263,0.0051528695,0.0036581377,4998,0,0.08829569,0.5370135,-9.504567,4998,0
137528698,0.14179094,-0.07676615,0.039704897,4996,0,0.11772177,0.14375362,-13.633862,4996,0
137548683,-0.32879567,-0.182732,-0.020294566,4995,0,-1.1123893,-1.4791847,-9.406411,4995,0
137563673,-0.18983866,-0.22508754,-0.019309299,4997,0,0.7296724,1.0319386,-8.4096575,4997,0
137588656,0.11945131,-0.23182413,-0.011268637,4998,0,1.0112076,1.9093089,-10.583442,4998,0
137608640,0.21832097,-0.011749667,-0.018360622,4997,0,-0.15234168,0.7524452,-13.382552,4997,0
137628628,-0.02071462,-0.05582124,0.02458321,4999,0,-1.2564548,-0.7582255,-7.140781,4999,0
137648611,-0.057360936,-0.4302794,-0.038372204,4996,0,-1.6977434,-0.8251654,-6.495614,4996,0
137668596,0.27208233,-0.6180895,-0.07325983,4996,0,1.4131552,1.1113445,-10.79106,4996,0
137688582,0.5797607,-0.45784837,0.0030227294,4996,0,1.3190448,2.1086287,-11.747651,4996,0
137708567,0.27569744,-0.008309616,0.010548614,4996,0,1.6358122,1.8648573,-8.501222,4996,0
137728553,-0.0347703,-0.10559085,-0.0116844475,4996,0,1.38416,0.93804026,-9.964062,4996,0
137748538,0.11386512,-0.32873648,-0.061505068,4995,0,0.6243199,-0.9188266,-12.76076,4995,0
137763528,0.5890864,-0.57783943,-0.029870385,4997,0,1.0782158,0.5588515,-7.4673553,4997,0
137788509,0.6841688,-0.5385833,-0.070474096,4996,0,-0.15586552,0.16887091,-6.5036335,4996,0
137808495,0.58632815,-0.5049276,-0.014130786,4995,0,-0.39195594,0.483371,-7.128215,4995,0
137828480,0.4624273,-0.41146576,-0.016429557,4996,0,-1.2942164,-1.6375855,-8.769685,4996,0
137848467,-0.088968955,0.057851873,-0.09827013,4996,0,-1.7637348,-1.3413823,-7.4358835,4996,0
137868451,0.1791521,0.12711689,-0.056545205,4996,0,-1.5175971,-1.2814106,-8.68514,4996,0
137888437,0.5514054,-0.11244126,-0.0280092,4997,0,0.13979968,0.2187463,-10.352861,4997,0
137908422,0.39877117,-0.20960227,-0.010693893,4996,0,0.4356084,-0.2210245,-5.313567,4996,0
137928408,0.38162574,-0.368905,-0.027654102,4996,0,0.76680845,1.028919,-6.775082,4996,0
137948394,0.20236592,-0.47685376,-0.084615,4994,0,1.728953,1.8859742,-11.223367,4994,0
137968379,0.10327745,-0.30287045,0.080838606,4997,0,1.5257527,2.2013555,-11.726827,4997,0
137988364,0.06283584,0.052090853,-0.036959037,4996,0,0.67678887,0.6143717,-9.738873,4996,0
138008350,0.13045579,0.10043085,-0.049950503,4993,0,0.25533822,-0.5343927,-13.721898,4993,0
138028339,0.11093516,-0.133612,-0.055321388,4999,0,-1.1857519,0.7351444,-7.9893804,4999,0
138048321,0.12688717,-0.38941947,0.09552133,4996,0,1.6151121,1.4278585,-8.633991,4996,0
138068307,0.20019755,-0.27461946,-0.02986263,4997,0,2.019391,2.0206547,-11.664696,4997,0
138088292,0.2906802,0.018493677,-0.0654875,4995,0,0.1788169,0.033468064,-10.080079,4995,0
138108278,0.19733268,0.10721737,-0.012808053,4997,0,-0.37004682,-1.5237193,-13.166479,4997,0
138128264,0.009357073,0.02477861,0.012288365,4998,0,0.6023017,-0.33197987,-13.374424,4998,0
138148249,0.06715116,0.14409105,-0.071954675,4995,0,0.0939071,0.43103758,-10.269873,4995,0
138168234,0.11163912,0.1273875,0.00496743,4996,0,-1.5086488,-0.9007599,-10.0885315,4996,0
138188220,0.15544818,0.12348928,-0.013134402,4997,0,-0.26976976,-2.1954231,-8.273911,4997,0
138208206,0.17730395,0.023701243,-0.02477075,4997,0,-0.8671848,-1.4933383,-6.3991013,4997,0
138228191,0.16846175,0.02842397,0.0070333327,4997,0,-1.2790984,-0.68004596,-6.4948816,4997,0
138248176,-0.021596184,0.29811117,-0.026809296,4997,0,-2.5351617,-1.8615485,-8.581898,4997,0
138268162,-0.061458785,0.49699482,0.0075236387,4997,0,-1.322511,-1.7223209,-8.147891,4997,0
138288148,0.15698625,0.47204778,0.026968691,4998,0,-1.3646183,-1.5757008,-6.3374915,4998,0
138308133,0.2851627,0.06901324,-0.06919451,4997,0,0.41229862,0.41489646,-7.2419167,4997,0
138328118,0.22474173,-0.07119264,-0.024164556,4997,0,1.5215111,2.2600086,-9.242711,4997,0
138348104,0.22343113,-0.075976714,0.019282749,4997,0,2.1306083,2.2158742,-11.678663,4997,0
138368089,0.24003465,0.073082484,-0.01943181,4997,0,2.3106089,2.0361257,-10.703537,4997,0
138388075,0.06760897,0.21134093,-0.059633713,4997,0,0.7698424,0.4321307,-8.450398,4997,0
138408060,-0.1531662,0.26486668,0.00047920545,4996,0,0.87492,1.7560806,-9.748717,4996,0
138428046,-0.14298953,0.025708651,-0.00023696205,4997,0,1.7768226,1.6626759,-11.397106,4997,0
138448031,-0.08546093,0.19442466,-0.041907247,4996,0,1.0088145,1.991544,-13.612736,4996,0
138468016,-0.14763495,0.41148108,0.00719326,4996,0,-1.2685405,-0.35171956,-11.036797,4996,0
138488004,-0.18857715,0.40506944,-0.066198066,4999,0,-0.4213997,-1.5088508,-10.410603,4999,0
138507989,-0.15712488,0.11498053,-0.050745755,4998,0,-0.119893506,-0.88931215,-6.3978763,4998,0
138527975,-0.22889088,-0.10484635,-0.07830346,4999,0,-0.21848308,-0.8466824,-5.058388,4999,0
138547958,0.032733675,-0.098496474,0.0006479062,4996,0,1.0221751,-0.90074503,-8.383523,4996,0
138567952,0.37125915,-0.018910434,-0.06592887,5005,0,-0.34882456,0.07365746,-9.017571,5005,0
138587932,0.37673432,0.21708032,-0.056924444,4999,0,0.19993713,0.825265,-7.7028847,4999,0
138607916,0.17181888,0.32797924,-0.0041817627,4997,0,-0.90328914,-0.9818852,-7.207413,4997,0
138627901,-0.16115822,0.19811729,0.031199869,4997,0,-0.91283476,-0.69921696,-10.812689,4997,0
138647887,-0.6067736,0.037976004,0.013561969,4997,0,0.15950504,-1.542265,-8.479585,4997,0
138667871,-0.39619932,-0.13133739,-0.015710196,4996,0,-0.08045622,0.15105513,-6.625405,4996,0
138687857,-0.08913048,-0.09174366,0.015379063,4994,0,1.7153146,1.2716234,-11.566404,4994,0
138707842,-0.08117792,0.25775668,-0.041800566,4995,0,-0.4266083,-0.059376165,-10.209356,4995,0
138727829,-0.056729656,0.43427336,0.011425175,4997,0,-1.9662969,-0.43610117,-12.183386,4997,0
138747814,-0.6149883,0.33211702,-0.04957741,4997,0,-1.4415168,-1.5433053,-5.9544063,4997,0
138767801,-0.5057497,-0.16337875,-0.037495624,4999,0,0.10550147,-0.13324228,-7.5248876,4999,0
138787784,-0.22282268,-0.28247038,0.04596289,4994,0,2.079056,2.1110365,-12.04796,4994,0
138807771,-0.2567099,-0.085022986,-0.040194687,4997,0,0.153495,0.58451384,-11.748047,4997,0
