timestamp,ref_timestamp,ref_lat,ref_lon,x,y,z,delta_xy[0],delta_xy[1],delta_z,vx,vy,vz,z_deriv,delta_vxy[0],delta_vxy[1],delta_vz,ax,ay,az,heading,delta_heading,ref_alt,dist_bottom,eph,epv,evh,evv,vxy_max,vz_max,hagl_min,hagl_max,xy_valid,z_valid,v_xy_valid,v_z_valid,xy_reset_counter,z_reset_counter,vxy_reset_counter,vz_reset_counter,heading_reset_counter,xy_global,z_global,dist_bottom_valid
125862165,0,0.0,0.0,-0.028743047,-0.023655504,-0.0999603,-0.030347846,-0.017858354,0.077307485,0.001971165,0.0016545984,-0.0013388947,-0.0014876277,-0.00018158615,-2.7996442e-05,0.003244032,0.028150566,-0.0007687049,-0.0066461475,1.5712492,0.6213035,0.0,0.10073973,0.03433134,0.016241658,0.059454255,0.03074938,inf,inf,inf,inf,1,1,1,1,2,1,1,1,3,0,0,1
125872158,0,0.0,0.0,-0.028740006,-0.02362088,-0.09996182,-0.030347846,-0.017858354,0.077307485,0.001777237,0.0016932687,-0.0014442127,-0.0015810729,-0.00018158615,-2.7996442e-05,0.003244032,-0.024988333,-0.001907103,-0.012992711,1.5712457,0.6213035,0.0,0.10074125,0.03378113,0.016241653,0.059211764,0.030749395,inf,inf,inf,inf,1,1,1,1,2,1,1,1,3,0,0,1
125882151,0,0.0,0.0,-0.028736826,-0.023588067,-0.09996304,-0.030347846,-0.017858354,0.077307485,0.0020041028,0.0015080986,-0.0012692828,-0.0013943688,-0.00018158615,-2.7996442e-05,0.003244032,0.04498085,-0.004143407,0.019951373,1.5712354,0.6213035,0.0,0.100742474,0.0342306,0.016241647,0.06011535,0.03074943,inf,inf,inf,inf,1,1,1,1,2,1,1,1,3,0,0,1
125902136,0,0.0,0.0,-0.028724145,-0.02352286,-0.09996173,-0.030347846,-0.017858354,0.077307485,0.0021645755,0.0015400045,-0.001229265,-0.0013309377,-0.00018158615,-2.7996442e-05,0.003244032,0.015278146,-0.021896396,-0.0006100535,1.5712559,0.6213035,0.0,0.10074116,0.03413655,0.016241636,0.061299503,0.03074954,inf,inf,inf,inf,1,1,1,1,2,1,1,1,3,0,0,1
125922122,0,0.0,0.0,-0.028714396,-0.02345666,-0.099959694,-0.030347846,-0.017858354,0.077307485,0.0019344278,0.0017939409,-0.0010823561,-0.0011605597,-0.00018158615,-2.7996442e-05,0.003244032,-0.011808704,-0.00063021004,0.01945775,1.5712547,0.6213035,0.0,0.10073913,0.03405099,0.016241625,0.06296998,0.030749712,inf,inf,inf,inf,1,1,1,1,2,1,1,1,3,0,0,1
125942107,0,0.0,0.0,-0.028705586,-0.023390384,-0.09995477,-0.030347846,-0.017858354,0.077307485,0.0021288113,0.0018816208,-0.0011357968,-0.0011904878,-0.00018158615,-2.7996442e-05,0.003244032,-0.00010062779,0.02012258,-0.0036582898,1.5712508,0.6213035,0.0,0.100734204,0.033976376,0.016241614,0.06507973,0.030749941,inf,inf,inf,inf,1,1,1,1,2,1,1,1,3,0,0,1
125962093,0,0.0,0.0,-0.028691342,-0.023323314,-0.09995025,-0.030347846,-0.017858354,0.077307485,0.0020410968,0.0018451846,-0.0007139964,-0.00074541516,-0.00018158615,-2.7996442e-05,0.003244032,-0.07438916,-0.012798749,0.12198327,1.5711434,0.6213035,0.0,0.10072968,0.033915676,0.016241604,0.06757582,0.030750228,inf,inf,inf,inf,1,1,1,1,2,1,1,1,3,0,0,1
125982078,0,0.0,0.0,-0.028675467,-0.023259193,-0.09994376,-0.030347846,-0.017858354,0.077307485,0.0023429687,0.0011826578,-0.001159988,-0.0011685175,-0.00018158615,-2.7996442e-05,0.003244032,-0.07995933,-0.14888181,-0.14472944,1.5714353,0.6213035,0.0,0.10072319,0.03387219,0.016241597,0.07040436,0.030750573,inf,inf,inf,inf,1,1,1,1,2,1,1,1,3,0,0,1
126002064,0,0.0,0.0,-0.028660556,-0.02320405,-0.099942334,-0.030347846,-0.017858354,0.077307485,0.0021577901,0.0013722661,-0.0019825422,-0.0019681985,-0.00018158615,-2.7996442e-05,0.003244032,-0.120428115,-0.066448025,-0.19566089,1.5712665,0.6213035,0.0,0.10072177,0.03384949,0.016241591,0.07351196,0.030750975,inf,inf,inf,inf,1,1,1,1,2,1,1,1,3,0,0,1
126022049,0,0.0,0.0,-0.028652586,-0.023148382,-0.09994365,-0.030347846,-0.017858354,0.077307485,0.0014216707,0.0020781038,-0.0023007619,-0.0022634368,-0.00018158615,-2.7996442e-05,0.003244032,-0.08426745,0.08961435,-0.23031244,1.5711994,0.6213035,0.0,0.10072309,0.033851214,0.01624159,0.07684746,0.030751426,inf,inf,inf,inf,1,1,1,1,2,1,1,1,3,0,0,1
126042036,0,0.0,0.0,-0.028638855,-0.023100354,-0.09994261,-0.030347846,-0.017858354,0.077307485,0.0019209502,0.001148999,-0.0015908498,-0.0015305049,-0.00018158615,-2.7996442e-05,0.003244032,-0.05097925,-0.018821271,-0.14762853,1.5713608,0.6213035,0.0,0.100722045,0.033880983,0.016241591,0.08036495,0.030751929,inf,inf,inf,inf,1,1,1,1,2,1,1,1,3,0,0,1
126062020,0,0.0,0.0,-0.028629374,-0.02305343,-0.099933244,-0.030347846,-0.017858354,0.077307485,0.0016963453,0.0012318251,-0.0010469949,-0.0009637794,-0.00018158615,-2.7996442e-05,0.003244032,0.006790687,-0.038005594,-0.089746356,1.5712324,0.6213035,0.0,0.10071268,0.033912312,0.016241595,0.083948314,0.030752473,inf,inf,inf,inf,1,1,1,1,2,1,1,1,3,0,0,1
126082005,0,0.0,0.0,-0.028614547,-0.022999812,-0.09993442,-0.030347846,-0.017858354,0.077307485,0.0017065248,0.0019648867,-0.0022006738,-0.0020950113,-0.00018158615,-2.7996442e-05,0.003244032,-0.1990565,-0.1211567,-0.10410829,1.5712945,0.6213035,0.0,0.10071386,0.033977326,0.016241603,0.08762872,0.030753061,inf,inf,inf,inf,1,1,1,1,2,1,1,1,3,0,0,1
126101991,0,0.0,0.0,-0.028599568,-0.02296123,-0.09993119,-0.030347846,-0.017858354,0.077307485,0.0019073588,0.0015656326,-0.0019227061,-0.0017947309,-0.00018158615,-2.7996442e-05,0.003244032,-0.06396917,0.007908414,-0.14209951,1.5712599,0.6213035,0.0,0.10071599,0.03407848,0.016241616,0.09136875,0.030753687,inf,inf,inf,inf,1,1,1,1,2,1,1,1,3,0,0,1
126121978,0,0.0,0.0,-0.028592207,-0.022921428,-0.09993283,-0.030347846,-0.017858354,0.077307485,0.0012183732,0.0014858013,-0.0012996574,-0.0011496074,-0.00018158615,-2.7996442e-05,0.003244032,-0.16578476,0.034639478,-0.05747517,1.5712618,0.6213035,0.0,0.10072682,0.03421771,0.016241632,0.09513487,0.030754346,inf,inf,inf,inf,1,1,1,1,2,1,1,1,3,0,0,1
126141963,0,0.0,0.0,-0.028580014,-0.022874055,-0.09993872,-0.030347846,-0.017858354,0.077307485,0.0030430653,0.0019684292,-0.0011368189,-0.00096515694,-0.00018158615,-2.7996442e-05,0.003244032,0.18947613,-0.057560284,0.28731626,1.5712504,0.6213035,0.0,0.100741275,0.03439633,0.016241655,0.09889503,0.030755037,inf,inf,inf,inf,1,1,1,1,2,1,1,1,3,0,0,1
126161948,0,0.0,0.0,-0.02857335,-0.022843268,-0.09994429,-0.030347846,-0.017858354,0.077307485,0.0016085028,0.0010156293,-0.00063962233,-0.00044700206,-0.00018158615,-2.7996442e-05,0.003244032,0.12969859,0.010016641,0.2849202,1.571312,0.6213035,0.0,0.10074939,0.034614928,0.01624168,0.10261883,0.030755749,inf,inf,inf,inf,1,1,1,1,2,1,1,1,3,0,0,1
126181935,0,0.0,0.0,-0.028570987,-0.02279481,-0.09994837,-0.030347846,-0.017858354,0.077307485,0.0020935684,0.001682657,-0.001189574,-0.0009764726,-0.00018158615,-2.7996442e-05,0.003244032,0.08874733,-0.16467148,0.06384781,1.5712341,0.6213035,0.0,0.100753464,0.03487328,0.01624171,0.10627875,0.030756477,inf,inf,inf,inf,1,1,1,1,2,1,1,1,3,0,0,1
126201920,0,0.0,0.0,-0.028560758,-0.022765832,-0.09995465,-0.030347846,-0.017858354,0.077307485,0.0010083615,0.0011210978,-0.0017905877,-0.0015577618,-0.00018158615,-2.7996442e-05,0.003244032,-0.07474177,-0.04058849,0.11045744,1.5713019,0.6213035,0.0,0.100759745,0.035170306,0.01624175,0.10984576,0.030757207,inf,inf,inf,inf,1,1,1,1,2,1,1,1,3,0,0,1
126221905,0,0.0,0.0,-0.028562231,-0.022739915,-0.099962816,-0.030347846,-0.017858354,0.077307485,0.0014095148,0.0010249602,-0.0021150154,-0.0018630642,-0.00018158615,-2.7996442e-05,0.003244032,-0.053628627,-0.04731729,-0.0034711305,1.5712701,0.6213035,0.0,0.10076791,0.036678705,0.016241794,0.11502007,0.03075802,inf,inf,inf,inf,1,1,1,1,2,1,1,1,3,0,0,1
126241890,0,0.0,0.0,-0.028557679,-0.022713576,-0.09997823,-0.030347846,-0.017858354,0.077307485,0.0023069219,0.0012694682,-0.0023135885,-0.0020431713,-0.00018158615,-2.7996442e-05,0.003244032,0.17347291,0.0014626886,-0.025504528,1.5712392,0.6213035,0.0,0.100783326,0.03703124,0.016241843,0.11831893,0.030758759,inf,inf,inf,inf,1,1,1,1,2,1,1,1,3,0,0,1
126261875,0,0.0,0.0,-0.028550485,-0.02269389,-0.099995285,-0.030347846,-0.017858354,0.077307485,0.0017297535,0.0019531209,-0.002310109,-0.0020217816,-0.00018158615,-2.7996442e-05,0.003244032,0.08435535,0.18443637,0.033601444,1.5713612,0.6213035,0.0,0.10080038,0.037415497,0.016241895,0.12146087,0.03075948,inf,inf,inf,inf,1,1,1,1,2,1,1,1,3,0,0,1
126281861,0,0.0,0.0,-0.028546214,-0.022676237,-0.100007236,-0.030347846,-0.017858354,0.077307485,0.0020482296,0.0018727856,-0.0027854936,-0.0024795975,-0.00018158615,-2.7996442e-05,0.003244032,0.18871687,0.18897052,-0.10223404,1.571309,0.6213035,0.0,0.10081233,0.037827175,0.01624195,0.124428704,0.030760191,inf,inf,inf,inf,1,1,1,1,2,1,1,1,3,0,0,1
126301846,0,0.0,0.0,-0.028543634,-0.022659212,-0.1000255,-0.030347846,-0.017858354,0.077307485,0.00096654077,0.0015033514,-0.0025159523,-0.002192595,-0.00018158615,-2.7996442e-05,0.003244032,0.0200388,0.08479287,-0.11899897,1.5712959,0.6213035,0.0,0.10083059,0.03826145,0.016242012,0.12719846,0.030760853,inf,inf,inf,inf,1,1,1,1,2,1,1,1,3,0,0,1
126321832,0,0.0,0.0,-0.028544791,-0.022645835,-0.10003607,-0.030347846,-0.017858354,0.077307485,0.0014441176,0.0019698932,-0.001999833,-0.0016593618,-0.00018158615,-2.7996442e-05,0.003244032,0.099453494,0.15903802,-0.020304283,1.571327,0.6213035,0.0,0.100841165,0.038712986,0.016242076,0.12975748,0.030761493,inf,inf,inf,inf,1,1,1,1,2,1,1,1,3,0,0,1
126341817,0,0.0,0.0,-0.028554356,-0.022634579,-0.100050084,-0.030347846,-0.017858354,0.077307485,0.0016549026,0.0015088827,-0.002208619,-0.0018513586,-0.00018158615,-2.7996442e-05,0.003244032,0.22107522,0.12928015,0.023167381,1.5712982,0.6213035,0.0,0.10085518,0.0391762,0.016242143,0.13208963,0.030762073,inf,inf,inf,inf,1,1,1,1,2,1,1,1,3,0,0,1
126361803,0,0.0,0.0,-0.028569274,-0.02263017,-0.100060485,-0.030347846,-0.017858354,0.077307485,0.0016327228,0.0021359825,-0.0020643007,-0.0016904236,-0.00018158615,-2.7996442e-05,0.003244032,0.17913574,0.36218843,-0.03760645,1.571295,0.6213035,0.0,0.10086558,0.03964536,0.016242208,0.13418339,0.030762622,inf,inf,inf,inf,1,1,1,1,2,1,1,1,3,0,0,1
126381788,0,0.0,0.0,-0.028584318,-0.022627132,-0.100073375,-0.030347846,-0.017858354,0.077307485,0.0017958136,0.0011364365,-0.0023350029,-0.0019445552,-0.00018158615,-2.7996442e-05,0.003244032,0.2959351,-0.13551041,0.079810776,1.5712911,0.6213035,0.0,0.10087847,0.04011475,0.016242275,0.13603091,0.030763093,inf,inf,inf,inf,1,1,1,1,2,1,1,1,3,0,0,1
126401773,0,0.0,0.0,-0.028599385,-0.02264384,-0.10012591,-0.030347846,-0.017858354,0.077307485,-0.0021540667,0.000121412246,-0.003910819,-0.0035039503,-0.00018158615,-2.7996442e-05,0.003244032,-1.2160816,-0.36276013,0.12767461,1.571212,0.6213035,0.0,0.100931,0.040578846,0.016242344,0.13762705,0.030763518,inf,inf,inf,inf,1,1,1,1,2,1,1,1,3,0,0,1
126421759,0,0.0,0.0,-0.028626272,-0.022656005,-0.10014752,-0.030347846,-0.017858354,0.077307485,-0.0012829341,0.0047634286,-0.0037672704,-0.0033440487,-0.00018158615,-2.7996442e-05,0.003244032,-0.75837976,1.5237651,-0.17396224,1.5712154,0.6213035,0.0,0.10095262,0.041032452,0.01624241,0.13896817,0.030763874,inf,inf,inf,inf,1,1,1,1,2,1,1,1,3,0,0,1
126441745,0,0.0,0.0,-0.028635511,-0.022666184,-0.10018102,-0.030347846,-0.017858354,0.077307485,0.002653161,-0.0019872035,-0.0034016988,-0.0029622645,-0.00018158615,-2.7996442e-05,0.003244032,-0.25390735,-1.1254841,-0.096400596,1.5712254,0.6213035,0.0,0.100986116,0.041470792,0.016242474,0.1400555,0.03076417,inf,inf,inf,inf,1,1,1,1,2,1,1,1,3,0,0,1
126461730,0,0.0,0.0,-0.028666714,-0.02268249,-0.10021065,-0.030347846,-0.017858354,0.077307485,-0.0062047043,0.0011384703,-0.001633163,-0.0011776265,-0.00018158615,-2.7996442e-05,0.003244032,-2.0755115,0.26816025,0.37749478,1.5711713,0.6213035,0.0,0.10101575,0.041889653,0.016242536,0.14089292,0.030764414,inf,inf,inf,inf,1,1,1,1,2,1,1,1,3,0,0,1
126481715,0,0.0,0.0,-0.028709982,-0.022705398,-0.10023091,-0.030347846,-0.017858354,0.077307485,0.0030253981,-0.004806663,-0.004231878,-0.003760365,-0.00018158615,-2.7996442e-05,0.003244032,1.3314458,-2.076897,-0.0488472,1.571273,0.6213035,0.0,0.101036005,0.04228542,0.016242594,0.1414856,0.030764554,inf,inf,inf,inf,1,1,1,1,2,1,1,1,3,0,0,1
126501701,0,0.0,0.0,-0.028753655,-0.022768555,-0.10025914,-0.030347846,-0.017858354,0.077307485,4.1787476e-05,-0.0021239026,-0.0039094416,-0.0034221245,-0.00018158615,-2.7996442e-05,0.003244032,-1.4370514,-0.38113403,-0.31130445,1.571331,0.6213035,0.0,0.101064235,0.0425532,0.016242642,0.14150763,0.030764585,inf,inf,inf,inf,1,1,1,1,2,1,1,1,3,0,0,1
126521686,0,0.0,0.0,-0.028799698,-0.02279228,-0.10027615,-0.030347846,-0.017858354,0.077307485,-0.003135811,0.0037463107,-0.002526645,-0.002023752,-0.00018158615,-2.7996442e-05,0.003244032,-1.6170791,0.46696138,-0.08119418,1.5713071,0.6213035,0.0,0.101081245,0.042796697,0.016242689,0.14133333,0.03076457,inf,inf,inf,inf,1,1,1,1,2,1,1,1,3,0,0,1
126541672,0,0.0,0.0,-0.028848268,-0.022836162,-0.10029192,-0.030347846,-0.017858354,0.077307485,0.00888239,0.00011340702,-0.0027338918,-0.002215578,-0.00018158615,-2.7996442e-05,0.003244032,3.280108,-0.7060957,-0.12621634,1.571418,0.6213035,0.0,0.10109702,0.043014973,0.01624273,0.140976,0.030764513,inf,inf,inf,inf,1,1,1,1,2,1,1,1,3,0,0,1
126561658,0,0.0,0.0,-0.028882017,-0.022917045,-0.100310646,-0.030347846,-0.017858354,0.077307485,0.006000634,0.00039403376,-0.0006190836,-8.542878e-05,-0.00018158615,-2.7996442e-05,0.003244032,0.21600477,0.4171275,0.122028,1.5712992,0.6213035,0.0,0.10111574,0.043207534,0.016242767,0.14044976,0.030764388,inf,inf,inf,inf,1,1,1,1,2,1,1,1,3,0,0,1
126581643,0,0.0,0.0,-0.028935341,-0.022963153,-0.10032958,-0.030347846,-0.017858354,0.077307485,-0.009221962,0.0018592008,-0.0017420716,-0.0011931476,-0.00018158615,-2.7996442e-05,0.003244032,-1.9295136,1.63479,0.17531523,1.5712194,0.6213035,0.0,0.10113467,0.043374315,0.016242798,0.13976924,0.030764142,inf,inf,inf,inf,1,1,1,1,2,1,1,1,3,0,0,1
126601630,0,0.0,0.0,-0.028982503,-0.022988012,-0.10035369,-0.030347846,-0.017858354,0.077307485,0.002136473,-0.0006697652,-0.0025908358,-0.002026465,-0.00018158615,-2.7996442e-05,0.003244032,2.1120925,0.21808055,0.41311577,1.571887,0.6213035,0.0,0.10115878,0.043515548,0.016242824,0.13894889,0.030763991,inf,inf,inf,inf,1,1,1,1,2,1,1,1,3,0,0,1
126621615,0,0.0,0.0,-0.029026842,-0.023027644,-0.10038377,-0.030347846,-0.017858354,0.077307485,0.0013070336,-0.0039533386,-0.0055164597,-0.0049363887,-0.00018158615,-2.7996442e-05,0.003244032,-0.13461214,-1.2448066,-0.38035616,1.5709085,0.6213035,0.0,0.10118887,0.043631792,0.016242845,0.1380033,0.030763762,inf,inf,inf,inf,1,1,1,1,2,1,1,1,3,0,0,1
126641601,0,0.0,0.0,-0.029078294,-0.023071203,-0.100404166,-0.030347846,-0.017858354,0.077307485,-0.0057288073,-0.0053372025,-0.004675232,-0.0040792073,-0.00018158615,-2.7996442e-05,0.003244032,-2.8239512,-0.40844652,-0.54708564,1.5714312,0.6213035,0.0,0.10120926,0.043723848,0.016242862,0.13694729,0.030763516,inf,inf,inf,inf,1,1,1,1,2,1,1,1,3,0,0,1
126661584,0,0.0,0.0,-0.029141359,-0.023113675,-0.10041665,-0.030347846,-0.017858354,0.077307485,-0.00020698481,0.0070950314,-0.0008813109,-0.0002691633,-0.00018158615,-2.7996442e-05,0.003244032,-0.030465936,1.0673122,0.1106021,1.5719876,0.6213035,0.0,0.10122175,0.04379271,0.016242873,0.13579321,0.030762982,inf,inf,inf,inf,1,1,1,1,2,1,1,1,3,0,0,1
126681570,0,0.0,0.0,-0.029189775,-0.023161983,-0.10042641,-0.030347846,-0.017858354,0.077307485,0.010632138,-0.00021469545,-0.0029245508,-0.002296059,-0.00018158615,-2.7996442e-05,0.003244032,3.1839256,-1.3849729,-0.21826069,1.5706046,0.6213035,0.0,0.10123151,0.04383952,0.01624288,0.1345558,0.030762937,inf,inf,inf,inf,1,1,1,1,2,1,1,1,3,0,0,1
126701555,0,0.0,0.0,-0.02922766,-0.023213662,-0.100438446,-0.030347846,-0.017858354,0.077307485,6.477608e-05,-0.0026786479,-0.002668471,-0.0020234229,-0.00018158615,-2.7996442e-05,0.003244032,-1.177739,-0.11248179,-0.35714558,1.5720288,0.6213035,0.0,0.10124354,0.043865513,0.016242884,0.13324563,0.03076256,inf,inf,inf,inf,1,1,1,1,2,1,1,1,3,0,0,1
126721541,0,0.0,0.0,-0.029294863,-0.023293186,-0.10046066,-0.030347846,-0.017858354,0.077307485,-0.0036992868,0.0035125122,-0.0009617646,-0.00029986387,-0.00018158615,-2.7996442e-05,0.003244032,-0.70467836,1.830114,0.35619912,1.5709918,0.6213035,0.0,0.10126576,0.043872006,0.016242886,0.1318752,0.030761896,inf,inf,inf,inf,1,1,1,1,2,1,1,1,3,0,0,1
126741527,0,0.0,0.0,-0.02933352,-0.023358738,-0.100468665,-0.030347846,-0.017858354,0.077307485,-0.0028438792,-0.0002853422,-0.0025961436,-0.0019171013,-0.00018158615,-2.7996442e-05,0.003244032,1.2469777,1.0109713,0.3189674,1.5712332,0.6213035,0.0,0.10127376,0.04386034,0.016242882,0.13045527,0.030761942,inf,inf,inf,inf,1,1,1,1,2,1,1,1,3,0,0,1
126761512,0,0.0,0.0,-0.029342808,-0.023397114,-0.10049104,-0.030347846,-0.017858354,0.077307485,0.0050993995,-0.006904532,-0.0025766045,-0.0018803427,-0.00018158615,-2.7996442e-05,0.003244032,0.5033737,-2.0119605,0.20082854,1.5723468,0.6213035,0.0,0.101296134,0.04383187,0.016242875,0.12899582,0.030761499,inf,inf,inf,inf,1,1,1,1,2,1,1,1,3,0,0,1
126781500,0,0.0,0.0,-0.029417329,-0.023457998,-0.10050286,-0.030347846,-0.017858354,0.077307485,-0.009171047,-0.0015332572,-0.005713803,-0.0050001587,-0.00018158615,-2.7996442e-05,0.003244032,-3.3606455,0.85956204,-0.271175,1.5701724,0.6213035,0.0,0.10130796,0.043787934,0.016242865,0.12750538,0.030760795,inf,inf,inf,inf,1,1,1,1,2,1,1,1,3,0,0,1
126801483,0,0.0,0.0,-0.029480085,-0.02347493,-0.10049467,-0.030347846,-0.017858354,0.077307485,0.00017422874,0.0016517015,-0.0014427004,-0.000711454,-0.00018158615,-2.7996442e-05,0.003244032,1.1546209,-0.38634124,-0.38777855,1.5726892,0.6213035,0.0,0.10129976,0.043729853,0.016242852,0.12599301,0.030760445,inf,inf,inf,inf,1,1,1,1,2,1,1,1,3,0,0,1
126821468,0,0.0,0.0,-0.029515412,-0.023543695,-0.100515425,-0.030347846,-0.017858354,0.077307485,0.009549819,-0.00092226994,-0.00113266,-0.00038354786,-0.00018158615,-2.7996442e-05,0.003244032,1.7676554,-0.8421949,0.34711108,1.5711758,0.6213035,0.0,0.10132052,0.043658886,0.016242836,0.1244638,0.03076044,inf,inf,inf,inf,1,1,1,1,2,1,1,1,3,0,0,1
126841455,0,0.0,0.0,-0.029510945,-0.023618989,-0.10049998,-0.030347846,-0.017858354,0.077307485,0.0013782663,-0.00245231,-0.0029402794,-0.002173302,-0.00018158615,-2.7996442e-05,0.003244032,-1.3905392,0.5549278,-0.38784343,1.5708506,0.6213035,0.0,0.101305075,0.043576248,0.016242819,0.122925915,0.030759763,inf,inf,inf,inf,1,1,1,1,2,1,1,1,3,0,0,1
126861439,0,0.0,0.0,-0.029547893,-0.023636382,-0.10051142,-0.030347846,-0.017858354,0.077307485,-0.0017017702,0.00837152,0.001968368,0.0027529963,-0.00018158615,-2.7996442e-05,0.003244032,0.29682156,1.8234779,0.5815762,1.5728434,0.6213035,0.0,0.10131651,0.0434831,0.0162428,0.12138535,0.030759186,inf,inf,inf,inf,1,1,1,1,2,1,1,1,3,0,0,1
126881425,0,0.0,0.0,-0.029585447,-0.023675032,-0.10052057,-0.030347846,-0.017858354,0.077307485,0.009094677,0.0009324745,-0.0016324044,-0.00082976447,-0.00018158615,-2.7996442e-05,0.003244032,4.143131,0.3042619,0.5112714,1.5702509,0.6213035,0.0,0.10132567,0.043380525,0.016242776,0.119845904,0.030759197,inf,inf,inf,inf,1,1,1,1,2,1,1,1,3,0,0,1
126901411,0,0.0,0.0,-0.029603347,-0.023690699,-0.10050256,-0.030347846,-0.017858354,0.077307485,-0.0053937514,-0.0074002664,-0.0026536996,-0.0018327856,-0.00018158615,-2.7996442e-05,0.003244032,-1.9511629,-0.59588224,-0.28150067,1.5721364,0.6213035,0.0,0.10130765,0.043269552,0.016242752,0.11831408,0.030759,inf,inf,inf,inf,1,1,1,1,2,1,1,1,3,0,0,1
126921396,0,0.0,0.0,-0.029679038,-0.02372772,-0.1005067,-0.030347846,-0.017858354,0.077307485,-0.0078799315,0.0019865534,-0.0012980337,-0.00045874855,-0.00018158615,-2.7996442e-05,0.003244032,-1.2484496,1.4032311,0.48746416,1.5715021,0.6213035,0.0,0.101311795,0.04315113,0.01624273,0.11679167,0.030758115,inf,inf,inf,inf,1,1,1,1,2,1,1,1,3,0,0,1
126941383,0,0.0,0.0,-0.029707799,-0.02376039,-0.10049305,-0.030347846,-0.017858354,0.077307485,-0.0023059647,-0.0025265268,-0.003027247,-0.0021693364,-0.00018158615,-2.7996442e-05,0.003244032,1.4535047,-0.4845219,0.051121864,1.5707844,0.6213035,0.0,0.101298146,0.04302614,0.016242705,0.11528503,0.030757803,inf,inf,inf,inf,1,1,1,1,2,1,1,1,3,0,0,1
126961368,0,0.0,0.0,-0.029694237,-0.023790149,-0.10046043,-0.030347846,-0.017858354,0.077307485,0.0045046257,-0.00816539,-0.002113825,-0.0012370356,-0.00018158615,-2.7996442e-05,0.003244032,-0.33774528,-2.4982796,-0.4263762,1.5726113,0.6213035,0.0,0.10126553,0.04289541,0.016242675,0.11379413,0.030757757,inf,inf,inf,inf,1,1,1,1,2,1,1,1,3,0,0,1
126991345,0,0.0,0.0,-0.029797342,-0.023856625,-0.10045144,-0.030347846,-0.017858354,0.077307485,0.0020142756,-0.0023386935,-0.00064593693,0.00025940567,-0.00018158615,-2.7996442e-05,0.003244032,1.6929119,-1.1682479,0.38287586,1.572294,0.6213035,0.0,0.101256534,0.043720383,0.016242668,0.11356933,0.030757526,inf,inf,inf,inf,1,1,1,1,2,1,1,1,3,0,0,1
127001338,0,0.0,0.0,-0.029829776,-0.023861421,-0.10043658,-0.030347846,-0.017858354,0.077307485,-0.0076991525,0.005177602,-0.0009962877,-8.136779e-05,-0.00018158615,-2.7996442e-05,0.003244032,-1.0231551,1.3627449,0.01348431,1.5724677,0.6213035,0.0,0.10124168,0.0426197,0.016242621,0.11087133,0.030756783,inf,inf,inf,inf,1,1,1,1,2,1,1,1,3,0,0,1
127021325,0,0.0,0.0,-0.029880628,-0.023856642,-0.10042309,-0.030347846,-0.017858354,0.077307485,0.0078672515,0.0027367384,-0.0013775772,-0.0004435098,-0.00018158615,-2.7996442e-05,0.003244032,3.0938063,-0.97400063,-0.042403463,1.5716231,0.6213035,0.0,0.101228185,0.04247605,0.016242592,0.10944135,0.030756814,inf,inf,inf,inf,1,1,1,1,2,1,1,1,3,0,0,1
127051302,0,0.0,0.0,-0.029908057,-0.023903634,-0.10038422,-0.030347846,-0.017858354,0.077307485,0.0034482868,0.0008679655,-0.002033876,-0.0010713873,-0.00018158615,-2.7996442e-05,0.003244032,1.9371462,-0.09167838,0.16668876,1.5707922,0.6213035,0.0,0.101189315,0.043252595,0.016242575,0.1092036,0.030756477,inf,inf,inf,inf,1,1,1,1,2,1,1,1,3,0,0,1
127061294,0,0.0,0.0,-0.029912869,-0.02392738,-0.1003659,-0.030347846,-0.017858354,0.077307485,-0.0075972085,0.00072862714,0.0002200943,0.0011919745,-0.00018158615,-2.7996442e-05,0.003244032,-1.8894554,1.1932449,0.12377435,1.5729332,0.6213035,0.0,0.101170994,0.04218006,0.01624253,0.106662534,0.030755669,inf,inf,inf,inf,1,1,1,1,2,1,1,1,3,0,0,1
127081281,0,0.0,0.0,-0.029981486,-0.023952141,-0.10036064,-0.030347846,-0.017858354,0.077307485,-0.006229259,0.0048594996,-0.00070078886,0.00028977398,-0.00018158615,-2.7996442e-05,0.003244032,0.13380143,2.0050528,0.59356385,1.5700886,0.6213035,0.0,0.101165734,0.04202874,0.016242499,0.10531092,0.030755734,inf,inf,inf,inf,1,1,1,1,2,1,1,1,3,0,0,1
127101265,0,0.0,0.0,-0.030012792,-0.023909638,-0.100318305,-0.030347846,-0.017858354,0.077307485,0.0052327267,-0.0063439063,-0.0023525192,-0.001343446,-0.00018158615,-2.7996442e-05,0.003244032,2.5981843,-2.1472652,-0.4741283,1.5720397,0.6213035,0.0,0.1011234,0.041875806,0.016242467,0.10398774,0.03075564,inf,inf,inf,inf,1,1,1,1,2,1,1,1,3,0,0,1
127121251,0,0.0,0.0,-0.030017287,-0.02392235,-0.100332595,-0.030347846,-0.017858354,0.077307485,2.6387479e-05,-0.0043905745,-0.00065257144,0.00037475556,-0.00018158615,-2.7996442e-05,0.003244032,-1.294783,-1.1666495,0.47005612,1.571241,0.6213035,0.0,0.10113769,0.041721646,0.016242439,0.102693476,0.030754827,inf,inf,inf,inf,1,1,1,1,2,1,1,1,3,0,0,1
127141237,0,0.0,0.0,-0.030021306,-0.023957178,-0.100320995,-0.030347846,-0.017858354,0.077307485,-0.00968007,-0.0035807823,-0.0054746205,-0.004429389,-0.00018158615,-2.7996442e-05,0.003244032,-2.9212217,0.73817855,-0.2594031,1.5704756,0.6213035,0.0,0.10112609,0.041566633,0.016242407,0.10142453,0.030754725,inf,inf,inf,inf,1,1,1,1,2,1,1,1,3,0,0,1
127161221,0,0.0,0.0,-0.030063242,-0.023944195,-0.1003128,-0.030347846,-0.017858354,0.077307485,-0.00060073624,0.0043115052,0.00041864315,0.0014812351,-0.00018158615,-2.7996442e-05,0.003244032,0.83298963,-0.030298838,-0.024402704,1.572841,0.6213035,0.0,0.101117894,0.041411076,0.016242376,0.10018607,0.030754644,inf,inf,inf,inf,1,1,1,1,2,1,1,1,3,0,0,1
127191200,0,0.0,0.0,-0.030134758,-0.023942247,-0.10029379,-0.030347846,-0.017858354,0.077307485,-0.0042670732,0.0049603553,-0.00028304264,0.0008043746,-0.00018158615,-2.7996442e-05,0.003244032,0.12612356,1.2304279,0.33389562,1.5722138,0.6213035,0.0,0.10109889,0.042023715,0.01624235,0.09980245,0.030754436,inf,inf,inf,inf,1,1,1,1,2,1,1,1,3,0,0,1
127201193,0,0.0,0.0,-0.030116338,-0.02394204,-0.10027493,-0.030347846,-0.017858354,0.077307485,9.845016e-05,-0.0032699113,-0.0027409596,-0.0016455783,-0.00018158615,-2.7996442e-05,0.003244032,-1.104488,-0.35537562,-0.60862577,1.5719635,0.6213035,0.0,0.10108002,0.0428774,0.016242359,0.100803874,0.03075401,inf,inf,inf,inf,1,1,1,1,2,1,1,1,3,0,0,1
127221178,0,0.0,0.0,-0.030156555,-0.02395563,-0.10027484,-0.030347846,-0.017858354,0.077307485,-0.004526696,0.0065695317,0.000118810436,0.0012295088,-0.00018158615,-2.7996442e-05,0.003244032,-1.3345469,1.8387452,0.62717557,1.5711986,0.6213035,0.0,0.10107993,0.042631652,0.016242325,0.099429354,0.030754104,inf,inf,inf,inf,1,1,1,1,2,1,1,1,3,0,0,1
127241165,0,0.0,0.0,-0.030176748,-0.023958122,-0.100242,-0.030347846,-0.017858354,0.077307485,0.00011903416,0.004764332,-0.0009452473,0.00018003139,-0.00018158615,-2.7996442e-05,0.003244032,2.8604786,1.4161028,0.10718051,1.5705974,0.6213035,0.0,0.10104709,0.04239359,0.016242292,0.09810603,0.03075408,inf,inf,inf,inf,1,1,1,1,2,1,1,1,3,0,0,1
127271142,0,0.0,0.0,-0.030153928,-0.023924248,-0.10023359,-0.030347846,-0.017858354,0.077307485,-0.005853323,0.006611152,-0.0032281433,-0.0020823076,-0.00018158615,-2.7996442e-05,0.003244032,-0.68848306,1.5017362,-0.15349811,1.5715138,0.6213035,0.0,0.10103869,0.042918142,0.01624226,0.09760865,0.030753836,inf,inf,inf,inf,1,1,1,1,2,1,1,1,3,0,0,1
127281135,0,0.0,0.0,-0.030150421,-0.023942659,-0.100253746,-0.030347846,-0.017858354,0.077307485,-0.0027348741,-0.005412602,-0.0045408886,-0.0033885734,-0.00018158615,-2.7996442e-05,0.003244032,-1.3573354,-0.024225278,0.09007296,1.5695938,0.6213035,0.0,0.10105884,0.04180248,0.016242223,0.09529804,0.030753043,inf,inf,inf,inf,1,1,1,1,2,1,1,1,3,0,0,1
127301120,0,0.0,0.0,-0.030160882,-0.023904111,-0.10024076,-0.030347846,-0.017858354,0.077307485,-0.01318867,0.00018158717,-0.00047371825,0.0006909219,-0.00018158615,-2.7996442e-05,0.003244032,-2.0892224,0.8675476,0.16730617,1.5722358,0.6213035,0.0,0.101045854,0.041527428,0.016242187,0.0939945,0.030753167,inf,inf,inf,inf,1,1,1,1,2,1,1,1,3,0,0,1
127331100,0,0.0,0.0,-0.030157523,-0.023897927,-0.10022361,-0.030347846,-0.017858354,0.077307485,-0.004581304,0.0023531388,0.0014804421,0.0026620466,-0.00018158615,-2.7996442e-05,0.003244032,-1.4738073,1.8585931,0.3001453,1.5725852,0.6213035,0.0,0.1010287,0.042053845,0.016242161,0.09363365,0.030752728,inf,inf,inf,inf,1,1,1,1,2,1,1,1,3,0,0,1
127341093,0,0.0,0.0,-0.030155009,-0.023880826,-0.10020393,-0.030347846,-0.017858354,0.077307485,0.0040602395,-0.007580005,-0.003919069,-0.0027320834,-0.00018158615,-2.7996442e-05,0.003244032,0.9007872,-2.426568,-0.8689916,1.5704652,0.6213035,0.0,0.101009026,0.042854723,0.016242165,0.09451795,0.030752618,inf,inf,inf,inf,1,1,1,1,2,1,1,1,3,0,0,1
127361077,0,0.0,0.0,-0.030155256,-0.023879722,-0.10018303,-0.030347846,-0.017858354,0.077307485,-0.0058312737,-0.0006781235,-0.0025643138,-0.0013670448,-0.00018158615,-2.7996442e-05,0.003244032,-3.3256779,-0.3676927,-0.74074036,1.5722699,0.6213035,0.0,0.10098813,0.042510778,0.01624213,0.09314518,0.030752402,inf,inf,inf,inf,1,1,1,1,2,1,1,1,3,0,0,1
127381063,0,0.0,0.0,-0.030176729,-0.023899244,-0.100238934,-0.030347846,-0.017858354,0.077307485,0.0014111543,-0.0063159307,-0.0071036625,-0.0058967033,-0.00018158615,-2.7996442e-05,0.003244032,-0.23885058,-0.05727596,-0.27957287,1.5694312,0.6213035,0.0,0.10104403,0.042185713,0.016242098,0.091843635,0.030752521,inf,inf,inf,inf,1,1,1,1,2,1,1,1,3,0,0,1
127411041,0,0.0,0.0,-0.030131167,-0.023829352,-0.10038279,-0.030347846,-0.017858354,0.077307485,0.013652774,-0.009140135,-0.015587088,-0.014366792,-0.00018158615,-2.7996442e-05,0.003244032,1.0225812,-1.668977,-0.98966825,1.5708002,0.6213035,0.0,0.101187885,0.040834628,0.016242035,0.08861839,0.030751944,inf,inf,inf,inf,1,1,1,1,2,1,1,1,3,0,0,1
127421033,0,0.0,0.0,-0.030018037,-0.023896879,-0.10055844,-0.030347846,-0.017858354,0.077307485,0.008037424,-0.0023668539,-0.022787014,-0.021562757,-0.00018158615,-2.7996442e-05,0.003244032,-0.36309275,1.3616321,-0.45347086,1.5702835,0.6213035,0.0,0.10136353,0.04158572,0.016242035,0.08943903,0.030751936,inf,inf,inf,inf,1,1,1,1,2,1,1,1,3,0,0,1
127441019,0,0.0,0.0,-0.029702615,-0.023901599,-0.10119608,-0.030347846,-0.017858354,0.077307485,0.024597943,0.0024374032,-0.03736372,-0.036132388,-0.00018158615,-2.7996442e-05,0.003244032,0.75314116,1.3494024,0.5294915,1.5716082,0.6213035,0.0,0.102001175,0.041245367,0.016242005,0.08819153,0.03075158,inf,inf,inf,inf,1,1,1,1,2,1,1,1,3,0,0,1
127470997,0,0.0,0.0,-0.028835706,-0.023510491,-0.10194977,-0.030347846,-0.017858354,0.077307485,0.0317593,0.018236456,-0.024177121,-0.022939472,-0.00018158615,-2.7996442e-05,0.003244032,1.1623394,0.60513604,-0.3955132,1.5698117,0.6213035,0.0,0.10275486,0.04166219,0.016241975,0.08780883,0.030751355,inf,inf,inf,inf,1,1,1,1,2,1,1,1,3,0,0,1
127480990,0,0.0,0.0,-0.028497048,-0.02336434,-0.102217905,-0.030347846,-0.017858354,0.077307485,0.034954242,0.008096623,-0.033509653,-0.03227223,-0.00018158615,-2.7996442e-05,0.003244032,0.6045444,-1.346359,-0.9823136,1.5695374,0.6213035,0.0,0.103023,0.040622517,0.016241942,0.08590308,0.030751633,inf,inf,inf,inf,1,1,1,1,2,1,1,1,3,0,0,1
127500975,0,0.0,0.0,-0.027651846,-0.023251973,-0.10304937,-0.030347846,-0.017858354,0.077307485,0.047294024,0.005462702,-0.050447352,-0.04921433,-0.00018158615,-2.7996442e-05,0.003244032,0.33778608,0.1531771,-0.23811075,1.5677644,0.6213035,0.0,0.10385446,0.042084806,0.016241943,0.08746373,0.030751288,inf,inf,inf,inf,1,1,1,1,2,1,1,1,3,0,0,1
127520961,0,0.0,0.0,-0.02675193,-0.023068585,-0.10388698,-0.030347846,-0.017858354,0.077307485,0.043500822,0.015116002,-0.028468408,-0.027248755,-0.00018158615,-2.7996442e-05,0.003244032,0.224065,0.5054805,1.6935306,1.5677279,0.6213035,0.0,0.10469207,0.041716285,0.016241916,0.08626078,0.030751113,inf,inf,inf,inf,1,1,1,1,2,1,1,1,3,0,0,1
127550939,0,0.0,0.0,-0.025354145,-0.022833697,-0.10447061,-0.030347846,-0.017858354,0.077307485,0.040649667,-0.0018344554,-0.019306669,-0.018127274,-0.00018158615,-2.7996442e-05,0.003244032,-0.7350583,-0.56518114,0.14964747,1.5682217,0.6213035,0.0,0.105275705,0.042030815,0.016241886,0.08575735,0.030751329,inf,inf,inf,inf,1,1,1,1,2,1,1,1,3,0,0,1
127560931,0,0.0,0.0,-0.024961641,-0.022844248,-0.1046347,-0.030347846,-0.017858354,0.077307485,0.029775947,-0.0034245723,-0.012525636,-0.011366169,-0.00018158615,-2.7996442e-05,0.003244032,-1.3273606,-0.44434544,0.89419866,1.5687078,0.6213035,0.0,0.1054398,0.04093111,0.01624186,0.08383455,0.030750643,inf,inf,inf,inf,1,1,1,1,2,1,1,1,3,0,0,1
127580919,0,0.0,0.0,-0.024496788,-0.022763116,-0.104735166,-0.030347846,-0.017858354,0.077307485,0.015085436,0.0009014994,-0.0027937924,-0.0016833631,-0.00018158615,-2.7996442e-05,0.003244032,-0.30069983,-0.7000144,-0.20052235,1.5693873,0.6213035,0.0,0.10554026,0.040576875,0.016241828,0.08273577,0.030751498,inf,inf,inf,inf,1,1,1,1,2,1,1,1,3,0,0,1
127610895,0,0.0,0.0,-0.023736754,-0.022837402,-0.105295606,-0.030347846,-0.017858354,0.077307485,0.023497382,0.0006767487,-0.015162013,-0.014143613,-0.00018158615,-2.7996442e-05,0.003244032,0.29779875,1.026069,1.6972132,1.5700372,0.6213035,0.0,0.1061007,0.040931366,0.01624181,0.08242,0.03075148,inf,inf,inf,inf,1,1,1,1,2,1,1,1,3,0,0,1
127620889,0,0.0,0.0,-0.023448687,-0.02284124,-0.1053383,-0.030347846,-0.017858354,0.077307485,0.025112908,-0.0023869958,0.010124499,0.011109407,-0.00018158615,-2.7996442e-05,0.003244032,0.46972945,-0.06803253,2.6227326,1.5690389,0.6213035,0.0,0.10614339,0.041627105,0.016241813,0.083140686,0.030751267,inf,inf,inf,inf,1,1,1,1,2,1,1,1,3,0,0,1
127640873,0,0.0,0.0,-0.022804659,-0.022842782,-0.10517279,-0.030347846,-0.017858354,0.077307485,0.029617097,-0.0027417412,-0.0011798493,-0.0002647321,-0.00018158615,-2.7996442e-05,0.003244032,0.33566424,-0.33653066,-1.2358127,1.5692543,0.6213035,0.0,0.105977885,0.04123853,0.016241789,0.08204544,0.030750776,inf,inf,inf,inf,1,1,1,1,2,1,1,1,3,0,0,1
127660859,0,0.0,0.0,-0.021888053,-0.022891568,-0.10530647,-0.030347846,-0.017858354,0.077307485,0.046941787,-0.0072920206,-0.0109213935,-0.010077322,-0.00018158615,-2.7996442e-05,0.003244032,0.7118962,-0.5429603,-0.89116156,1.568608,0.6213035,0.0,0.106111564,0.040875614,0.016241767,0.08101503,0.030751081,inf,inf,inf,inf,1,1,1,1,2,1,1,1,3,0,0,1
127690837,0,0.0,0.0,-0.020118304,-0.023215277,-0.10582643,-0.030347846,-0.017858354,0.077307485,0.052419573,-0.006685931,-0.023852678,-0.023108738,-0.00018158615,-2.7996442e-05,0.003244032,-0.19936807,0.39013204,-0.96212274,1.5660503,0.6213035,0.0,0.106631525,0.039562955,0.016241724,0.07848052,0.030749945,inf,inf,inf,inf,1,1,1,1,2,1,1,1,3,0,0,1
127700830,0,0.0,0.0,-0.019492298,-0.023279877,-0.10607224,-0.030347846,-0.017858354,0.077307485,0.059338495,-0.006378052,-0.02026388,-0.019549996,-0.00018158615,-2.7996442e-05,0.003244032,0.9614163,0.017914802,0.66145384,1.566538,0.6213035,0.0,0.106877334,0.040217243,0.016241718,0.07916118,0.030749716,inf,inf,inf,inf,1,1,1,1,2,1,1,1,3,0,0,1
127720816,0,0.0,0.0,-0.018163243,-0.023386816,-0.10648616,-0.030347846,-0.017858354,0.077307485,0.055708483,-0.006456782,-0.020083312,-0.019424174,-0.00018158615,-2.7996442e-05,0.003244032,-0.63011616,-0.18330672,-0.035606872,1.5660983,0.6213035,0.0,0.10729125,0.03991794,0.016241685,0.07831371,0.030749392,inf,inf,inf,inf,1,1,1,1,2,1,1,1,3,0,0,1
127750797,0,0.0,0.0,-0.016114086,-0.023697503,-0.107478134,-0.030347846,-0.017858354,0.077307485,0.067968816,-0.00930509,-0.057338767,-0.05675039,-0.00018158615,-2.7996442e-05,0.003244032,0.6936422,0.17780407,-2.3115368,1.5654788,0.6213035,0.0,0.10828323,0.03874113,0.016241614,0.07611178,0.030748222,inf,inf,inf,inf,1,1,1,1,2,1,1,1,3,0,0,1
127760788,0,0.0,0.0,-0.015321807,-0.023808025,-0.108147986,-0.030347846,-0.017858354,0.077307485,0.0721383,-0.011238135,-0.071662754,-0.07109595,-0.00018158615,-2.7996442e-05,0.003244032,0.010103396,-0.3119027,-0.984363,1.5654547,0.6213035,0.0,0.10895308,0.039370634,0.016241595,0.07676255,0.03074839,inf,inf,inf,inf,1,1,1,1,2,1,1,1,3,0,0,1
127780773,0,0.0,0.0,-0.013775375,-0.024090102,-0.10962818,-0.030347846,-0.017858354,0.077307485,0.06558081,-0.013802043,-0.07577049,-0.07524637,-0.00018158615,-2.7996442e-05,0.003244032,-0.054837123,-0.26045224,-0.73655814,1.5642283,0.6213035,0.0,0.11043327,0.03911977,0.016241547,0.07605045,0.030748185,inf,inf,inf,inf,1,1,1,1,2,1,1,1,3,0,0,1
127800758,0,0.0,0.0,-0.012100738,-0.024397768,-0.111367844,-0.030347846,-0.017858354,0.077307485,0.07679104,-0.01646471,-0.09141652,-0.09093837,-0.00018158615,-2.7996442e-05,0.003244032,-0.2943424,-0.57617027,-0.110248975,1.5629,0.6213035,0.0,0.11217294,0.038882602,0.016241498,0.0753807,0.030748049,inf,inf,inf,inf,1,1,1,1,2,1,1,1,3,0,0,1
127820743,0,0.0,0.0,-0.010277436,-0.024841996,-0.11327814,-0.030347846,-0.017858354,0.077307485,0.079339676,-0.021360887,-0.106885895,-0.106467456,-0.00018158615,-2.7996442e-05,0.003244032,-0.052946996,0.07212389,-2.0886908,1.5627309,0.6213035,0.0,0.11408324,0.038658038,0.01624145,0.07473783,0.03074826,inf,inf,inf,inf,1,1,1,1,2,1,1,1,3,0,0,1
127840728,0,0.0,0.0,-0.008367818,-0.025270384,-0.115796536,-0.030347846,-0.017858354,0.077307485,0.089053996,-0.0185274,-0.1260109,-0.12566938,-0.00018158615,-2.7996442e-05,0.003244032,0.49288,-0.122025244,0.59339696,1.5619516,0.6213035,0.0,0.11660163,0.038445055,0.016241407,0.07412873,0.030748678,inf,inf,inf,inf,1,1,1,1,2,1,1,1,3,0,0,1
127860715,0,0.0,0.0,-0.0063942233,-0.025733015,-0.1183414,-0.030347846,-0.017858354,0.077307485,0.08197477,-0.019467713,-0.13061716,-0.13037229,-0.00018158615,-2.7996442e-05,0.003244032,-0.90375525,0.36120996,-1.7032502,1.5607773,0.6213035,0.0,0.119146496,0.038199473,0.016241372,0.073467046,0.030748688,inf,inf,inf,inf,1,1,1,1,2,1,1,1,3,0,0,1
127890693,0,0.0,0.0,-0.003494253,-0.026462011,-0.12316622,-0.030347846,-0.017858354,0.077307485,0.09062277,-0.021970566,-0.16567332,-0.16563395,-0.00018158615,-2.7996442e-05,0.003244032,0.73681796,0.008535328,-0.07680052,1.5597287,0.6213035,0.0,0.12397131,0.038564447,0.016241321,0.073456585,0.030748935,inf,inf,inf,inf,1,1,1,1,2,1,1,1,3,0,0,1
127900687,0,0.0,0.0,-0.002466973,-0.0267549,-0.12490102,-0.030347846,-0.017858354,0.077307485,0.090076804,-0.028678987,-0.16470475,-0.16474825,-0.00018158615,-2.7996442e-05,0.003244032,0.2634133,-0.72603256,0.31294513,1.5592068,0.6213035,0.0,0.1257061,0.03916932,0.016241306,0.074069016,0.030749181,inf,inf,inf,inf,1,1,1,1,2,1,1,1,3,0,0,1
127920671,0,0.0,0.0,-0.00036392963,-0.027497731,-0.12858427,-0.030347846,-0.017858354,0.077307485,0.09250182,-0.036276463,-0.19214238,-0.19238873,-0.00018158615,-2.7996442e-05,0.003244032,0.30730215,-0.4776468,-2.1243925,1.5585049,0.6213035,0.0,0.12938936,0.03889329,0.016241277,0.07338444,0.03074992,inf,inf,inf,inf,1,1,1,1,2,1,1,1,3,0,0,1
127940658,0,0.0,0.0,0.0018949952,-0.028341748,-0.13308178,-0.030347846,-0.017858354,0.077307485,0.10218559,-0.037216693,-0.23147826,-0.23197223,-0.00018158615,-2.7996442e-05,0.003244032,0.7523438,-0.34638026,-1.5864886,1.5585462,0.6213035,0.0,0.13388687,0.03863336,0.016241256,0.07274301,0.030750519,inf,inf,inf,inf,1,1,1,1,2,1,1,1,3,0,0,1
127960641,0,0.0,0.0,0.0043218485,-0.02921876,-0.13812168,-0.030347846,-0.017858354,0.077307485,0.10940994,-0.039354745,-0.23788662,-0.23867422,-0.00018158615,-2.7996442e-05,0.003244032,0.8354049,-0.007847472,0.4987704,1.5580239,0.6213035,0.0,0.13892677,0.03838835,0.01624124,0.07213999,0.030751066,inf,inf,inf,inf,1,1,1,1,2,1,1,1,3,0,0,1
127980627,0,0.0,0.0,0.00682503,-0.030108185,-0.14330459,-0.030347846,-0.017858354,0.077307485,0.10428425,-0.03616006,-0.25255,-0.25368026,-0.00018158615,-2.7996442e-05,0.003244032,-0.66524285,-0.024744224,-1.3479271,1.5579436,0.6213035,0.0,0.14410968,0.038157083,0.01624123,0.07157181,0.0307517,inf,inf,inf,inf,1,1,1,1,2,1,1,1,3,0,0,1
128000613,0,0.0,0.0,0.00928745,-0.030901033,-0.14878133,-0.030347846,-0.017858354,0.077307485,0.109948166,-0.031634167,-0.2488219,-0.2503459,-0.00018158615,-2.7996442e-05,0.003244032,0.59273374,-0.0914921,0.6106858,1.5582016,0.6213035,0.0,0.14958642,0.03793855,0.01624123,0.07103771,0.030752746,inf,inf,inf,inf,1,1,1,1,2,1,1,1,3,0,0,1
128030593,0,0.0,0.0,0.013221518,-0.032142527,-0.15756948,-0.030347846,-0.017858354,0.077307485,0.11739699,-0.031466134,-0.29534817,-0.29756397,-0.00018158615,-2.7996442e-05,0.003244032,0.669281,-0.15962182,-1.4192916,1.5571779,0.6213035,0.0,0.15837458,0.036974028,0.01624124,0.06947647,0.03075328,inf,inf,inf,inf,1,1,1,1,2,1,1,1,3,0,0,1
128040584,0,0.0,0.0,0.014604628,-0.03253772,-0.16081508,-0.030347846,-0.017858354,0.077307485,0.12083582,-0.02906794,-0.2973899,-0.29986244,-0.00018158615,-2.7996442e-05,0.003244032,0.30057696,0.21971191,0.26263297,1.5571777,0.6213035,0.0,0.16162017,0.037536018,0.01624125,0.07005457,0.030754084,inf,inf,inf,inf,1,1,1,1,2,1,1,1,3,0,0,1
128060569,0,0.0,0.0,0.017469132,-0.03335394,-0.16715005,-0.030347846,-0.017858354,0.077307485,0.12239965,-0.031410817,-0.2785033,-0.281522,-0.00018158615,-2.7996442e-05,0.003244032,-0.6494516,-0.007762317,0.76421773,1.5577135,0.6213035,0.0,0.16795515,0.037311763,0.01624127,0.06953119,0.030754833,inf,inf,inf,inf,1,1,1,1,2,1,1,1,3,0,0,1
128080556,0,0.0,0.0,0.020243928,-0.034176555,-0.173215,-0.030347846,-0.017858354,0.077307485,0.115863964,-0.030020215,-0.26338652,-0.26700446,-0.00018158615,-2.7996442e-05,0.003244032,0.00062574056,0.1075945,0.48721984,1.5576135,0.6213035,0.0,0.1740201,0.037100047,0.0162413,0.06903782,0.030755812,inf,inf,inf,inf,1,1,1,1,2,1,1,1,3,0,0,1
128100540,0,0.0,0.0,0.023014242,-0.034991845,-0.17918462,-0.030347846,-0.017858354,0.077307485,0.12004226,-0.029998666,-0.26224077,-0.26650715,-0.00018158615,-2.7996442e-05,0.003244032,0.11336851,-0.34452903,-0.09398248,1.5584468,0.6213035,0.0,0.17998971,0.03689995,0.016241342,0.06857986,0.030757854,inf,inf,inf,inf,1,1,1,1,2,1,1,1,3,0,0,1
128120528,0,0.0,0.0,0.025806893,-0.03583089,-0.18529092,-0.030347846,-0.017858354,0.077307485,0.11364554,-0.03204967,-0.2704371,-0.27539635,-0.00018158615,-2.7996442e-05,0.003244032,-0.6744208,-0.48554096,-0.2676509,1.5599405,0.6213035,0.0,0.18609601,0.03671064,0.016241401,0.06814639,0.030759152,inf,inf,inf,inf,1,1,1,1,2,1,1,1,3,0,0,1
128140512,0,0.0,0.0,0.028477676,-0.036700666,-0.19147411,-0.030347846,-0.017858354,0.077307485,0.10807518,-0.032402992,-0.25786495,-0.26355785,-0.00018158615,-2.7996442e-05,0.003244032,-0.38423547,-0.23040159,1.3267618,1.5602976,0.6213035,0.0,0.1922792,0.036531404,0.01624147,0.06773142,0.030759664,inf,inf,inf,inf,1,1,1,1,2,1,1,1,3,0,0,1
128170489,0,0.0,0.0,0.03213564,-0.03794642,-0.20038271,-0.030347846,-0.017858354,0.077307485,0.09857258,-0.023198133,-0.2609576,-0.2677867,-0.00018158615,-2.7996442e-05,0.003244032,0.50550723,0.4869992,-0.87584823,1.561245,0.6213035,0.0,0.2011878,0.036901303,0.016241586,0.06789156,0.030760132,inf,inf,inf,inf,1,1,1,1,2,1,1,1,3,0,0,1
128180483,0,0.0,0.0,0.033353515,-0.03831159,-0.2034224,-0.030347846,-0.017858354,0.077307485,0.09843886,-0.023475345,-0.25102398,-0.2582376,-0.00018158615,-2.7996442e-05,0.003244032,-0.2443813,0.11444361,1.4039814,1.5617832,0.6213035,0.0,0.20422749,0.036200542,0.016241621,0.06697097,0.030760664,inf,inf,inf,inf,1,1,1,1,2,1,1,1,3,0,0,1
128200468,0,0.0,0.0,0.035740994,-0.038935453,-0.20951596,-0.030347846,-0.017858354,0.077307485,0.098710746,-0.010198128,-0.2675897,-0.27556446,-0.00018158615,-2.7996442e-05,0.003244032,0.3239252,1.1065212,-0.79721063,1.5626268,0.6213035,0.0,0.21032105,0.037279103,0.016241714,0.06807756,0.030762643,inf,inf,inf,inf,1,1,1,1,2,1,1,1,3,0,0,1
128220455,0,0.0,0.0,0.038135465,-0.039360233,-0.2156622,-0.030347846,-0.017858354,0.077307485,0.09200146,-0.0055270437,-0.24963415,-0.25835845,-0.00018158615,-2.7996442e-05,0.003244032,-0.8349551,0.2184224,0.71695095,1.5627512,0.6213035,0.0,0.21646729,0.03708244,0.016241813,0.067650236,0.03076249,inf,inf,inf,inf,1,1,1,1,2,1,1,1,3,0,0,1
128240439,0,0.0,0.0,0.0402831,-0.039661426,-0.22157432,-0.030347846,-0.017858354,0.077307485,0.08033706,-2.4382287e-05,-0.2470384,-0.25649467,-0.00018158615,-2.7996442e-05,0.003244032,-0.78160024,0.32147914,-0.36535656,1.5636569,0.6213035,0.0,0.22237942,0.036896475,0.01624191,0.06724352,0.030761892,inf,inf,inf,inf,1,1,1,1,2,1,1,1,3,0,0,1
128260424,0,0.0,0.0,0.042255502,-0.03980639,-0.22772986,-0.030347846,-0.017858354,0.077307485,0.07809088,0.0099155735,-0.2742243,-0.28438848,-0.00018158615,-2.7996442e-05,0.003244032,0.16144395,0.4536239,-1.8772104,1.5637754,0.6213035,0.0,0.22853495,0.036720466,0.016242003,0.06686206,0.030761836,inf,inf,inf,inf,1,1,1,1,2,1,1,1,3,0,0,1
128280410,0,0.0,0.0,0.044185333,-0.039798297,-0.23434588,-0.030347846,-0.017858354,0.077307485,0.07209293,0.016217254,-0.28804094,-0.29887524,-0.00018158615,-2.7996442e-05,0.003244032,-0.5123596,0.8101431,-1.1289636,1.5653458,0.6213035,0.0,0.23515098,0.03651879,0.016242094,0.06644249,0.030762253,inf,inf,inf,inf,1,1,1,1,2,1,1,1,3,0,0,1
128310387,0,0.0,0.0,0.04675133,-0.039372068,-0.24492864,-0.030347846,-0.017858354,0.077307485,0.0582477,0.032906003,-0.30641124,-0.31819576,-0.00018158615,-2.7996442e-05,0.003244032,-1.3271464,1.0462984,-1.6305053,1.5689365,0.6213035,0.0,0.24573374,0.03685594,0.016242243,0.06657296,0.030762732,inf,inf,inf,inf,1,1,1,1,2,1,1,1,3,0,0,1
128320384,0,0.0,0.0,0.04743076,-0.039093375,-0.24859005,-0.030347846,-0.017858354,0.077307485,0.04702266,0.041617416,-0.32354236,-0.3356295,-0.00018158615,-2.7996442e-05,0.003244032,-0.7821735,0.7653324,-0.7303239,1.570036,0.6213035,0.0,0.24939515,0.03614832,0.016242284,0.06566674,0.0307623,inf,inf,inf,inf,1,1,1,1,2,1,1,1,3,0,0,1
128340365,0,0.0,0.0,0.04840291,-0.03836317,-0.2560049,-0.030347846,-0.017858354,0.077307485,0.025781961,0.051580925,-0.33818263,-0.35084596,-0.00018158615,-2.7996442e-05,0.003244032,0.08725353,0.6757648,-2.3544483,1.5715313,0.6213035,0.0,0.25681,0.035978023,0.016242372,0.065321885,0.030762605,inf,inf,inf,inf,1,1,1,1,2,1,1,1,3,0,0,1
128360351,0,0.0,0.0,0.049078505,-0.037536882,-0.2637771,-0.030347846,-0.017858354,0.077307485,0.0126100965,0.045542434,-0.34375173,-0.35695675,-0.00018158615,-2.7996442e-05,0.003244032,-0.8026578,-0.15021917,-0.65501446,1.5736758,0.6213035,0.0,0.26458222,0.035816837,0.01624246,0.06498841,0.03076264,inf,inf,inf,inf,1,1,1,1,2,1,1,1,3,0,0,1
128380336,0,0.0,0.0,0.049401782,-0.036727548,-0.27204236,-0.030347846,-0.017858354,0.077307485,0.0003465052,0.042076226,-0.37757272,-0.3912881,-0.00018158615,-2.7996442e-05,0.003244032,-0.6855405,-0.73848486,0.30723464,1.5749613,0.6213035,0.0,0.27284747,0.035664175,0.016242543,0.06467758,0.030762795,inf,inf,inf,inf,1,1,1,1,2,1,1,1,3,0,0,1
128400322,0,0.0,0.0,0.049433775,-0.03591153,-0.2808382,-0.030347846,-0.017858354,0.077307485,-0.01334623,0.04510595,-0.3981976,-0.41240108,-0.00018158615,-2.7996442e-05,0.003244032,-0.45237142,0.055447027,1.5892535,1.5776933,0.6213035,0.0,0.28164327,0.035519473,0.016242623,0.064375885,0.030762527,inf,inf,inf,inf,1,1,1,1,2,1,1,1,3,0,0,1
128420308,0,0.0,0.0,0.049188595,-0.035041742,-0.2899657,-0.030347846,-0.017858354,0.077307485,-0.021793513,0.043630473,-0.4109762,-0.42565906,-0.00018158615,-2.7996442e-05,0.003244032,0.038016327,-0.21476977,1.7046503,1.5793122,0.6213035,0.0,0.29077077,0.03538223,0.016242698,0.06410227,0.030763244,inf,inf,inf,inf,1,1,1,1,2,1,1,1,3,0,0,1
128450286,0,0.0,0.0,0.048328582,-0.033801638,-0.30411726,-0.030347846,-0.017858354,0.077307485,-0.04317089,0.039830927,-0.4180531,-0.43342733,-0.00018158615,-2.7996442e-05,0.003244032,-1.0150305,0.38198173,0.12974824,1.5824051,0.6213035,0.0,0.30492234,0.03575525,0.01624282,0.064365506,0.030764965,inf,inf,inf,inf,1,1,1,1,2,1,1,1,3,0,0,1
128460279,0,0.0,0.0,0.04780872,-0.033340503,-0.30876818,-0.030347846,-0.017858354,0.077307485,-0.052176658,0.047076046,-0.41684765,-0.43244964,-0.00018158615,-2.7996442e-05,0.003244032,-0.38968363,0.679562,0.21390127,1.5833077,0.6213035,0.0,0.3095733,0.03512853,0.01624286,0.0636192,0.030765543,inf,inf,inf,inf,1,1,1,1,2,1,1,1,3,0,0,1
128480264,0,0.0,0.0,0.04664165,-0.032401722,-0.31793123,-0.030347846,-0.017858354,0.077307485,-0.05861646,0.037029963,-0.4085587,-0.42460987,-0.00018158615,-2.7996442e-05,0.003244032,-0.7400808,-0.9395142,-0.5791845,1.583121,0.6213035,0.0,0.3187363,0.03501128,0.016242947,0.06337862,0.030765405,inf,inf,inf,inf,1,1,1,1,2,1,1,1,3,0,0,1
128510242,0,0.0,0.0,0.04463304,-0.031153994,-0.3321466,-0.030347846,-0.017858354,0.077307485,-0.05913931,0.036984965,-0.43241096,-0.44912928,-0.00018158615,-2.7996442e-05,0.003244032,0.10236318,0.6951701,-2.1139956,1.5858257,0.6213035,0.0,0.33295172,0.03539538,0.016243076,0.06367805,0.030766545,inf,inf,inf,inf,1,1,1,1,2,1,1,1,3,0,0,1
128520236,0,0.0,0.0,0.0438948,-0.030723317,-0.33694783,-0.030347846,-0.017858354,0.077307485,-0.06685719,0.03604775,-0.42310485,-0.44003698,-0.00018158615,-2.7996442e-05,0.003244032,-0.6931466,-0.45707503,2.7295368,1.5863804,0.6213035,0.0,0.33775294,0.035897512,0.016243124,0.06418377,0.030767284,inf,inf,inf,inf,1,1,1,1,2,1,1,1,3,0,0,1
128540222,0,0.0,0.0,0.042140868,-0.029743003,-0.34620953,-0.030347846,-0.017858354,0.077307485,-0.076515086,0.043294314,-0.41363558,-0.43099725,-0.00018158615,-2.7996442e-05,0.003244032,-0.27590594,-0.42204732,1.1479043,1.5870365,0.6213035,0.0,0.3470146,0.03575583,0.016243216,0.06393239,0.030769415,inf,inf,inf,inf,1,1,1,1,2,1,1,1,3,0,0,1
128560206,0,0.0,0.0,0.04016291,-0.028834254,-0.35547835,-0.030347846,-0.017858354,0.077307485,-0.077035345,0.031907104,-0.43601266,-0.45380068,-0.00018158615,-2.7996442e-05,0.003244032,0.52956784,-0.6760613,-2.686461,1.5878841,0.6213035,0.0,0.35628343,0.035621624,0.016243324,0.06369506,0.03077153,inf,inf,inf,inf,1,1,1,1,2,1,1,1,3,0,0,1
128590184,0,0.0,0.0,0.037139542,-0.027964339,-0.37004858,-0.030347846,-0.017858354,0.077307485,-0.08229941,0.018791655,-0.43785015,-0.45625487,-0.00018158615,-2.7996442e-05,0.003244032,0.12988299,0.44713345,-0.62133366,1.5896252,0.6213035,0.0,0.37085366,0.035963036,0.016243514,0.06390596,0.030773126,inf,inf,inf,inf,1,1,1,1,2,1,1,1,3,0,0,1
128600177,0,0.0,0.0,0.036039688,-0.027688853,-0.3749067,-0.030347846,-0.017858354,0.077307485,-0.08067199,0.013999248,-0.43230188,-0.4509117,-0.00018158615,-2.7996442e-05,0.003244032,0.17068109,-0.8504239,1.1889292,1.5901276,0.6213035,0.0,0.3757118,0.03531381,0.01624357,0.06314857,0.030774591,inf,inf,inf,inf,1,1,1,1,2,1,1,1,3,0,0,1
128620163,0,0.0,0.0,0.033898886,-0.027368166,-0.38455448,-0.030347846,-0.017858354,0.077307485,-0.06931839,-0.0007836237,-0.45204017,-0.47104245,-0.00018158615,-2.7996442e-05,0.003244032,0.76912004,-0.5588967,-2.5639663,1.5913215,0.6213035,0.0,0.3853596,0.035172198,0.016243707,0.062873915,0.030774083,inf,inf,inf,inf,1,1,1,1,2,1,1,1,3,0,0,1
128650140,0,0.0,0.0,0.030775247,-0.027135434,-0.39924717,-0.030347846,-0.017858354,0.077307485,-0.066301756,-0.0017949885,-0.44691512,-0.46645963,-0.00018158615,-2.7996442e-05,0.003244032,0.88876534,-0.5224088,-1.5656437,1.5924356,0.6213035,0.0,0.40005225,0.03552863,0.0162439,0.06311251,0.030773971,inf,inf,inf,inf,1,1,1,1,2,1,1,1,3,0,0,1
128660134,0,0.0,0.0,0.029727018,-0.027101306,-0.40421155,-0.030347846,-0.017858354,0.077307485,-0.06307337,-0.01508367,-0.44981825,-0.46953192,-0.00018158615,-2.7996442e-05,0.003244032,0.37127215,-1.5806375,0.031253655,1.5926383,0.6213035,0.0,0.40501666,0.03491078,0.016243953,0.06240948,0.03077488,inf,inf,inf,inf,1,1,1,1,2,1,1,1,3,0,0,1
128680119,0,0.0,0.0,0.02755715,-0.027282935,-0.4143113,-0.030347846,-0.017858354,0.077307485,-0.064568795,-0.018894358,-0.47165045,-0.49167818,-0.00018158615,-2.7996442e-05,0.003244032,0.53111607,0.3202414,-1.2634389,1.5930248,0.6213035,0.0,0.41511637,0.034790285,0.016244084,0.062189717,0.030774686,inf,inf,inf,inf,1,1,1,1,2,1,1,1,3,0,0,1
128700105,0,0.0,0.0,0.025386123,-0.02744895,-0.42449042,-0.030347846,-0.017858354,0.077307485,-0.06356187,-0.01763564,-0.45865363,-0.47896412,-0.00018158615,-2.7996442e-05,0.003244032,0.5578019,0.57537574,-0.7491429,1.5924777,0.6213035,0.0,0.42529553,0.03467603,0.016244205,0.06196584,0.030772708,inf,inf,inf,inf,1,1,1,1,2,1,1,1,3,0,0,1
128730083,0,0.0,0.0,0.02258661,-0.027810015,-0.44017014,-0.030347846,-0.017858354,0.077307485,-0.03362073,-0.026250158,-0.49943247,-0.52007717,-0.00018158615,-2.7996442e-05,0.003244032,1.1404431,0.009024115,-2.5730083,1.5917503,0.6213035,0.0,0.44097525,0.036144853,0.016244382,0.06344796,0.03077442,inf,inf,inf,inf,1,1,1,1,2,1,1,1,3,0,0,1
128740076,0,0.0,0.0,0.021867227,-0.02802749,-0.44564444,-0.030347846,-0.017858354,0.077307485,-0.017309178,-0.03374627,-0.510654,-0.5313884,-0.00018158615,-2.7996442e-05,0.003244032,1.5542305,-0.4889021,-0.5751656,1.5918703,0.6213035,0.0,0.44644952,0.03547546,0.016244428,0.06266269,0.030775245,inf,inf,inf,inf,1,1,1,1,2,1,1,1,3,0,0,1
128760061,0,0.0,0.0,0.020568168,-0.028632654,-0.45668754,-0.030347846,-0.017858354,0.077307485,-0.019678427,-0.041931845,-0.5072706,-0.5281636,-0.00018158615,-2.7996442e-05,0.003244032,-0.17695247,0.0064184912,0.9215615,1.5908643,0.6213035,0.0,0.45749265,0.03531169,0.01624455,0.062378053,0.030774407,inf,inf,inf,inf,1,1,1,1,2,1,1,1,3,0,0,1
128790041,0,0.0,0.0,0.018842809,-0.029613588,-0.47284472,-0.030347846,-0.017858354,0.077307485,0.0060534226,-0.03947347,-0.49222425,-0.51331204,-0.00018158615,-2.7996442e-05,0.003244032,0.62852734,-0.31371284,0.97727555,1.5897424,0.6213035,0.0,0.4736498,0.03564296,0.016244723,0.06260926,0.030775543,inf,inf,inf,inf,1,1,1,1,2,1,1,1,3,0,0,1
128800032,0,0.0,0.0,0.018435229,-0.029997904,-0.4781104,-0.030347846,-0.017858354,0.077307485,0.01454386,-0.044366006,-0.48690575,-0.5080501,-0.00018158615,-2.7996442e-05,0.003244032,1.1350186,-0.2799418,0.15240632,1.5893463,0.6213035,0.0,0.4789155,0.035010565,0.016244773,0.061873965,0.030775141,inf,inf,inf,inf,1,1,1,1,2,1,1,1,3,0,0,1
128820018,0,0.0,0.0,0.017932763,-0.030882016,-0.48886514,-0.030347846,-0.017858354,0.077307485,0.03922208,-0.048686385,-0.5122522,-0.53349763,-0.00018158615,-2.7996442e-05,0.003244032,1.4469501,-0.09754838,-0.789025,1.5887707,0.6213035,0.0,0.48967022,0.034872152,0.016244879,0.061646253,0.030773617,inf,inf,inf,inf,1,1,1,1,2,1,1,1,3,0,0,1
128840003,0,0.0,0.0,0.01779033,-0.031946287,-0.49968538,-0.030347846,-0.017858354,0.077307485,0.04526279,-0.056059226,-0.49402058,-0.51536304,-0.00018158615,-2.7996442e-05,0.003244032,0.22345157,-0.03497111,0.60336643,1.5877635,0.6213035,0.0,0.5004905,0.034741282,0.016244983,0.06144134,0.030775107,inf,inf,inf,inf,1,1,1,1,2,1,1,1,3,0,0,1
128869981,0,0.0,0.0,0.017875595,-0.033601858,-0.51536703,-0.030347846,-0.017858354,0.077307485,0.06160654,-0.054969706,-0.48411828,-0.50557774,-0.00018158615,-2.7996442e-05,0.003244032,0.5199979,-0.37055233,-0.36548275,1.5862405,0.6213035,0.0,0.5161721,0.035093326,0.016245153,0.06171747,0.03077296,inf,inf,inf,inf,1,1,1,1,2,1,1,1,3,0,0,1
128879974,0,0.0,0.0,0.01807727,-0.034209296,-0.5205822,-0.030347846,-0.017858354,0.077307485,0.07161348,-0.05891511,-0.4872123,-0.508705,-0.00018158615,-2.7996442e-05,0.003244032,1.0232636,-0.50244826,-0.21691094,1.5853347,0.6213035,0.0,0.5213873,0.03450045,0.016245186,0.06107544,0.030773643,inf,inf,inf,inf,1,1,1,1,2,1,1,1,3,0,0,1
128899960,0,0.0,0.0,0.018781926,-0.03556158,-0.531034,-0.030347846,-0.017858354,0.077307485,0.08662292,-0.06747422,-0.48892117,-0.5104452,-0.00018158615,-2.7996442e-05,0.003244032,0.78666,-0.44770238,0.12223725,1.5828212,0.6213035,0.0,0.5318391,0.03545395,0.016245296,0.06204452,0.030774625,inf,inf,inf,inf,1,1,1,1,2,1,1,1,3,0,0,1
128929939,0,0.0,0.0,0.020577956,-0.037676055,-0.5467849,-0.030347846,-0.017858354,0.077307485,0.119471714,-0.061177745,-0.48955688,-0.5110681,-0.00018158615,-2.7996442e-05,0.003244032,0.9039069,-0.31350192,0.9953966,1.5804515,0.6213035,0.0,0.54758996,0.034699515,0.016245445,0.0611386,0.030775318,inf,inf,inf,inf,1,1,1,1,2,1,1,1,3,0,0,1
128939931,0,0.0,0.0,0.021437602,-0.038375165,-0.55193037,-0.030347846,-0.017858354,0.077307485,0.12861066,-0.062414408,-0.47870174,-0.5001976,-0.00018158615,-2.7996442e-05,0.003244032,0.6677095,-0.17254208,1.01415,1.5790852,0.6213035,0.0,0.55273545,0.035174306,0.016245503,0.061603144,0.030774143,inf,inf,inf,inf,1,1,1,1,2,1,1,1,3,0,0,1
128959916,0,0.0,0.0,0.023339761,-0.039864425,-0.5621085,-0.030347846,-0.017858354,0.077307485,0.1327211,-0.064612865,-0.48326233,-0.50469923,-0.00018158615,-2.7996442e-05,0.003244032,0.2606576,-0.016462523,-0.27496743,1.5769211,0.6213035,0.0,0.5629136,0.03504576,0.016245585,0.06139525,0.030773465,inf,inf,inf,inf,1,1,1,1,2,1,1,1,3,0,0,1
128979902,0,0.0,0.0,0.025542453,-0.04144206,-0.5721851,-0.030347846,-0.017858354,0.077307485,0.15033302,-0.06667211,-0.46999478,-0.4913299,-0.00018158615,-2.7996442e-05,0.003244032,0.7077349,0.18163975,0.32748842,1.5752573,0.6213035,0.0,0.5729902,0.03492411,0.016245654,0.061218854,0.030774662,inf,inf,inf,inf,1,1,1,1,2,1,1,1,3,0,0,1
129009880,0,0.0,0.0,0.029371025,-0.043737106,-0.5872209,-0.030347846,-0.017858354,0.077307485,0.16587372,-0.058973987,-0.4728109,-0.49390858,-0.00018158615,-2.7996442e-05,0.003244032,1.1859249,0.2420112,1.1902041,1.5716001,0.6213035,0.0,0.588026,0.0342342,0.016245767,0.060406413,0.030775147,inf,inf,inf,inf,1,1,1,1,2,1,1,1,3,0,0,1
129019873,0,0.0,0.0,0.03081624,-0.044469073,-0.5921468,-0.030347846,-0.017858354,0.077307485,0.1689328,-0.057735793,-0.47248724,-0.49347994,-0.00018158615,-2.7996442e-05,0.003244032,0.43958902,-0.15825732,-0.44143584,1.5708454,0.6213035,0.0,0.5929519,0.034700483,0.01624581,0.060868327,0.030774109,inf,inf,inf,inf,1,1,1,1,2,1,1,1,3,0,0,1
129039858,0,0.0,0.0,0.033863623,-0.045917843,-0.6020989,-0.030347846,-0.017858354,0.077307485,0.17286746,-0.054922312,-0.4762406,-0.49698967,-0.00018158615,-2.7996442e-05,0.003244032,0.3681057,0.1908077,1.0160861,1.5694768,0.6213035,0.0,0.60290396,0.034597486,0.016245866,0.06071084,0.030774672,inf,inf,inf,inf,1,1,1,1,2,1,1,1,3,0,0,1
129069836,0,0.0,0.0,0.03873412,-0.04809651,-0.6166619,-0.030347846,-0.017858354,0.077307485,0.1706441,-0.052059915,-0.47272342,-0.4930189,-0.00018158615,-2.7996442e-05,0.003244032,-0.035283305,-0.08336871,-0.24303883,1.5669423,0.6213035,0.0,0.617467,0.033946637,0.016245961,0.059975125,0.030777816,inf,inf,inf,inf,1,1,1,1,2,1,1,1,3,0,0,1
129079830,0,0.0,0.0,0.04043059,-0.04883277,-0.62152046,-0.030347846,-0.017858354,0.077307485,0.17550988,-0.052666243,-0.4708934,-0.49102315,-0.00018158615,-2.7996442e-05,0.003244032,0.4806847,-0.038493015,0.27755234,1.5662068,0.6213035,0.0,0.62232554,0.03343262,0.016245995,0.059435707,0.030778313,inf,inf,inf,inf,1,1,1,1,2,1,1,1,3,0,0,1
129099815,0,0.0,0.0,0.04400577,-0.05030632,-0.63123465,-0.030347846,-0.017858354,0.077307485,0.1841051,-0.048868068,-0.4800545,-0.4998243,-0.00018158615,-2.7996442e-05,0.003244032,0.4700077,0.7094645,-0.8053463,1.565247,0.6213035,0.0,0.6320397,0.033377104,0.016246077,0.059358146,0.030779656,inf,inf,inf,inf,1,1,1,1,2,1,1,1,3,0,0,1
129129793,0,0.0,0.0,0.049618833,-0.052286107,-0.6461588,-0.030347846,-0.017858354,0.077307485,0.18331915,-0.041876182,-0.48544487,-0.50457007,-0.00018158615,-2.7996442e-05,0.003244032,-0.14537024,0.104915805,1.3182987,1.5638168,0.6213035,0.0,0.6469639,0.03375157,0.016246209,0.059698522,0.030781241,inf,inf,inf,inf,1,1,1,1,2,1,1,1,3,0,0,1
129149779,0,0.0,0.0,0.053383067,-0.05357186,-0.65562177,-0.030347846,-0.017858354,0.077307485,0.17716114,-0.04138094,-0.45937318,-0.47800142,-0.00018158615,-2.7996442e-05,0.003244032,-0.5075958,0.36353785,0.5560031,1.5637267,0.6213035,0.0,0.65642685,0.03467421,0.016246315,0.06060819,0.03078319,inf,inf,inf,inf,1,1,1,1,2,1,1,1,3,0,0,1
129159771,0,0.0,0.0,0.05521887,-0.054185998,-0.6602277,-0.030347846,-0.017858354,0.077307485,0.168873,-0.03723707,-0.46037617,-0.47874054,-0.00018158615,-2.7996442e-05,0.003244032,-0.68734795,0.4410734,-0.33449975,1.5634648,0.6213035,0.0,0.6610328,0.034107175,0.01624636,0.059997566,0.0307828,inf,inf,inf,inf,1,1,1,1,2,1,1,1,3,0,0,1
129179757,0,0.0,0.0,0.058828194,-0.05531082,-0.6694465,-0.030347846,-0.017858354,0.077307485,0.1679306,-0.03353653,-0.45997658,-0.4777835,-0.00018158615,-2.7996442e-05,0.003244032,0.1871536,-0.21599667,0.39941862,1.5624309,0.6213035,0.0,0.6702516,0.03400997,0.016246462,0.059846852,0.030784648,inf,inf,inf,inf,1,1,1,1,2,1,1,1,3,0,0,1
129209736,0,0.0,0.0,0.064230315,-0.057007097,-0.6826435,-0.030347846,-0.017858354,0.077307485,0.1523583,-0.033281386,-0.4340011,-0.45090595,-0.00018158615,-2.7996442e-05,0.003244032,-0.80860406,0.29430807,0.09357973,1.5622896,0.6213035,0.0,0.68344855,0.034376986,0.016246635,0.06017467,0.030786304,inf,inf,inf,inf,1,1,1,1,2,1,1,1,3,0,0,1
129219728,0,0.0,0.0,0.06594278,-0.057539012,-0.6869479,-0.030347846,-0.017858354,0.077307485,0.14450593,-0.028533304,-0.44139746,-0.45798644,-0.00018158615,-2.7996442e-05,0.003244032,-0.6599055,0.70030636,-0.8673038,1.5618877,0.6213035,0.0,0.68775296,0.033830564,0.016246691,0.059574816,0.030786978,inf,inf,inf,inf,1,1,1,1,2,1,1,1,3,0,0,1
129239714,0,0.0,0.0,0.06919412,-0.058450866,-0.6956665,-0.030347846,-0.017858354,0.077307485,0.13071947,-0.0221221,-0.44051343,-0.45644352,-0.00018158615,-2.7996442e-05,0.003244032,-0.71833754,0.20121962,0.96459436,1.560476,0.6213035,0.0,0.6964716,0.033747803,0.016246822,0.059462633,0.030787498,inf,inf,inf,inf,1,1,1,1,2,1,1,1,3,0,0,1
129269692,0,0.0,0.0,0.07345318,-0.059547972,-0.7085035,-0.030347846,-0.017858354,0.077307485,0.10299696,-0.006311992,-0.44192523,-0.45681873,-0.00018158615,-2.7996442e-05,0.003244032,-0.4878918,0.70600545,0.048333973,1.5583897,0.6213035,0.0,0.70930856,0.034124363,0.016247053,0.059818644,0.030792132,inf,inf,inf,inf,1,1,1,1,2,1,1,1,3,0,0,1
129289679,0,0.0,0.0,0.076018475,-0.059940293,-0.71695113,-0.030347846,-0.017858354,0.077307485,0.088299595,0.0062717414,-0.43130293,-0.44547307,-0.00018158615,-2.7996442e-05,0.003244032,-1.0831609,0.591846,0.74323344,1.5562207,0.6213035,0.0,0.7177562,0.03404911,0.016247233,0.059732612,0.030793425,inf,inf,inf,inf,1,1,1,1,2,1,1,1,3,0,0,1
129299670,0,0.0,0.0,0.07715174,-0.06002735,-0.7210315,-0.030347846,-0.017858354,0.077307485,0.0763485,0.014483346,-0.42191246,-0.43569952,-0.00018158615,-2.7996442e-05,0.003244032,-1.3669434,0.8283147,0.89239156,1.5551178,0.6213035,0.0,0.72183657,0.034508973,0.016247332,0.060177222,0.030794548,inf,inf,inf,inf,1,1,1,1,2,1,1,1,3,0,0,1
