timestamp,ref_timestamp,ref_lat,ref_lon,x,y,z,delta_xy[0],delta_xy[1],delta_z,vx,vy,vz,z_deriv,delta_vxy[0],delta_vxy[1],delta_vz,ax,ay,az,heading,delta_heading,ref_alt,dist_bottom,eph,epv,evh,evv,vxy_max,vz_max,hagl_min,hagl_max,xy_valid,z_valid,v_xy_valid,v_z_valid,xy_reset_counter,z_reset_counter,vxy_reset_counter,vz_reset_counter,heading_reset_counter,xy_global,z_global,dist_bottom_valid
568360902,0,0.0,0.0,-0.014616797,-0.03546078,-0.09900698,-0.035031028,-0.02340852,0.3379954,0.0023663444,0.00017566541,0.000119310054,0.00061482214,2.4806237e-05,-5.8458263e-05,-0.00059875334,0.0025200087,-0.035628192,0.012684969,1.5384402,0.6718789,0.0,0.100203834,0.034410454,0.016742453,0.059336193,0.032821544,inf,inf,inf,inf,1,1,1,1,2,1,1,1,3,0,0,1
568370895,0,0.0,0.0,-0.014597775,-0.035455745,-0.09899689,-0.035031028,-0.02340852,0.3379954,0.0023577772,0.00026449206,-0.00015805491,0.0003411326,2.4806237e-05,-5.8458263e-05,-0.00059875334,-0.02165366,-0.0044419,0.0024814308,1.5384434,0.6718789,0.0,0.10020028,0.033857126,0.016742453,0.05873832,0.03282153,inf,inf,inf,inf,1,1,1,1,2,1,1,1,3,0,0,1
568380887,0,0.0,0.0,-0.014579707,-0.03545005,-0.09898777,-0.035031028,-0.02340852,0.3379954,0.0025490958,0.00036631507,-0.00027724032,0.00022559686,2.4806237e-05,-5.8458263e-05,-0.00059875334,0.027998202,0.0058832592,-0.020733781,1.5384434,0.6718789,0.0,0.10019904,0.03334283,0.01674245,0.05819835,0.03282151,inf,inf,inf,inf,1,1,1,1,2,1,1,1,3,0,0,1
568400874,0,0.0,0.0,-0.0145429,-0.035436686,-0.09897036,-0.035031028,-0.02340852,0.3379954,0.0024615666,0.00033546594,-0.00017021541,0.00033972142,2.4806237e-05,-5.8458263e-05,-0.00059875334,0.026867984,-0.01177423,-0.0040958812,1.5384289,0.6718789,0.0,0.10019575,0.033278674,0.016742444,0.05812112,0.032821473,inf,inf,inf,inf,1,1,1,1,2,1,1,1,3,0,0,1
568420859,0,0.0,0.0,-0.014505412,-0.035422616,-0.09895915,-0.035031028,-0.02340852,0.3379954,0.002284849,0.0006543408,-0.0009023095,-0.0003858344,2.4806237e-05,-5.8458263e-05,-0.00059875334,-0.06986338,0.113207616,-0.04511455,1.5384147,0.6718789,0.0,0.100194715,0.033217385,0.01674244,0.058059618,0.03282144,inf,inf,inf,inf,1,1,1,1,2,1,1,1,3,0,0,1
568440844,0,0.0,0.0,-0.014466566,-0.03539902,-0.09894129,-0.035031028,-0.02340852,0.3379954,0.0029310691,0.00087517186,0.000333464,0.00085576007,2.4806237e-05,-5.8458263e-05,-0.00059875334,0.06703966,-0.051102504,0.065116875,1.5385705,0.6718789,0.0,0.10018709,0.03315892,0.016742434,0.058013782,0.032821406,inf,inf,inf,inf,1,1,1,1,2,1,1,1,3,0,0,1
568460830,0,0.0,0.0,-0.014436399,-0.035372257,-0.098919936,-0.035031028,-0.02340852,0.3379954,0.0027834293,0.0012838624,-0.0002611402,0.000266381,2.4806237e-05,-5.8458263e-05,-0.00059875334,0.07969568,0.16171849,-0.010198558,1.5383699,0.6718789,0.0,0.10017787,0.033103257,0.016742429,0.05798172,0.03282137,inf,inf,inf,inf,1,1,1,1,2,1,1,1,3,0,0,1
568480815,0,0.0,0.0,-0.01439944,-0.035340216,-0.09890002,-0.035031028,-0.02340852,0.3379954,0.00284348,0.0012270734,-7.493177e-05,0.00045741754,2.4806237e-05,-5.8458263e-05,-0.00059875334,-0.036056653,-0.008942206,-0.03568863,1.5386648,0.6718789,0.0,0.10017307,0.033050362,0.016742423,0.05796468,0.03282133,inf,inf,inf,inf,1,1,1,1,2,1,1,1,3,0,0,1
568500801,0,0.0,0.0,-0.014374917,-0.03531306,-0.098885044,-0.035031028,-0.02340852,0.3379954,0.0020152256,0.0016667278,-0.0011086911,-0.0005722579,2.4806237e-05,-5.8458263e-05,-0.00059875334,-0.24798888,0.27166885,-0.23885475,1.5382663,0.6718789,0.0,0.10017103,0.03300022,0.016742418,0.05796078,0.032821298,inf,inf,inf,inf,1,1,1,1,2,1,1,1,3,0,0,1
568520786,0,0.0,0.0,-0.0143404305,-0.035277918,-0.09887499,-0.035031028,-0.02340852,0.3379954,0.0027453767,0.00057687686,-0.0012499138,-0.00071007374,2.4806237e-05,-5.8458263e-05,-0.00059875334,-0.04817583,-0.15810876,-0.1681294,1.5383946,0.6718789,0.0,0.10017461,0.032952815,0.016742412,0.05796954,0.03282126,inf,inf,inf,inf,1,1,1,1,2,1,1,1,3,0,0,1
568540772,0,0.0,0.0,-0.014307666,-0.03524338,-0.098872356,-0.035031028,-0.02340852,0.3379954,0.0021179686,0.0014054246,-0.00078988814,-0.00024713224,2.4806237e-05,-5.8458263e-05,-0.00059875334,-0.16089268,0.05249727,-0.014331639,1.5383934,0.6718789,0.0,0.100185156,0.032908127,0.016742405,0.057990957,0.032821227,inf,inf,inf,inf,1,1,1,1,2,1,1,1,3,0,0,1
568560758,0,0.0,0.0,-0.014286986,-0.035209265,-0.09884878,-0.035031028,-0.02340852,0.3379954,0.0027245935,0.0013358472,0.0010705278,0.0016154905,2.4806237e-05,-5.8458263e-05,-0.00059875334,0.12250406,-0.09292206,0.3701518,1.5384235,0.6718789,0.0,0.10016801,0.032866158,0.016742397,0.05802342,0.032821193,inf,inf,inf,inf,1,1,1,1,2,1,1,1,3,0,0,1
568580743,0,0.0,0.0,-0.014263708,-0.035164088,-0.09883489,-0.035031028,-0.02340852,0.3379954,0.0025946698,0.0019854468,0.0003871227,0.00093381753,2.4806237e-05,-5.8458263e-05,-0.00059875334,0.09473079,0.07967537,0.11450883,1.53844,0.6718789,0.0,0.100160435,0.032826874,0.016742392,0.05806715,0.032821164,inf,inf,inf,inf,1,1,1,1,2,1,1,1,3,0,0,1
568600728,0,0.0,0.0,-0.0142368805,-0.035122305,-0.0988191,-0.035031028,-0.02340852,0.3379954,0.0027291875,0.0017764488,0.0002950034,0.0008429958,2.4806237e-05,-5.8458263e-05,-0.00059875334,-0.063559934,0.045016024,-0.07738276,1.5384207,0.6718789,0.0,0.10014465,0.032790285,0.016742386,0.058118574,0.03282113,inf,inf,inf,inf,1,1,1,1,2,1,1,1,3,0,0,1
568620713,0,0.0,0.0,-0.014223403,-0.035081476,-0.098801516,-0.035031028,-0.02340852,0.3379954,0.0020714514,0.0023094525,0.00012555366,0.00067424745,2.4806237e-05,-5.8458263e-05,-0.00059875334,0.111170895,0.10798532,0.05693211,1.5384755,0.6718789,0.0,0.10014061,0.03275632,0.016742377,0.058179528,0.0328211,inf,inf,inf,inf,1,1,1,1,2,1,1,1,3,0,0,1
568640699,0,0.0,0.0,-0.014191758,-0.035032462,-0.09878197,-0.035031028,-0.02340852,0.3379954,0.0029294249,0.0012498763,0.00047822433,0.0010268532,2.4806237e-05,-5.8458263e-05,-0.00059875334,-0.1006293,-0.09234652,-0.0018063404,1.5383898,0.6718789,0.0,0.100128576,0.032724988,0.016742371,0.05825127,0.032821067,inf,inf,inf,inf,1,1,1,1,2,1,1,1,3,0,0,1
568660684,0,0.0,0.0,-0.014173958,-0.034994293,-0.09876114,-0.035031028,-0.02340852,0.3379954,0.0022862263,0.0022844265,-0.00045183755,9.6270735e-05,2.4806237e-05,-5.8458263e-05,-0.00059875334,-0.087261856,0.11640043,-0.26136473,1.5384247,0.6718789,0.0,0.10011237,0.03269627,0.016742364,0.05833112,0.03282104,inf,inf,inf,inf,1,1,1,1,2,1,1,1,3,0,0,1
568680670,0,0.0,0.0,-0.014151333,-0.034946885,-0.09874124,-0.035031028,-0.02340852,0.3379954,0.0026905918,0.0019710162,0.00029051537,0.0008373829,2.4806237e-05,-5.8458263e-05,-0.00059875334,-0.09689432,-0.020112216,-0.08284383,1.538555,0.6718789,0.0,0.10009247,0.032670155,0.016742358,0.05841743,0.032821007,inf,inf,inf,inf,1,1,1,1,2,1,1,1,3,0,0,1
568700657,0,0.0,0.0,-0.014125374,-0.034899488,-0.09872764,-0.035031028,-0.02340852,0.3379954,0.0031513353,0.0020583551,0.0006284149,0.0011736103,2.4806237e-05,-5.8458263e-05,-0.00059875334,0.045416165,0.0889337,0.13371451,1.5383389,0.6718789,0.0,0.10007887,0.032646593,0.016742349,0.058508758,0.032820977,inf,inf,inf,inf,1,1,1,1,2,1,1,1,3,0,0,1
568720641,0,0.0,0.0,-0.014100301,-0.03484582,-0.0987059,-0.035031028,-0.02340852,0.3379954,0.0030813185,0.0025464967,0.00047886194,0.0010221736,2.4806237e-05,-5.8458263e-05,-0.00059875334,-0.09154139,0.005414969,0.024366053,1.5384706,0.6718789,0.0,0.10005713,0.03262553,0.016742343,0.058604237,0.03282095,inf,inf,inf,inf,1,1,1,1,2,1,1,1,3,0,0,1
568740626,0,0.0,0.0,-0.014072617,-0.034789626,-0.09868997,-0.035031028,-0.02340852,0.3379954,0.004329642,0.0031870494,0.0005246171,0.0010655225,2.4806237e-05,-5.8458263e-05,-0.00059875334,0.105685554,0.1481364,0.022309227,1.5384481,0.6718789,0.0,0.1000412,0.032606892,0.016742336,0.058710326,0.03282092,inf,inf,inf,inf,1,1,1,1,2,1,1,1,3,0,0,1
568760612,0,0.0,0.0,-0.014043297,-0.03473715,-0.09867104,-0.035031028,-0.02340852,0.3379954,0.0030399603,0.0027560322,0.00042470556,0.00096267153,2.4806237e-05,-5.8458263e-05,-0.00059875334,-0.16532984,0.04592999,0.023655785,1.5384439,0.6718789,0.0,0.10002227,0.032590717,0.01674233,0.0588172,0.032820895,inf,inf,inf,inf,1,1,1,1,2,1,1,1,3,0,0,1
568780597,0,0.0,0.0,-0.014012912,-0.034683157,-0.09865525,-0.035031028,-0.02340852,0.3379954,0.0037913066,0.0027114092,-0.00026084602,0.00027383293,2.4806237e-05,-5.8458263e-05,-0.00059875334,0.2701005,-0.09032763,0.023771362,1.5385073,0.6718789,0.0,0.10000648,0.032576907,0.016742323,0.05892432,0.03282087,inf,inf,inf,inf,1,1,1,1,2,1,1,1,3,0,0,1
568800584,0,0.0,0.0,-0.01397833,-0.034628905,-0.09863952,-0.035031028,-0.02340852,0.3379954,0.0039346437,0.0038522931,0.00046098293,0.0009921725,2.4806237e-05,-5.8458263e-05,-0.00059875334,0.25128448,0.13911156,0.00973793,1.5384365,0.6718789,0.0,0.1,0.0325654,0.016742315,0.059040315,0.032820843,inf,inf,inf,inf,1,1,1,1,2,1,1,1,3,0,0,1
568820568,0,0.0,0.0,-0.013939232,-0.03457302,-0.09860747,-0.035031028,-0.02340852,0.3379954,0.0045304787,0.0028655357,0.00083883264,0.0013660927,2.4806237e-05,-5.8458263e-05,-0.00059875334,0.11707491,-0.07688637,-0.1815388,1.5384388,0.6718789,0.0,0.1,0.032556154,0.016742308,0.05915797,0.032820817,inf,inf,inf,inf,1,1,1,1,2,1,1,1,3,0,0,1
568840553,0,0.0,0.0,-0.013902108,-0.03451546,-0.0985937,-0.035031028,-0.02340852,0.3379954,0.0047222446,0.0026758753,-0.0033135437,-0.0027903917,2.4806237e-05,-5.8458263e-05,-0.00059875334,0.09767252,-0.07555967,-0.42791763,1.538372,0.6718789,0.0,0.1,0.03254912,0.016742302,0.05927746,0.032820795,inf,inf,inf,inf,1,1,1,1,2,1,1,1,3,0,0,1
568860539,0,0.0,0.0,-0.013863619,-0.034462754,-0.0985966,-0.035031028,-0.02340852,0.3379954,0.004333786,0.0006026008,0.00088057516,0.0013994086,2.4806237e-05,-5.8458263e-05,-0.00059875334,0.38003457,-0.9702826,0.18167514,1.53839,0.6718789,0.0,0.1,0.032544207,0.016742295,0.059400376,0.03282077,inf,inf,inf,inf,1,1,1,1,2,1,1,1,3,0,0,1
568880524,0,0.0,0.0,-0.0138118705,-0.034414753,-0.09859202,-0.035031028,-0.02340852,0.3379954,0.0088924095,0.0012336733,0.00015512278,0.00066916284,2.4806237e-05,-5.8458263e-05,-0.00059875334,1.4734918,-0.4029476,0.14226483,1.5382193,0.6718789,0.0,0.1,0.03254136,0.016742287,0.05952071,0.03282075,inf,inf,inf,inf,1,1,1,1,2,1,1,1,3,0,0,1
568900511,0,0.0,0.0,-0.013761579,-0.03435769,-0.0985804,-0.035031028,-0.02340852,0.3379954,0.0007655032,0.0059699267,-1.8190114e-05,0.0004906667,2.4806237e-05,-5.8458263e-05,-0.00059875334,-1.3305923,0.37227803,-0.059797097,1.5385379,0.6718789,0.0,0.1,0.03254049,0.01674228,0.05964459,0.032820728,inf,inf,inf,inf,1,1,1,1,2,1,1,1,3,0,0,1
568920495,0,0.0,0.0,-0.013726921,-0.034310542,-0.09857594,-0.035031028,-0.02340852,0.3379954,0.009275655,0.0017289935,0.0001955943,0.0006987735,2.4806237e-05,-5.8458263e-05,-0.00059875334,0.9497072,-0.92661446,-0.09610008,1.5381815,0.6718789,0.0,0.1,0.032541532,0.016742272,0.059765853,0.032820694,inf,inf,inf,inf,1,1,1,1,2,1,1,1,3,0,0,1
568940481,0,0.0,0.0,-0.01367746,-0.03425642,-0.09856692,-0.035031028,-0.02340852,0.3379954,-0.003027437,0.0047366424,0.0009049395,0.0014019273,2.4806237e-05,-5.8458263e-05,-0.00059875334,-2.5452213,0.5658526,0.006944338,1.5383039,0.6718789,0.0,0.1,0.032544386,0.016742269,0.059888758,0.032820676,inf,inf,inf,inf,1,1,1,1,2,1,1,1,3,0,0,1
568960466,0,0.0,0.0,-0.013598011,-0.034200665,-0.09854341,-0.035031028,-0.02340852,0.3379954,0.009873925,-0.0033049148,0.0012541605,0.0017443851,2.4806237e-05,-5.8458263e-05,-0.00059875334,1.2187855,-2.18529,0.30122125,1.538605,0.6718789,0.0,0.1,0.032548986,0.016742261,0.060011547,0.032820653,inf,inf,inf,inf,1,1,1,1,2,1,1,1,3,0,0,1
568980452,0,0.0,0.0,-0.013553417,-0.0341642,-0.09852843,-0.035031028,-0.02340852,0.3379954,-0.0029806332,0.0028643257,-0.0017496878,-0.0012669244,2.4806237e-05,-5.8458263e-05,-0.00059875334,-2.6694355,0.3140774,-0.24800582,1.5379004,0.6718789,0.0,0.1,0.032555237,0.016742254,0.060129523,0.032820635,inf,inf,inf,inf,1,1,1,1,2,1,1,1,3,0,0,1
569000437,0,0.0,0.0,-0.013503522,-0.034116063,-0.09851503,-0.035031028,-0.02340852,0.3379954,0.0042080437,0.00038295262,-0.00033163605,0.00014282916,2.4806237e-05,-5.8458263e-05,-0.00059875334,0.90860945,-1.371003,0.0058760294,1.5386966,0.6718789,0.0,0.1,0.03256302,0.016742246,0.060248457,0.03282062,inf,inf,inf,inf,1,1,1,1,2,1,1,1,3,0,0,1
569020423,0,0.0,0.0,-0.013448195,-0.03407882,-0.09852372,-0.035031028,-0.02340852,0.3379954,0.005710634,-0.00040320586,-0.0023575197,-0.0018918713,2.4806237e-05,-5.8458263e-05,-0.00059875334,-1.079085,-0.46904233,-0.054509908,1.5381218,0.6718789,0.0,0.1,0.03257233,0.01674224,0.06036855,0.032820586,inf,inf,inf,inf,1,1,1,1,2,1,1,1,3,0,0,1
569040408,0,0.0,0.0,-0.013390326,-0.03402748,-0.0985346,-0.035031028,-0.02340852,0.3379954,-0.003912561,0.00390673,-0.0028090302,-0.0023528645,2.4806237e-05,-5.8458263e-05,-0.00059875334,-2.0740862,-0.24921134,-0.3133063,1.5379788,0.6718789,0.0,0.1,0.03258297,0.016742235,0.060481805,0.03282056,inf,inf,inf,inf,1,1,1,1,2,1,1,1,3,0,0,1
569060394,0,0.0,0.0,-0.013308998,-0.03398074,-0.09852961,-0.035031028,-0.02340852,0.3379954,0.011683905,-0.001150848,-0.00021088932,0.00023533517,2.4806237e-05,-5.8458263e-05,-0.00059875334,1.2867317,-1.9445035,-0.11643755,1.538868,0.6718789,0.0,0.1,0.032594882,0.01674223,0.060595173,0.03282055,inf,inf,inf,inf,1,1,1,1,2,1,1,1,3,0,0,1
569080379,0,0.0,0.0,-0.013269718,-0.033936616,-0.09854706,-0.035031028,-0.02340852,0.3379954,-0.0030016766,0.00530754,-0.002133448,-0.0016973683,2.4806237e-05,-5.8458263e-05,-0.00059875334,-3.4786828,0.6313908,-0.2433397,1.537484,0.6718789,0.0,0.1,0.032607988,0.016742224,0.060704727,0.032820545,inf,inf,inf,inf,1,1,1,1,2,1,1,1,3,0,0,1
569100365,0,0.0,0.0,-0.013179046,-0.033886284,-0.09853936,-0.035031028,-0.02340852,0.3379954,0.008608412,0.0010958184,-0.0029935986,-0.0025681246,2.4806237e-05,-5.8458263e-05,-0.00059875334,1.7569011,-1.3946575,-0.7337376,1.5387847,0.6718789,0.0,0.1,0.03262217,0.016742218,0.060811836,0.03282052,inf,inf,inf,inf,1,1,1,1,2,1,1,1,3,0,0,1
569120351,0,0.0,0.0,-0.013107005,-0.033848315,-0.0985618,-0.035031028,-0.02340852,0.3379954,0.0021099509,0.002175924,-0.00051309145,-9.8550656e-05,2.4806237e-05,-5.8458263e-05,-0.00059875334,-2.5219862,-0.4573989,-0.00058153836,1.5382942,0.6718789,0.0,0.1,0.03263734,0.01674221,0.060909238,0.032820508,inf,inf,inf,inf,1,1,1,1,2,1,1,1,3,0,0,1
569140336,0,0.0,0.0,-0.013082104,-0.03380973,-0.09856243,-0.035031028,-0.02340852,0.3379954,-0.0026786334,0.003754948,-0.0032633098,-0.0028598912,2.4806237e-05,-5.8458263e-05,-0.00059875334,-1.1809493,-0.11405431,-0.6362508,1.5375681,0.6718789,0.0,0.1,0.032653354,0.016742205,0.061011676,0.032820515,inf,inf,inf,inf,1,1,1,1,2,1,1,1,3,0,0,1
569160321,0,0.0,0.0,-0.013009139,-0.03374744,-0.09855351,-0.035031028,-0.02340852,0.3379954,0.011406145,0.0017605864,0.0022406024,0.0026324943,2.4806237e-05,-5.8458263e-05,-0.00059875334,0.47456682,-1.7218556,0.14477843,1.5393966,0.6718789,0.0,0.1,0.032670233,0.016742202,0.061100632,0.032820463,inf,inf,inf,inf,1,1,1,1,2,1,1,1,3,0,0,1
569180307,0,0.0,0.0,-0.012982134,-0.033695996,-0.09856824,-0.035031028,-0.02340852,0.3379954,0.00035186933,0.004411535,-0.002795074,-0.0024149546,2.4806237e-05,-5.8458263e-05,-0.00059875334,-2.3527138,0.2456554,-0.24908307,1.536999,0.6718789,0.0,0.1,0.032687742,0.016742196,0.061198138,0.032820508,inf,inf,inf,inf,1,1,1,1,2,1,1,1,3,0,0,1
569200293,0,0.0,0.0,-0.012928414,-0.03367059,-0.09856542,-0.035031028,-0.02340852,0.3379954,0.006017507,0.0006675886,-0.0013026958,-0.0009343191,2.4806237e-05,-5.8458263e-05,-0.00059875334,1.6427594,-1.330527,-0.53200114,1.5393862,0.6718789,0.0,0.1,0.03270593,0.01674219,0.061281677,0.03282044,inf,inf,inf,inf,1,1,1,1,2,1,1,1,3,0,0,1
569220278,0,0.0,0.0,-0.012876985,-0.033636976,-0.09857705,-0.035031028,-0.02340852,0.3379954,0.0023686483,0.0042487434,0.0013387846,0.0016954326,2.4806237e-05,-5.8458263e-05,-0.00059875334,-2.1805024,-0.004403187,0.4053439,1.5379789,0.6718789,0.0,0.1,0.03272461,0.016742183,0.06136394,0.032820456,inf,inf,inf,inf,1,1,1,1,2,1,1,1,3,0,0,1
569240262,0,0.0,0.0,-0.012849051,-0.033563998,-0.09857309,-0.035031028,-0.02340852,0.3379954,-0.0032217642,0.0044384724,-0.0051280875,-0.0047829887,2.4806237e-05,-5.8458263e-05,-0.00059875334,-1.0165555,-0.42137718,-0.71371984,1.5379047,0.6718789,0.0,0.1,0.03274367,0.01674218,0.06144727,0.03282045,inf,inf,inf,inf,1,1,1,1,2,1,1,1,3,0,0,1
569260248,0,0.0,0.0,-0.012762032,-0.033515632,-0.098560914,-0.035031028,-0.02340852,0.3379954,0.013072961,0.00018409628,0.0016459088,0.0019793445,2.4806237e-05,-5.8458263e-05,-0.00059875334,0.20557617,-1.8154999,-0.11427168,1.539472,0.6718789,0.0,0.1,0.033679392,0.016742174,0.062491827,0.032820404,inf,inf,inf,inf,1,1,1,1,2,1,1,1,3,0,0,1
569280234,0,0.0,0.0,-0.012725164,-0.033491354,-0.0985772,-0.035031028,-0.02340852,0.3379954,-0.0017892277,0.005806892,-0.0035635058,-0.0032417104,2.4806237e-05,-5.8458263e-05,-0.00059875334,-2.5915408,0.42619497,-0.7045518,1.5366843,0.6718789,0.0,0.1,0.03275863,0.016742168,0.06154512,0.03282044,inf,inf,inf,inf,1,1,1,1,2,1,1,1,3,0,0,1
569300222,0,0.0,0.0,-0.012687649,-0.033414133,-0.098569416,-0.035031028,-0.02340852,0.3379954,0.006731592,0.0031630755,0.00048082753,0.00079103094,2.4806237e-05,-5.8458263e-05,-0.00059875334,1.3324338,-1.2340997,-0.39193133,1.5401161,0.6718789,0.0,0.1,0.032779306,0.016742166,0.06160688,0.032820385,inf,inf,inf,inf,1,1,1,1,2,1,1,1,3,0,0,1
569320205,0,0.0,0.0,-0.012664424,-0.033389293,-0.09860367,-0.035031028,-0.02340852,0.3379954,0.0018093939,0.0010506607,-0.0012719058,-0.0009728666,2.4806237e-05,-5.8458263e-05,-0.00059875334,-1.8281044,-0.41451743,0.21526313,1.5368817,0.6718789,0.0,0.100024216,0.032800063,0.01674216,0.061670445,0.032820396,inf,inf,inf,inf,1,1,1,1,2,1,1,1,3,0,0,1
569340195,0,0.0,0.0,-0.012614852,-0.033335887,-0.098588616,-0.035031028,-0.02340852,0.3379954,-0.0029712112,0.0039250827,-0.0023302294,-0.002041676,2.4806237e-05,-5.8458263e-05,-0.00059875334,-0.98398113,-0.28142792,-0.5825399,1.5390611,0.6718789,0.0,0.10000916,0.03282076,0.016742155,0.061731327,0.032820404,inf,inf,inf,inf,1,1,1,1,2,1,1,1,3,0,0,1
569360182,0,0.0,0.0,-0.012543752,-0.03326698,-0.098606415,-0.035031028,-0.02340852,0.3379954,0.010262404,0.00220277,0.00042014502,0.00069881027,2.4806237e-05,-5.8458263e-05,-0.00059875334,-0.632826,-1.5712041,0.3959625,1.5382444,0.6718789,0.0,0.10002696,0.032841478,0.016742151,0.061778042,0.032820355,inf,inf,inf,inf,1,1,1,1,2,1,1,1,3,0,0,1
569380161,0,0.0,0.0,-0.012543168,-0.03322929,-0.09860755,-0.035031028,-0.02340852,0.3379954,-0.0030990911,0.0063527115,-0.0022316955,-0.00196225,2.4806237e-05,-5.8458263e-05,-0.00059875334,-2.2054894,0.4926317,-0.59421,1.5375326,0.6718789,0.0,0.10002809,0.03286199,0.016742146,0.061832074,0.032820407,inf,inf,inf,inf,1,1,1,1,2,1,1,1,3,0,0,1
569400149,0,0.0,0.0,-0.012501026,-0.03319154,-0.09859094,-0.035031028,-0.02340852,0.3379954,0.012621556,0.0024597035,0.0027082122,0.002969034,2.4806237e-05,-5.8458263e-05,-0.00059875334,1.5323657,-1.0294993,0.01572304,1.5399549,0.6718789,0.0,0.10001148,0.03288229,0.01674214,0.061867442,0.032820363,inf,inf,inf,inf,1,1,1,1,2,1,1,1,3,0,0,1
569420132,0,0.0,0.0,-0.0124681685,-0.033163857,-0.09859042,-0.035031028,-0.02340852,0.3379954,1.6946295e-05,0.0020571973,-0.0009189831,-0.00066617475,2.4806237e-05,-5.8458263e-05,-0.00059875334,-2.0124774,-0.086111695,-0.104104675,1.5366349,0.6718789,0.0,0.10001096,0.032902356,0.016742136,0.061904665,0.03282037,inf,inf,inf,inf,1,1,1,1,2,1,1,1,3,0,0,1
569440117,0,0.0,0.0,-0.012419745,-0.03309524,-0.09858514,-0.035031028,-0.02340852,0.3379954,0.0028824604,0.0047611883,-0.0022759105,-0.002030743,2.4806237e-05,-5.8458263e-05,-0.00059875334,0.38681048,-0.59964794,-0.5387292,1.540241,0.6718789,0.0,0.10000569,0.032921974,0.016742133,0.061944097,0.032820355,inf,inf,inf,inf,1,1,1,1,2,1,1,1,3,0,0,1
569460103,0,0.0,0.0,-0.012375534,-0.033049207,-0.09862888,-0.035031028,-0.02340852,0.3379954,0.004643947,-0.0006580816,-0.0019720166,-0.0017342307,2.4806237e-05,-5.8458263e-05,-0.00059875334,-1.3178773,-1.8337295,0.4254354,1.5367672,0.6718789,0.0,0.10004942,0.032941315,0.016742129,0.061965834,0.032820348,inf,inf,inf,inf,1,1,1,1,2,1,1,1,3,0,0,1
569480088,0,0.0,0.0,-0.01234643,-0.033025045,-0.09860624,-0.035031028,-0.02340852,0.3379954,-0.004800149,0.0055069877,-0.0041460767,-0.003915205,2.4806237e-05,-5.8458263e-05,-0.00059875334,-2.6057718,0.47903645,-1.2599133,1.5392376,0.6718789,0.0,0.10002678,0.032960102,0.016742127,0.061998006,0.03282039,inf,inf,inf,inf,1,1,1,1,2,1,1,1,3,0,0,1
569500075,0,0.0,0.0,-0.012323909,-0.032976918,-0.098640315,-0.035031028,-0.02340852,0.3379954,0.013616554,0.002925321,0.0005262716,0.00075042574,2.4806237e-05,-5.8458263e-05,-0.00059875334,1.4884571,-1.6401532,0.23564199,1.5380633,0.6718789,0.0,0.10006086,0.03297847,0.016742125,0.06200606,0.032820355,inf,inf,inf,inf,1,1,1,1,2,1,1,1,3,0,0,1
569520059,0,0.0,0.0,-0.012301419,-0.032941286,-0.09866308,-0.035031028,-0.02340852,0.3379954,-0.0005476508,0.0033064778,-0.0017099675,-0.0014922157,2.4806237e-05,-5.8458263e-05,-0.00059875334,-2.483299,0.09432228,0.045449033,1.5376213,0.6718789,0.0,0.10008362,0.03299623,0.016742121,0.06202699,0.032820377,inf,inf,inf,inf,1,1,1,1,2,1,1,1,3,0,0,1
569540045,0,0.0,0.0,-0.012296047,-0.032895487,-0.09866888,-0.035031028,-0.02340852,0.3379954,0.0057917694,0.0042749327,0.00014137864,0.00035311872,2.4806237e-05,-5.8458263e-05,-0.00059875334,1.1740694,-0.3785964,0.06737666,1.539849,0.6718789,0.0,0.10008942,0.033013407,0.01674212,0.062034562,0.032820344,inf,inf,inf,inf,1,1,1,1,2,1,1,1,3,0,0,1
569560030,0,0.0,0.0,-0.012283723,-0.032875694,-0.09870806,-0.035031028,-0.02340852,0.3379954,0.004780112,-0.001583686,-0.0018471909,-0.0016413323,2.4806237e-05,-5.8458263e-05,-0.00059875334,0.40497538,-1.4887266,0.6032308,1.5363334,0.6718789,0.0,0.100128606,0.033029974,0.016742116,0.062038396,0.03282034,inf,inf,inf,inf,1,1,1,1,2,1,1,1,3,0,0,1
569580016,0,0.0,0.0,-0.012216143,-0.032816127,-0.09867513,-0.035031028,-0.02340852,0.3379954,-0.005383987,0.005145878,-2.601774e-05,0.0001741113,2.4806237e-05,-5.8458263e-05,-0.00059875334,-3.6468542,0.1832046,-0.76038194,1.5404873,0.6718789,0.0,0.100095674,0.033045802,0.016742112,0.06204425,0.032820377,inf,inf,inf,inf,1,1,1,1,2,1,1,1,3,0,0,1
569600003,0,0.0,0.0,-0.01223706,-0.03276732,-0.0987134,-0.035031028,-0.02340852,0.3379954,0.010340359,0.003016068,-2.529992e-05,0.00016923858,2.4806237e-05,-5.8458263e-05,-0.00059875334,2.3817647,-0.8369345,0.50177145,1.5362872,0.6718789,0.0,0.10013394,0.033061013,0.016742108,0.06203501,0.032820366,inf,inf,inf,inf,1,1,1,1,2,1,1,1,3,0,0,1
569619987,0,0.0,0.0,-0.012187208,-0.032751467,-0.098684505,-0.035031028,-0.02340852,0.3379954,0.004203949,0.0013557196,0.00021835325,0.0004076166,2.4806237e-05,-5.8458263e-05,-0.00059875334,-1.9787596,-0.54773843,-0.1991715,1.5395725,0.6718789,0.0,0.10010505,0.03307548,0.016742105,0.062034942,0.03282039,inf,inf,inf,inf,1,1,1,1,2,1,1,1,3,0,0,1
569639972,0,0.0,0.0,-0.012205958,-0.032710604,-0.09870907,-0.035031028,-0.02340852,0.3379954,0.0052292794,0.007563094,-0.0009768892,-0.00079268555,2.4806237e-05,-5.8458263e-05,-0.00059875334,0.5565388,0.93937427,0.27460796,1.5376576,0.6718789,0.0,0.10012961,0.03308925,0.016742101,0.062012717,0.032820366,inf,inf,inf,inf,1,1,1,1,2,1,1,1,3,0,0,1
569659957,0,0.0,0.0,-0.012184881,-0.032671493,-0.09872044,-0.035031028,-0.02340852,0.3379954,0.0047426517,-0.00046630428,-0.00034098496,-0.00016142328,2.4806237e-05,-5.8458263e-05,-0.00059875334,1.6472609,-1.3976228,0.5585384,1.5383993,0.6718789,0.0,0.10014098,0.0331022,0.0167421,0.06200869,0.032820363,inf,inf,inf,inf,1,1,1,1,2,1,1,1,3,0,0,1
569679943,0,0.0,0.0,-0.012138561,-0.03263352,-0.09872459,-0.035031028,-0.02340852,0.3379954,-0.0024511062,0.0022048368,-0.0009979134,-0.0008228508,2.4806237e-05,-5.8458263e-05,-0.00059875334,-3.6929243,-0.3145263,-0.15557945,1.5391182,0.6718789,0.0,0.10014513,0.03311438,0.016742095,0.06199107,0.0328204,inf,inf,inf,inf,1,1,1,1,2,1,1,1,3,0,0,1
569699930,0,0.0,0.0,-0.0121652065,-0.032624763,-0.09872949,-0.035031028,-0.02340852,0.3379954,0.00061499106,0.003932402,-0.0021722706,-0.0020013247,2.4806237e-05,-5.8458263e-05,-0.00059875334,0.89736325,0.16495067,-0.07799721,1.5368297,0.6718789,0.0,0.100150034,0.0331258,0.016742093,0.061966278,0.032820377,inf,inf,inf,inf,1,1,1,1,2,1,1,1,3,0,0,1
569719914,0,0.0,0.0,-0.012119463,-0.03260183,-0.098715864,-0.035031028,-0.02340852,0.3379954,0.008377928,-0.00019956686,0.00038288248,0.0005501529,2.4806237e-05,-5.8458263e-05,-0.00059875334,-1.1185312,-1.7525506,-0.08444439,1.5400835,0.6718789,0.0,0.10013641,0.033136364,0.016742092,0.061946798,0.032820396,inf,inf,inf,inf,1,1,1,1,2,1,1,1,3,0,0,1
569739899,0,0.0,0.0,-0.012172871,-0.03259666,-0.09875311,-0.035031028,-0.02340852,0.3379954,0.0009824587,0.007474846,-0.0012256841,-0.0010617098,2.4806237e-05,-5.8458263e-05,-0.00059875334,-0.5254463,1.4126284,0.048339937,1.5362456,0.6718789,0.0,0.10017365,0.03314618,0.01674209,0.06190682,0.03282042,inf,inf,inf,inf,1,1,1,1,2,1,1,1,3,0,0,1
569759885,0,0.0,0.0,-0.012156372,-0.032549776,-0.098730125,-0.035031028,-0.02340852,0.3379954,0.009015466,0.0028241463,0.0016100373,0.0017711866,2.4806237e-05,-5.8458263e-05,-0.00059875334,2.7102728,-0.6022122,-0.04556408,1.5404435,0.6718789,0.0,0.10015067,0.033155076,0.016742088,0.06188728,0.032820385,inf,inf,inf,inf,1,1,1,1,2,1,1,1,3,0,0,1
569779870,0,0.0,0.0,-0.012150051,-0.032555137,-0.098768994,-0.035031028,-0.02340852,0.3379954,0.0012960054,-0.001778698,0.00042011816,0.0005786106,2.4806237e-05,-5.8458263e-05,-0.00059875334,-1.4341172,-0.64802814,0.9659135,1.5366944,0.6718789,0.0,0.10018954,0.033163235,0.016742088,0.061843738,0.03282042,inf,inf,inf,inf,1,1,1,1,2,1,1,1,3,0,0,1
569799857,0,0.0,0.0,-0.012133255,-0.032558043,-0.098734766,-0.035031028,-0.02340852,0.3379954,-0.0032597685,0.0049128267,-0.003676634,-0.003520539,2.4806237e-05,-5.8458263e-05,-0.00059875334,-0.89919156,1.1182113,-0.61921,1.5393773,0.6718789,0.0,0.10015531,0.03317051,0.016742086,0.061813883,0.032820404,inf,inf,inf,inf,1,1,1,1,2,1,1,1,3,0,0,1
569819841,0,0.0,0.0,-0.012119737,-0.032527357,-0.098759666,-0.035031028,-0.02340852,0.3379954,0.014919136,0.0013210629,0.002140205,0.00229406,2.4806237e-05,-5.8458263e-05,-0.00059875334,1.7912151,-1.5315468,0.6029049,1.537821,0.6718789,0.0,0.10018021,0.033177033,0.016742084,0.061772894,0.032820415,inf,inf,inf,inf,1,1,1,1,2,1,1,1,3,0,0,1
569839827,0,0.0,0.0,-0.012098915,-0.03252758,-0.098748766,-0.035031028,-0.02340852,0.3379954,-0.00039199908,0.0048669446,-0.0009931108,-0.0008412141,2.4806237e-05,-5.8458263e-05,-0.00059875334,-2.324848,0.9977103,-0.05588245,1.5377996,0.6718789,0.0,0.10016931,0.03318272,0.016742082,0.061729547,0.032820445,inf,inf,inf,inf,1,1,1,1,2,1,1,1,3,0,0,1
569859812,0,0.0,0.0,-0.012090451,-0.03252523,-0.09875617,-0.035031028,-0.02340852,0.3379954,0.012761074,0.005781091,0.0020798016,0.0022302198,2.4806237e-05,-5.8458263e-05,-0.00059875334,2.85908,0.8189863,0.3360217,1.5398139,0.6718789,0.0,0.100176714,0.033187613,0.01674208,0.061684538,0.032820433,inf,inf,inf,inf,1,1,1,1,2,1,1,1,3,0,0,1
569879797,0,0.0,0.0,-0.012085646,-0.032553714,-0.09877289,-0.035031028,-0.02340852,0.3379954,0.00744043,-0.0004638743,0.0008899097,0.0010392021,2.4806237e-05,-5.8458263e-05,-0.00059875334,1.4229776,-0.06485208,0.72888625,1.5366127,0.6718789,0.0,0.10019343,0.03319172,0.01674208,0.06163678,0.032820452,inf,inf,inf,inf,1,1,1,1,2,1,1,1,3,0,0,1
569899785,0,0.0,0.0,-0.012031024,-0.03252939,-0.09875498,-0.035031028,-0.02340852,0.3379954,-0.0051066144,0.0049290196,-0.0011631318,-0.00101493,2.4806237e-05,-5.8458263e-05,-0.00059875334,-2.8420641,0.6541442,-0.2714626,1.540867,0.6718789,0.0,0.10017552,0.033195,0.01674208,0.061597202,0.032820452,inf,inf,inf,inf,1,1,1,1,2,1,1,1,3,0,0,1
569919770,0,0.0,0.0,-0.012052172,-0.03251495,-0.098784424,-0.035031028,-0.02340852,0.3379954,0.010234976,0.00463109,0.00018152653,0.0003286951,2.4806237e-05,-5.8458263e-05,-0.00059875334,2.8933682,-0.105517745,0.477484,1.5361437,0.6718789,0.0,0.10020497,0.03319759,0.01674208,0.061539028,0.03282046,inf,inf,inf,inf,1,1,1,1,2,1,1,1,3,0,0,1
569939754,0,0.0,0.0,-0.0120203765,-0.032525454,-0.098762356,-0.035031028,-0.02340852,0.3379954,0.006890078,-0.00071326573,-0.00073102914,-0.00058479427,2.4806237e-05,-5.8458263e-05,-0.00059875334,-0.9443237,-0.50173956,-0.36441436,1.5403796,0.6718789,0.0,0.1001829,0.033199336,0.01674208,0.061497163,0.032820493,inf,inf,inf,inf,1,1,1,1,2,1,1,1,3,0,0,1
569959740,0,0.0,0.0,-0.012074042,-0.032557555,-0.09880464,-0.035031028,-0.02340852,0.3379954,0.0076216175,0.008639486,0.0012547229,0.0014001261,2.4806237e-05,-5.8458263e-05,-0.00059875334,1.1855149,1.8321118,0.64164466,1.5371838,0.6718789,0.0,0.10022518,0.033200424,0.01674208,0.061429046,0.032820508,inf,inf,inf,inf,1,1,1,1,2,1,1,1,3,0,0,1
569979725,0,0.0,0.0,-0.012046413,-0.032555718,-0.09879301,-0.035031028,-0.02340852,0.3379954,0.012569826,0.0047690743,-0.001437679,-0.0012930476,2.4806237e-05,-5.8458263e-05,-0.00059875334,3.747114,0.31643105,-0.068021394,1.5395285,0.6718789,0.0,0.10021355,0.03320074,0.01674208,0.0613853,0.032820504,inf,inf,inf,inf,1,1,1,1,2,1,1,1,3,0,0,1
569999715,0,0.0,0.0,-0.012034446,-0.032564554,-0.09883165,-0.035031028,-0.02340852,0.3379954,0.003699178,0.0008636537,0.0019298493,0.0020737872,2.4806237e-05,-5.8458263e-05,-0.00059875334,-1.0179313,0.2937018,0.8149823,1.5382948,0.6718789,0.0,0.100252196,0.033200357,0.01674208,0.06132409,0.032820523,inf,inf,inf,inf,1,1,1,1,2,1,1,1,3,0,0,1
570019696,0,0.0,0.0,-0.012018577,-0.032569934,-0.098841585,-0.035031028,-0.02340852,0.3379954,-0.0017208161,0.008078268,-0.0042663165,-0.004122799,2.4806237e-05,-5.8458263e-05,-0.00059875334,-1.2772965,1.9268855,0.06019584,1.5376122,0.6718789,0.0,0.10026213,0.033199295,0.01674208,0.06126903,0.03282052,inf,inf,inf,inf,1,1,1,1,2,1,1,1,3,0,0,1
570039683,0,0.0,0.0,-0.011959091,-0.03257852,-0.09885452,-0.035031028,-0.02340852,0.3379954,0.022299845,0.0044004265,0.0034885034,0.0036318395,2.4806237e-05,-5.8458263e-05,-0.00059875334,2.8756633,-0.32085487,0.18349609,1.5396371,0.6718789,0.0,0.10027506,0.033197545,0.01674208,0.061215267,0.032820553,inf,inf,inf,inf,1,1,1,1,2,1,1,1,3,0,0,1
570059669,0,0.0,0.0,-0.01196936,-0.03261508,-0.09887265,-0.035031028,-0.02340852,0.3379954,0.008514733,0.006798822,0.00048051408,0.00062401517,2.4806237e-05,-5.8458263e-05,-0.00059875334,0.12309683,1.2912983,0.28154773,1.5363749,0.6718789,0.0,0.10029319,0.033195198,0.01674208,0.06114524,0.03282057,inf,inf,inf,inf,1,1,1,1,2,1,1,1,3,0,0,1
570079653,0,0.0,0.0,-0.011957406,-0.03260123,-0.09890214,-0.035031028,-0.02340852,0.3379954,0.0043135374,0.008694288,0.0010082435,0.0011520878,2.4806237e-05,-5.8458263e-05,-0.00059875334,0.95641005,1.2923161,0.5740848,1.5410073,0.6718789,0.0,0.100322686,0.03319218,0.016742082,0.06109236,0.03282056,inf,inf,inf,inf,1,1,1,1,2,1,1,1,3,0,0,1
570099639,0,0.0,0.0,-0.0119495755,-0.03263004,-0.09891732,-0.035031028,-0.02340852,0.3379954,0.012880068,0.003243972,0.0005016648,0.00064582657,2.4806237e-05,-5.8458263e-05,-0.00059875334,2.8591342,-0.08737627,0.5071002,1.5361067,0.6718789,0.0,0.10033786,0.033188593,0.016742084,0.061024252,0.03282059,inf,inf,inf,inf,1,1,1,1,2,1,1,1,3,0,0,1
570119623,0,0.0,0.0,-0.0118985195,-0.03266516,-0.098907374,-0.035031028,-0.02340852,0.3379954,0.001451313,0.0018440215,-0.0014601082,-0.0013155203,2.4806237e-05,-5.8458263e-05,-0.00059875334,-2.643919,0.64591223,-0.499623,1.5405041,0.6718789,0.0,0.10032792,0.03318439,0.016742086,0.060970888,0.032820582,inf,inf,inf,inf,1,1,1,1,2,1,1,1,3,0,0,1
570139608,0,0.0,0.0,-0.011929144,-0.032698464,-0.09893331,-0.035031028,-0.02340852,0.3379954,0.015223313,0.00975568,-0.0014760523,-0.0013310417,2.4806237e-05,-5.8458263e-05,-0.00059875334,2.1768758,0.977935,-0.1106497,1.5363501,0.6718789,0.0,0.10035385,0.033179663,0.016742088,0.060901806,0.0328206,inf,inf,inf,inf,1,1,1,1,2,1,1,1,3,0,0,1
570159598,0,0.0,0.0,-0.011875406,-0.032717034,-0.09894289,-0.035031028,-0.02340852,0.3379954,0.015215948,0.002912374,0.0008334953,0.0009791192,2.4806237e-05,-5.8458263e-05,-0.00059875334,1.1154869,-0.75001085,-0.027871642,1.5398729,0.6718789,0.0,0.10036343,0.033174388,0.01674209,0.06084766,0.032820635,inf,inf,inf,inf,1,1,1,1,2,1,1,1,3,0,0,1
570179580,0,0.0,0.0,-0.011932339,-0.03277149,-0.09897992,-0.035031028,-0.02340852,0.3379954,0.006022171,0.008916735,0.001364512,0.001510826,2.4806237e-05,-5.8458263e-05,-0.00059875334,0.34307116,2.2332194,0.41807488,1.5375925,0.6718789,0.0,0.10040046,0.033168614,0.016742092,0.06077531,0.032820635,inf,inf,inf,inf,1,1,1,1,2,1,1,1,3,0,0,1
570199567,0,0.0,0.0,-0.011914041,-0.03280086,-0.09897611,-0.035031028,-0.02340852,0.3379954,0.0052270987,0.004654561,-0.0021927773,-0.0020452396,2.4806237e-05,-5.8458263e-05,-0.00059875334,1.9988691,0.21799463,0.045052163,1.5389408,0.6718789,0.0,0.100396655,0.033162363,0.016742093,0.060714178,0.03282064,inf,inf,inf,inf,1,1,1,1,2,1,1,1,3,0,0,1
570219551,0,0.0,0.0,-0.0118659325,-0.03282876,-0.099005386,-0.035031028,-0.02340852,0.3379954,0.011317349,0.001182139,0.0023556186,0.0025047231,2.4806237e-05,-5.8458263e-05,-0.00059875334,-0.9619459,-1.0904648,0.6785515,1.5386845,0.6718789,0.0,0.10042593,0.033155564,0.016742095,0.06065616,0.032820676,inf,inf,inf,inf,1,1,1,1,2,1,1,1,3,0,0,1
570239537,0,0.0,0.0,-0.0118540125,-0.032846894,-0.09898886,-0.035031028,-0.02340852,0.3379954,0.0030251448,0.009053115,-0.005231584,-0.005080581,2.4806237e-05,-5.8458263e-05,-0.00059875334,-1.8268993,1.5763584,-0.96491355,1.5371989,0.6718789,0.0,0.1004094,0.033148397,0.016742095,0.060590107,0.03282066,inf,inf,inf,inf,1,1,1,1,2,1,1,1,3,0,0,1
570259522,0,0.0,0.0,-0.011819456,-0.03288072,-0.09901729,-0.035031028,-0.02340852,0.3379954,0.02069337,0.0072976695,0.0036583417,0.0038113792,2.4806237e-05,-5.8458263e-05,-0.00059875334,3.1386032,-0.15763007,0.28233176,1.5402004,0.6718789,0.0,0.100437835,0.03409004,0.016742097,0.06155336,0.032820687,inf,inf,inf,inf,1,1,1,1,2,1,1,1,3,0,0,1
570279507,0,0.0,0.0,-0.011815807,-0.032951403,-0.09905681,-0.035031028,-0.02340852,0.3379954,0.0098160785,0.0014208277,-0.0026452853,-0.0024900883,2.4806237e-05,-5.8458263e-05,-0.00059875334,0.411408,-0.7029631,0.44296202,1.5365635,0.6718789,0.0,0.10047735,0.033108056,0.0167421,0.060411382,0.032820713,inf,inf,inf,inf,1,1,1,1,2,1,1,1,3,0,0,1
570299493,0,0.0,0.0,-0.011767794,-0.03298377,-0.09902796,-0.035031028,-0.02340852,0.3379954,-0.0039529195,0.0063509434,-0.00078763446,-0.00063011685,2.4806237e-05,-5.8458263e-05,-0.00059875334,-3.701247,1.4385861,-0.8296043,1.5403454,0.6718789,0.0,0.100448504,0.0331006,0.016742101,0.06035383,0.03282071,inf,inf,inf,inf,1,1,1,1,2,1,1,1,3,0,0,1
570319477,0,0.0,0.0,-0.011800809,-0.0329903,-0.09905338,-0.035031028,-0.02340852,0.3379954,0.010625283,0.0066373837,-0.0014371091,-0.0012770527,2.4806237e-05,-5.8458263e-05,-0.00059875334,1.5725752,0.005975744,-0.09672792,1.5370218,0.6718789,0.0,0.100473925,0.0330928,0.016742103,0.060293306,0.032820743,inf,inf,inf,inf,1,1,1,1,2,1,1,1,3,0,0,1
570339464,0,0.0,0.0,-0.01177078,-0.033028193,-0.09904801,-0.035031028,-0.02340852,0.3379954,0.011629688,-0.003197618,-0.0020305193,-0.0018674685,2.4806237e-05,-5.8458263e-05,-0.00059875334,-0.12092915,-2.6363063,-0.52307606,1.5389068,0.6718789,0.0,0.10046855,0.033084624,0.016742107,0.060238987,0.032820743,inf,inf,inf,inf,1,1,1,1,2,1,1,1,3,0,0,1
570359448,0,0.0,0.0,-0.0117699355,-0.033089142,-0.09905761,-0.035031028,-0.02340852,0.3379954,0.0037435524,0.008198235,0.001392927,0.0015592228,2.4806237e-05,-5.8458263e-05,-0.00059875334,-2.4561558,1.4664742,-0.120128796,1.5387592,0.6718789,0.0,0.10047815,0.033076156,0.01674211,0.06016946,0.032820757,inf,inf,inf,inf,1,1,1,1,2,1,1,1,3,0,0,1
570379439,0,0.0,0.0,-0.011794877,-0.033125993,-0.09906628,-0.035031028,-0.02340852,0.3379954,0.00063205906,0.00705735,-0.0033572146,-0.0031870375,2.4806237e-05,-5.8458263e-05,-0.00059875334,0.20211376,0.8006282,-0.27463767,1.5379696,0.6718789,0.0,0.10048682,0.033067364,0.016742112,0.06011444,0.03282078,inf,inf,inf,inf,1,1,1,1,2,1,1,1,3,0,0,1
570399420,0,0.0,0.0,-0.011774898,-0.033155568,-0.09907506,-0.035031028,-0.02340852,0.3379954,0.016712746,-0.0018911911,0.0011513757,0.0013260036,2.4806237e-05,-5.8458263e-05,-0.00059875334,1.624125,-2.2486908,0.08403108,1.5395447,0.6718789,0.0,0.1004956,0.033058263,0.016742114,0.06004686,0.03282079,inf,inf,inf,inf,1,1,1,1,2,1,1,1,3,0,0,1
570419406,0,0.0,0.0,-0.011757387,-0.033214178,-0.0990919,-0.035031028,-0.02340852,0.3379954,0.005926219,-0.0012145878,-0.0034146854,-0.0032351331,2.4806237e-05,-5.8458263e-05,-0.00059875334,-1.979536,-0.9845247,-0.25440443,1.5370593,0.6718789,0.0,0.100512445,0.03304893,0.016742114,0.059995253,0.032820787,inf,inf,inf,inf,1,1,1,1,2,1,1,1,3,0,0,1
570439391,0,0.0,0.0,-0.011743395,-0.033267196,-0.09909347,-0.035031028,-0.02340852,0.3379954,-0.0032902213,0.0054217693,-0.00081689114,-0.0006320068,2.4806237e-05,-5.8458263e-05,-0.00059875334,-2.8647175,1.2658516,-0.4518079,1.5395169,0.6718789,0.0,0.10051401,0.033039294,0.016742116,0.05993806,0.032820825,inf,inf,inf,inf,1,1,1,1,2,1,1,1,3,0,0,1
570459376,0,0.0,0.0,-0.011781407,-0.033303272,-0.099111535,-0.035031028,-0.02340852,0.3379954,0.009052886,0.004348072,-0.0016018834,-0.0014114981,2.4806237e-05,-5.8458263e-05,-0.00059875334,1.5427076,-0.48950166,0.022315098,1.537844,0.6718789,0.0,0.10053208,0.033029515,0.016742118,0.059865654,0.032820836,inf,inf,inf,inf,1,1,1,1,2,1,1,1,3,0,0,1
570479361,0,0.0,0.0,-0.011752397,-0.033348277,-0.09909902,-0.035031028,-0.02340852,0.3379954,0.012289874,-0.0042484244,-0.0017959009,-0.001599685,2.4806237e-05,-5.8458263e-05,-0.00059875334,0.4954747,-2.6753623,-0.37570193,1.5383664,0.6718789,0.0,0.10051956,0.033019412,0.016742121,0.05981715,0.032820836,inf,inf,inf,inf,1,1,1,1,2,1,1,1,3,0,0,1
570499352,0,0.0,0.0,-0.011713719,-0.033391673,-0.09910405,-0.035031028,-0.02340852,0.3379954,0.0043364423,0.002437749,0.0001626651,0.00036493514,2.4806237e-05,-5.8458263e-05,-0.00059875334,-2.4646862,0.35835397,-0.21020506,1.5389302,0.6718789,0.0,0.10052459,0.033009183,0.016742125,0.059753463,0.03282086,inf,inf,inf,inf,1,1,1,1,2,1,1,1,3,0,0,1
570519338,0,0.0,0.0,-0.011708459,-0.03343643,-0.09910466,-0.035031028,-0.02340852,0.3379954,-0.0027972702,0.0044922554,-0.0038175278,-0.00360895,2.4806237e-05,-5.8458263e-05,-0.00059875334,-1.8135686,0.8305538,-0.4452253,1.5374753,0.6718789,0.0,0.1005252,0.032998748,0.016742127,0.059699435,0.03282087,inf,inf,inf,inf,1,1,1,1,2,1,1,1,3,0,0,1
570539324,0,0.0,0.0,-0.011707032,-0.03346813,-0.09909319,-0.035031028,-0.02340852,0.3379954,0.01020335,0.000846122,0.00087688304,0.0010918186,2.4806237e-05,-5.8458263e-05,-0.00059875334,1.2542878,-1.8167408,-0.25567862,1.539536,0.6718789,0.0,0.100513734,0.03298813,0.01674213,0.059642557,0.032820888,inf,inf,inf,inf,1,1,1,1,2,1,1,1,3,0,0,1
570559306,0,0.0,0.0,-0.011694995,-0.03351531,-0.0990982,-0.035031028,-0.02340852,0.3379954,0.009615479,-0.0025287347,-0.0017727664,-0.0015515054,2.4806237e-05,-5.8458263e-05,-0.00059875334,-0.5179385,-2.006829,-0.008062666,1.5373684,0.6718789,0.0,0.10051874,0.032977417,0.016742134,0.05958714,0.0328209,inf,inf,inf,inf,1,1,1,1,2,1,1,1,3,0,0,1
570579295,0,0.0,0.0,-0.011657886,-0.033572547,-0.09907425,-0.035031028,-0.02340852,0.3379954,-0.0013737613,0.0010953401,-0.0028409879,-0.0026131843,2.4806237e-05,-5.8458263e-05,-0.00059875334,-3.1617534,0.7848046,-0.83808476,1.5388309,0.6718789,0.0,0.100494795,0.032966528,0.016742138,0.059531093,0.032820933,inf,inf,inf,inf,1,1,1,1,2,1,1,1,3,0,0,1
570599274,0,0.0,0.0,-0.011650489,-0.033608675,-0.09906939,-0.035031028,-0.02340852,0.3379954,0.0061945315,0.0044823606,-5.0987393e-05,0.00018327206,2.4806237e-05,-5.8458263e-05,-0.00059875334,-0.15340458,-0.13173504,-0.09127718,1.5386484,0.6718789,0.0,0.10048993,0.033888552,0.01674214,0.06046561,0.03282094,inf,inf,inf,inf,1,1,1,1,2,1,1,1,3,0,0,1
570619264,0,0.0,0.0,-0.011627463,-0.033654805,-0.0990689,-0.035031028,-0.02340852,0.3379954,0.0107962545,-0.0006580617,-0.0022849943,-0.0020440947,2.4806237e-05,-5.8458263e-05,-0.00059875334,1.3097247,-1.8790101,-0.23048168,1.5376958,0.6718789,0.0,0.100489445,0.033850458,0.016742142,0.060369402,0.03282094,inf,inf,inf,inf,1,1,1,1,2,1,1,1,3,0,0,1
570639250,0,0.0,0.0,-0.011590833,-0.033685092,-0.09904305,-0.035031028,-0.02340852,0.3379954,0.007438267,-0.001618421,0.001662148,0.0019098953,2.4806237e-05,-5.8458263e-05,-0.00059875334,-1.9296687,-1.238071,-0.43834987,1.5391716,0.6718789,0.0,0.10046359,0.033813417,0.016742144,0.060266264,0.03282096,inf,inf,inf,inf,1,1,1,1,2,1,1,1,3,0,0,1
570659231,0,0.0,0.0,-0.011596266,-0.03373666,-0.099036135,-0.035031028,-0.02340852,0.3379954,0.0022709428,0.004103385,-0.0017930862,-0.0015386333,2.4806237e-05,-5.8458263e-05,-0.00059875334,-2.0191326,1.1307095,-0.12957549,1.5371822,0.6718789,0.0,0.10045668,0.03377735,0.016742146,0.06017636,0.032820985,inf,inf,inf,inf,1,1,1,1,2,1,1,1,3,0,0,1
570679216,0,0.0,0.0,-0.011565773,-0.033770915,-0.099004745,-0.035031028,-0.02340852,0.3379954,0.0039564082,0.004887302,0.0010613967,0.0013222444,2.4806237e-05,-5.8458263e-05,-0.00059875334,0.03721571,-0.16075921,-0.15830885,1.5392025,0.6718789,0.0,0.10042529,0.03374227,0.01674215,0.060087126,0.032821007,inf,inf,inf,inf,1,1,1,1,2,1,1,1,3,0,0,1
570699203,0,0.0,0.0,-0.011553535,-0.03379568,-0.09900039,-0.035031028,-0.02340852,0.3379954,0.014167852,0.00014732337,0.0006372211,0.0009042774,2.4806237e-05,-5.8458263e-05,-0.00059875334,1.356034,-1.7512194,0.22345842,1.5379567,0.6718789,0.0,0.10042093,0.033708233,0.016742153,0.060001373,0.032820996,inf,inf,inf,inf,1,1,1,1,2,1,1,1,3,0,0,1
570719188,0,0.0,0.0,-0.0115420185,-0.03385549,-0.09896221,-0.035031028,-0.02340852,0.3379954,0.0039889505,-0.00401959,-0.0034494991,-0.003176168,2.4806237e-05,-5.8458263e-05,-0.00059875334,-2.0443017,-0.8545673,-0.7897668,1.5378106,0.6718789,0.0,0.10038275,0.032759182,0.016742155,0.058959287,0.032821026,inf,inf,inf,inf,1,1,1,1,2,1,1,1,3,0,0,1
570739180,0,0.0,0.0,-0.011536702,-0.033901572,-0.098933175,-0.035031028,-0.02340852,0.3379954,0.0021061746,0.0059355646,0.0030224686,0.0033021923,2.4806237e-05,-5.8458263e-05,-0.00059875334,-2.1823199,0.9043846,-0.11604727,1.5394063,0.6718789,0.0,0.10035372,0.033668384,0.016742159,0.05988319,0.03282105,inf,inf,inf,inf,1,1,1,1,2,1,1,1,3,0,0,1
570759160,0,0.0,0.0,-0.011537348,-0.033940267,-0.0989349,-0.035031028,-0.02340852,0.3379954,0.0071445843,0.0033792544,-0.001781283,-0.001495473,2.4806237e-05,-5.8458263e-05,-0.00059875334,1.0211626,-0.44555387,0.1068755,1.5373204,0.6718789,0.0,0.10035544,0.0336362,0.016742162,0.059807595,0.03282106,inf,inf,inf,inf,1,1,1,1,2,1,1,1,3,0,0,1
570779146,0,0.0,0.0,-0.011482772,-0.03398667,-0.0989022,-0.035031028,-0.02340852,0.3379954,0.014535525,-0.0051080626,0.00066981016,0.00096156145,2.4806237e-05,-5.8458263e-05,-0.00059875334,0.74801767,-2.5620718,-0.47668076,1.539411,0.6718789,0.0,0.100322746,0.033604946,0.016742166,0.059736352,0.032821044,inf,inf,inf,inf,1,1,1,1,2,1,1,1,3,0,0,1
570799132,0,0.0,0.0,-0.011486227,-0.03406853,-0.098889485,-0.035031028,-0.02340852,0.3379954,0.0054334705,-0.0008164938,-0.0015353885,-0.0012379771,2.4806237e-05,-5.8458263e-05,-0.00059875334,-1.8357698,-0.14398208,-0.3769929,1.5374038,0.6718789,0.0,0.10031003,0.033574678,0.01674217,0.05966218,0.032821078,inf,inf,inf,inf,1,1,1,1,2,1,1,1,3,0,0,1
570819115,0,0.0,0.0,-0.011474178,-0.03412215,-0.09885827,-0.035031028,-0.02340852,0.3379954,-0.003504522,0.0032564695,-0.0010940253,-0.00079140434,2.4806237e-05,-5.8458263e-05,-0.00059875334,-2.6385174,0.9232983,-0.263364,1.5387137,0.6718789,0.0,0.10027881,0.03354527,0.016742172,0.059597645,0.03282109,inf,inf,inf,inf,1,1,1,1,2,1,1,1,3,0,0,1
570839100,0,0.0,0.0,-0.011478156,-0.034153976,-0.09882415,-0.035031028,-0.02340852,0.3379954,0.010758458,0.0034048748,0.0027773383,0.003084661,2.4806237e-05,-5.8458263e-05,-0.00059875334,1.2211721,-0.5259298,-0.08219362,1.5387155,0.6718789,0.0,0.10024469,0.03351684,0.016742174,0.05952835,0.0328211,inf,inf,inf,inf,1,1,1,1,2,1,1,1,3,0,0,1
570859085,0,0.0,0.0,-0.011488485,-0.034220103,-0.098796435,-0.035031028,-0.02340852,0.3379954,0.012771306,-0.0048160967,-0.00028421893,2.7448456e-05,2.4806237e-05,-5.8458263e-05,-0.00059875334,1.8119732,-2.1424007,-0.16974838,1.5376116,0.6718789,0.0,0.10021698,0.033489235,0.016742177,0.05947262,0.0328211,inf,inf,inf,inf,1,1,1,1,2,1,1,1,3,0,0,1
570879072,0,0.0,0.0,-0.011471275,-0.034288183,-0.09877406,-0.035031028,-0.02340852,0.3379954,0.0028069161,-0.0026059751,0.00044717806,0.0007627382,2.4806237e-05,-5.8458263e-05,-0.00059875334,-2.661843,-0.43213394,-0.20248286,1.5395865,0.6718789,0.0,0.1001946,0.033462554,0.01674218,0.05940599,0.03282113,inf,inf,inf,inf,1,1,1,1,2,1,1,1,3,0,0,1
570899058,0,0.0,0.0,-0.011522365,-0.034337256,-0.09874401,-0.035031028,-0.02340852,0.3379954,-0.0021050735,0.003062831,-0.0017007478,-0.0013817162,2.4806237e-05,-5.8458263e-05,-0.00059875334,-1.9471984,0.71594,-0.3797472,1.5371608,0.6718789,0.0,0.100164555,0.03343674,0.016742183,0.059351876,0.03282114,inf,inf,inf,inf,1,1,1,1,2,1,1,1,3,0,0,1
570919043,0,0.0,0.0,-0.011528063,-0.03438479,-0.0987225,-0.035031028,-0.02340852,0.3379954,0.008065033,0.0019205842,-2.6774433e-05,0.00029523773,2.4806237e-05,-5.8458263e-05,-0.00059875334,0.973335,-0.8521766,-0.30032742,1.5396584,0.6718789,0.0,0.100143045,0.033411715,0.016742187,0.059303835,0.03282114,inf,inf,inf,inf,1,1,1,1,2,1,1,1,3,0,0,1
570939029,0,0.0,0.0,-0.011528882,-0.034453727,-0.09869984,-0.035031028,-0.02340852,0.3379954,0.0138860475,-0.004082577,0.00087947655,0.0012037556,2.4806237e-05,-5.8458263e-05,-0.00059875334,0.9742534,-1.9486675,-0.11172894,1.5376252,0.6718789,0.0,0.10012038,0.03338761,0.01674219,0.05924693,0.032821164,inf,inf,inf,inf,1,1,1,1,2,1,1,1,3,0,0,1
570959014,0,0.0,0.0,-0.011529436,-0.034527536,-0.09867581,-0.035031028,-0.02340852,0.3379954,0.0019332431,-0.0055009597,-0.0019614114,-0.0016353586,2.4806237e-05,-5.8458263e-05,-0.00059875334,-2.3713443,-0.58090794,-0.38191423,1.538209,0.6718789,0.0,0.10009635,0.033364244,0.016742194,0.059201054,0.03282118,inf,inf,inf,inf,1,1,1,1,2,1,1,1,3,0,0,1
570978998,0,0.0,0.0,-0.011559702,-0.03458266,-0.098644815,-0.035031028,-0.02340852,0.3379954,0.0017607234,0.005401943,0.0024183262,0.0027454332,2.4806237e-05,-5.8458263e-05,-0.00059875334,-2.0339518,1.0960841,-0.010321566,1.5390975,0.6718789,0.0,0.10006536,0.03334172,0.016742198,0.05914864,0.0328212,inf,inf,inf,inf,1,1,1,1,2,1,1,1,3,0,0,1
570998985,0,0.0,0.0,-0.011591823,-0.034628525,-0.09865215,-0.035031028,-0.02340852,0.3379954,0.0023455862,0.0035264362,-0.00095334614,-0.0006257685,2.4806237e-05,-5.8458263e-05,-0.00059875334,0.52655596,-0.11024886,0.41204897,1.5373102,0.6718789,0.0,0.10007269,0.03331993,0.0167422,0.0591083,0.032821197,inf,inf,inf,inf,1,1,1,1,2,1,1,1,3,0,0,1
571018969,0,0.0,0.0,-0.011584702,-0.034668487,-0.09860999,-0.035031028,-0.02340852,0.3379954,0.012444526,-0.004098945,-0.00017716987,0.00015035017,2.4806237e-05,-5.8458263e-05,-0.00059875334,0.75379467,-2.2553315,-0.7597163,1.5397639,0.6718789,0.0,0.100030534,0.033298872,0.016742202,0.059068326,0.03282121,inf,inf,inf,inf,1,1,1,1,2,1,1,1,3,0,0,1
571038954,0,0.0,0.0,-0.011636486,-0.03474477,-0.098619446,-0.035031028,-0.02340852,0.3379954,0.0071231853,-0.0026265916,0.000119647,0.00044621268,2.4806237e-05,-5.8458263e-05,-0.00059875334,-1.2353967,-0.6583566,-0.017196527,1.5369152,0.6718789,0.0,0.10003999,0.03327861,0.016742205,0.05902615,0.03282123,inf,inf,inf,inf,1,1,1,1,2,1,1,1,3,0,0,1
571058941,0,0.0,0.0,-0.011647547,-0.03481063,-0.09857885,-0.035031028,-0.02340852,0.3379954,-0.0044625653,0.0016455592,-0.00058559206,-0.0002606713,2.4806237e-05,-5.8458263e-05,-0.00059875334,-3.2670867,1.1024475,-0.4914819,1.5393972,0.6718789,0.0,0.1,0.033259045,0.016742207,0.058985434,0.032821234,inf,inf,inf,inf,1,1,1,1,2,1,1,1,3,0,0,1
571078925,0,0.0,0.0,-0.011684399,-0.034834515,-0.09857602,-0.035031028,-0.02340852,0.3379954,0.0055592125,0.005080079,0.0023384038,0.0026607416,2.4806237e-05,-5.8458263e-05,-0.00059875334,-0.15134826,0.33567885,0.44551754,1.5381205,0.6718789,0.0,0.1,0.0332402,0.01674221,0.058950532,0.032821238,inf,inf,inf,inf,1,1,1,1,2,1,1,1,3,0,0,1
571098912,0,0.0,0.0,-0.0117262425,-0.034870613,-0.09852561,-0.035031028,-0.02340852,0.3379954,0.007978805,-0.0007717239,-0.0015262617,-0.0012071414,2.4806237e-05,-5.8458263e-05,-0.00059875334,1.9518096,-1.6963141,-0.5377875,1.538183,0.6718789,0.0,0.1,0.03322202,0.016742215,0.058917325,0.03282125,inf,inf,inf,inf,1,1,1,1,2,1,1,1,3,0,0,1
571118896,0,0.0,0.0,-0.011715775,-0.03492256,-0.098529294,-0.035031028,-0.02340852,0.3379954,0.011580396,-0.006145209,0.0030558866,0.0033712292,2.4806237e-05,-5.8458263e-05,-0.00059875334,-0.6509364,-1.8780323,0.10364864,1.5391676,0.6718789,0.0,0.1,0.03320451,0.016742218,0.058882434,0.03282127,inf,inf,inf,inf,1,1,1,1,2,1,1,1,3,0,0,1
571138883,0,0.0,0.0,-0.011759124,-0.034987573,-0.09850184,-0.035031028,-0.02340852,0.3379954,-0.002907364,-0.0028835915,-0.0037376757,-0.0034267455,2.4806237e-05,-5.8458263e-05,-0.00059875334,-3.1518233,0.2037205,-0.61210275,1.537106,0.6718789,0.0,0.1,0.03318767,0.01674222,0.05884935,0.03282128,inf,inf,inf,inf,1,1,1,1,2,1,1,1,3,0,0,1
571158869,0,0.0,0.0,-0.01180294,-0.035009548,-0.098475106,-0.035031028,-0.02340852,0.3379954,-0.0023166407,0.0056587304,0.0019590494,0.0022644962,2.4806237e-05,-5.8458263e-05,-0.00059875334,-1.788523,0.73898494,-0.3136774,1.5400906,0.6718789,0.0,0.1,0.033171397,0.016742224,0.0588268,0.032821286,inf,inf,inf,inf,1,1,1,1,2,1,1,1,3,0,0,1
571178852,0,0.0,0.0,-0.011856265,-0.03503252,-0.09846571,-0.035031028,-0.02340852,0.3379954,0.0060697957,0.00054302614,-0.0010837434,-0.0007844567,2.4806237e-05,-5.8458263e-05,-0.00059875334,1.288903,-1.3171558,0.05332124,1.537241,0.6718789,0.0,0.1,0.03315582,0.016742228,0.05879081,0.032821294,inf,inf,inf,inf,1,1,1,1,2,1,1,1,3,0,0,1
571198838,0,0.0,0.0,-0.011859918,-0.035081744,-0.09842802,-0.035031028,-0.02340852,0.3379954,0.010477688,-0.007721106,-0.0013601712,-0.0010675238,2.4806237e-05,-5.8458263e-05,-0.00059875334,0.47231308,-2.5544865,-0.8378027,1.539065,0.6718789,0.0,0.1,0.033116452,0.016742231,0.058729723,0.032821316,inf,inf,inf,inf,1,1,1,1,2,1,1,1,3,0,0,1
571218824,0,0.0,0.0,-0.011866646,-0.035134226,-0.098438144,-0.035031028,-0.02340852,0.3379954,0.0055824104,-0.0029828812,-0.00033728866,-5.1532938e-05,2.4806237e-05,-5.8458263e-05,-0.00059875334,-2.0360355,-0.5064627,-0.18399897,1.5379665,0.6718789,0.0,0.1,0.034022465,0.016742231,0.05963138,0.03282133,inf,inf,inf,inf,1,1,1,1,2,1,1,1,3,0,0,1
571238810,0,0.0,0.0,-0.01188851,-0.035165813,-0.098416,-0.035031028,-0.02340852,0.3379954,-0.0073475726,0.0015632946,-0.001841897,-0.0015633286,2.4806237e-05,-5.8458263e-05,-0.00059875334,-3.3147662,0.90109575,-0.34480974,1.5379968,0.6718789,0.0,0.1,0.033957243,0.016742233,0.05953014,0.032821335,inf,inf,inf,inf,1,1,1,1,2,1,1,1,3,0,0,1
571258796,0,0.0,0.0,-0.0119418185,-0.03517993,-0.09839105,-0.035031028,-0.02340852,0.3379954,0.0044665695,0.0029442762,0.0028806978,0.0031516445,2.4806237e-05,-5.8458263e-05,-0.00059875334,0.4002453,-0.38932908,-0.0035024479,1.5393534,0.6718789,0.0,0.1,0.033894833,0.016742237,0.059420597,0.03282134,inf,inf,inf,inf,1,1,1,1,2,1,1,1,3,0,0,1
571278784,0,0.0,0.0,-0.011993633,-0.035229277,-0.09841256,-0.035031028,-0.02340852,0.3379954,0.0073443004,-0.0032490122,-0.002215652,-0.0019529975,2.4806237e-05,-5.8458263e-05,-0.00059875334,1.7468557,-1.9135668,0.21121849,1.5369477,0.6718789,0.0,0.1,0.033835135,0.01674224,0.059335407,0.03282136,inf,inf,inf,inf,1,1,1,1,2,1,1,1,3,0,0,1
571298768,0,0.0,0.0,-0.0119758975,-0.035269484,-0.09837589,-0.035031028,-0.02340852,0.3379954,0.0097707985,-0.0075766053,-0.001314392,-0.0010606456,2.4806237e-05,-5.8458263e-05,-0.00059875334,-0.6293693,-1.9131287,-0.9086845,1.5395324,0.6718789,0.0,0.1,0.033778064,0.016742244,0.059240226,0.032821376,inf,inf,inf,inf,1,1,1,1,2,1,1,1,3,0,0,1
571318751,0,0.0,0.0,-0.012002677,-0.035326067,-0.09840969,-0.035031028,-0.02340852,0.3379954,0.0017612914,-0.0023694676,-0.00037180248,-0.00012747792,2.4806237e-05,-5.8458263e-05,-0.00059875334,-2.4605575,0.44520888,0.07851897,1.5368506,0.6718789,0.0,0.1,0.03372359,0.016742244,0.059156984,0.032821395,inf,inf,inf,inf,1,1,1,1,2,1,1,1,3,0,0,1
571338738,0,0.0,0.0,-0.0120274,-0.03536302,-0.09840854,-0.035031028,-0.02340852,0.3379954,-0.0062797163,0.0019563807,-0.0015157628,-0.0012812922,2.4806237e-05,-5.8458263e-05,-0.00059875334,-2.4023933,0.9199373,-0.22362183,1.5394578,0.6718789,0.0,0.1,0.033671495,0.016742248,0.059084877,0.032821395,inf,inf,inf,inf,1,1,1,1,2,1,1,1,3,0,0,1
571358724,0,0.0,0.0,-0.012087585,-0.035394147,-0.098416895,-0.035031028,-0.02340852,0.3379954,0.006835778,0.0006038899,0.0015619936,0.001786297,2.4806237e-05,-5.8458263e-05,-0.00059875334,1.0620005,-0.7854499,0.32285315,1.538169,0.6718789,0.0,0.1,0.033621848,0.016742252,0.05900826,0.03282141,inf,inf,inf,inf,1,1,1,1,2,1,1,1,3,0,0,1
571378707,0,0.0,0.0,-0.0120875295,-0.035433374,-0.09842743,-0.035031028,-0.02340852,0.3379954,0.010935639,-0.0046784165,-0.0015347557,-0.0013208658,2.4806237e-05,-5.8458263e-05,-0.00059875334,1.4377556,-2.3132896,-0.054193098,1.538204,0.6718789,0.0,0.1,0.033574477,0.016742256,0.05895346,0.03282143,inf,inf,inf,inf,1,1,1,1,2,1,1,1,3,0,0,1
571398693,0,0.0,0.0,-0.0120497225,-0.035462223,-0.09841231,-0.035031028,-0.02340852,0.3379954,0.008144619,-0.0055267443,0.0010157024,0.0012191113,2.4806237e-05,-5.8458263e-05,-0.00059875334,-1.620457,-1.2821407,-0.31533334,1.5390145,0.6718789,0.0,0.1,0.033529386,0.016742257,0.0588868,0.032821447,inf,inf,inf,inf,1,1,1,1,2,1,1,1,3,0,0,1
571418678,0,0.0,0.0,-0.012087903,-0.03549893,-0.09842676,-0.035031028,-0.02340852,0.3379954,-0.0026129757,-0.0022886274,-0.0033685677,-0.0031758968,2.4806237e-05,-5.8458263e-05,-0.00059875334,-2.9000325,0.5659004,-0.3976704,1.5369647,0.6718789,0.0,0.1,0.03348643,0.01674226,0.05883359,0.032821454,inf,inf,inf,inf,1,1,1,1,2,1,1,1,3,0,0,1
571438666,0,0.0,0.0,-0.012135967,-0.03553176,-0.09842543,-0.035031028,-0.02340852,0.3379954,-0.0018150563,0.0028297452,0.00059834204,0.0007802648,2.4806237e-05,-5.8458263e-05,-0.00059875334,-1.4785849,0.60975724,-0.26132652,1.5399975,0.6718789,0.0,0.1,0.033445515,0.016742261,0.058789488,0.03282145,inf,inf,inf,inf,1,1,1,1,2,1,1,1,3,0,0,1
571458652,0,0.0,0.0,-0.012192779,-0.03556586,-0.098445676,-0.035031028,-0.02340852,0.3379954,0.003930926,0.0008535462,-0.0010999036,-0.0009289374,2.4806237e-05,-5.8458263e-05,-0.00059875334,0.8325494,-0.85498554,-0.11017647,1.5370412,0.6718789,0.0,0.1,0.033406712,0.016742263,0.058731478,0.03282148,inf,inf,inf,inf,1,1,1,1,2,1,1,1,3,0,0,1
571478635,0,0.0,0.0,-0.012186333,-0.035598762,-0.09844622,-0.035031028,-0.02340852,0.3379954,0.0108711785,-0.007097291,-0.00056811847,-0.00040816367,2.4806237e-05,-5.8458263e-05,-0.00059875334,1.0911072,-2.6216898,-0.3253756,1.5395343,0.6718789,0.0,0.1,0.03336977,0.016742267,0.058700264,0.032821488,inf,inf,inf,inf,1,1,1,1,2,1,1,1,3,0,0,1
571498623,0,0.0,0.0,-0.012202763,-0.035658088,-0.09846072,-0.035031028,-0.02340852,0.3379954,0.009423707,-0.0057587083,-0.0019481678,-0.0017993033,2.4806237e-05,-5.8458263e-05,-0.00059875334,-0.7676391,-1.2347566,-0.36015654,1.5376326,0.6718789,0.0,0.1,0.033334758,0.01674227,0.058655325,0.032821514,inf,inf,inf,inf,1,1,1,1,2,1,1,1,3,0,0,1
571518607,0,0.0,0.0,-0.012229636,-0.035705213,-0.09849335,-0.035031028,-0.02340852,0.3379954,-0.004298063,-0.0039262865,-0.004086376,-0.0039485833,2.4806237e-05,-5.8458263e-05,-0.00059875334,-3.0315864,0.5151716,-0.44788402,1.5383382,0.6718789,0.0,0.1,0.033301525,0.016742272,0.058621313,0.032821503,inf,inf,inf,inf,1,1,1,1,2,1,1,1,3,0,0,1
571538593,0,0.0,0.0,-0.01227381,-0.035711203,-0.098503985,-0.035031028,-0.02340852,0.3379954,0.0007061714,0.0038768195,0.0020828766,0.0022096033,2.4806237e-05,-5.8458263e-05,-0.00059875334,-1.6856482,0.9454031,0.15504363,1.5391407,0.6718789,0.0,0.1,0.033269998,0.016742274,0.058589153,0.032821506,inf,inf,inf,inf,1,1,1,1,2,1,1,1,3,0,0,1
571558578,0,0.0,0.0,-0.0123087885,-0.035737872,-0.098524965,-0.035031028,-0.02340852,0.3379954,-0.000885147,0.0014763933,-0.0027482659,-0.0026323714,2.4806237e-05,-5.8458263e-05,-0.00059875334,0.15366255,-0.3200519,-0.16474922,1.5373584,0.6718789,0.0,0.1,0.033240177,0.016742276,0.05855524,0.032821536,inf,inf,inf,inf,1,1,1,1,2,1,1,1,3,0,0,1
571578564,0,0.0,0.0,-0.012302149,-0.03574931,-0.09853569,-0.035031028,-0.02340852,0.3379954,0.010922122,-0.004990632,0.00035476373,0.00046023983,2.4806237e-05,-5.8458263e-05,-0.00059875334,0.99697316,-2.645745,-0.1909209,1.5400815,0.6718789,0.0,0.1,0.033211906,0.01674228,0.058530275,0.032821536,inf,inf,inf,inf,1,1,1,1,2,1,1,1,3,0,0,1
571598549,0,0.0,0.0,-0.012349639,-0.035806734,-0.09858158,-0.035031028,-0.02340852,0.3379954,0.009223588,-0.008312656,-0.0013235629,-0.0012283007,2.4806237e-05,-5.8458263e-05,-0.00059875334,0.7314082,-1.9259744,0.10918485,1.5365579,0.6718789,0.0,0.10002055,0.033185244,0.016742283,0.058501728,0.03282156,inf,inf,inf,inf,1,1,1,1,2,1,1,1,3,0,0,1
571618533,0,0.0,0.0,-0.012333184,-0.035859574,-0.09858946,-0.035031028,-0.02340852,0.3379954,0.0010384347,-0.0083886655,-0.003018983,-0.0029335336,2.4806237e-05,-5.8458263e-05,-0.00059875334,-2.7792525,-0.55409783,-0.62599355,1.539932,0.6718789,0.0,0.100028425,0.03315998,0.016742287,0.058483995,0.032821547,inf,inf,inf,inf,1,1,1,1,2,1,1,1,3,0,0,1
571638518,0,0.0,0.0,-0.012417112,-0.035865817,-0.098645754,-0.035031028,-0.02340852,0.3379954,-0.0012239174,0.000321207,-0.0007537566,-0.00067801966,2.4806237e-05,-5.8458263e-05,-0.00059875334,-2.2148523,0.80866885,0.41397244,1.5368962,0.6718789,0.0,0.10008472,0.03313618,0.016742289,0.058459356,0.032821555,inf,inf,inf,inf,1,1,1,1,2,1,1,1,3,0,0,1
571658504,0,0.0,0.0,-0.012441059,-0.035886433,-0.09866935,-0.035031028,-0.02340852,0.3379954,-0.0048008338,0.0016259142,-0.004109257,-0.004042791,2.4806237e-05,-5.8458263e-05,-0.00059875334,-1.63847,0.9703481,-0.22281669,1.5392691,0.6718789,0.0,0.10010832,0.033113707,0.01674229,0.058441598,0.032821577,inf,inf,inf,inf,1,1,1,1,2,1,1,1,3,0,0,1
571678491,0,0.0,0.0,-0.012451081,-0.035891995,-0.098702185,-0.035031028,-0.02340852,0.3379954,0.0051909075,-0.00025873198,-0.0015258311,-0.0014683895,2.4806237e-05,-5.8458263e-05,-0.00059875334,0.4648203,-0.95182586,-0.23462038,1.5381559,0.6718789,0.0,0.10014115,0.03309255,0.016742293,0.058426127,0.03282158,inf,inf,inf,inf,1,1,1,1,2,1,1,1,3,0,0,1
571698475,0,0.0,0.0,-0.012499421,-0.03593386,-0.098751605,-0.035031028,-0.02340852,0.3379954,0.006724616,-0.0056558354,-0.0010669886,-0.0010179603,2.4806237e-05,-5.8458263e-05,-0.00059875334,2.2474568,-1.9278612,0.52549773,1.5378156,0.6718789,0.0,0.10019057,0.03307267,0.016742295,0.05840968,0.032821603,inf,inf,inf,inf,1,1,1,1,2,1,1,1,3,0,0,1
571718462,0,0.0,0.0,-0.012493156,-0.035948373,-0.098752975,-0.035031028,-0.02340852,0.3379954,0.008493518,-0.00799409,0.00018539479,0.00022640839,2.4806237e-05,-5.8458263e-05,-0.00059875334,-0.0666975,-1.75603,0.0964877,1.5394965,0.6718789,0.0,0.10019194,0.03305388,0.016742298,0.05839837,0.03282161,inf,inf,inf,inf,1,1,1,1,2,1,1,1,3,0,0,1
571738446,0,0.0,0.0,-0.01254778,-0.035956543,-0.09878325,-0.035031028,-0.02340852,0.3379954,0.0006780403,-0.004511757,-0.0033048447,-0.0032712228,2.4806237e-05,-5.8458263e-05,-0.00059875334,-1.3264561,0.1984711,0.034445286,1.5363904,0.6718789,0.0,0.100222215,0.0330363,0.016742302,0.058384582,0.032821607,inf,inf,inf,inf,1,1,1,1,2,1,1,1,3,0,0,1
571758433,0,0.0,0.0,-0.012556384,-0.035964813,-0.09879796,-0.035031028,-0.02340852,0.3379954,-0.003810945,0.00094315206,0.0010095426,0.001036586,2.4806237e-05,-5.8458263e-05,-0.00059875334,-2.690602,1.5192331,0.09926862,1.5405854,0.6718789,0.0,0.10023693,0.033019744,0.016742304,0.058378898,0.032821625,inf,inf,inf,inf,1,1,1,1,2,1,1,1,3,0,0,1
571778418,0,0.0,0.0,-0.012607688,-0.03600218,-0.098830685,-0.035031028,-0.02340852,0.3379954,-0.0017050669,0.0014277798,-0.003289393,-0.0032682188,2.4806237e-05,-5.8458263e-05,-0.00059875334,-0.07043615,1.3571703,0.065427214,1.5361896,0.6718789,0.0,0.10026965,0.03300427,0.016742306,0.058359925,0.032821637,inf,inf,inf,inf,1,1,1,1,2,1,1,1,3,0,0,1
571798402,0,0.0,0.0,-0.012613992,-0.03599285,-0.098832265,-0.035031028,-0.02340852,0.3379954,0.00667203,-0.0017290084,-0.00010062962,-8.447415e-05,2.4806237e-05,-5.8458263e-05,-0.00059875334,2.034069,-1.50334,-0.21636151,1.5404993,0.6718789,0.0,0.10027123,0.032989737,0.016742308,0.05835702,0.032821637,inf,inf,inf,inf,1,1,1,1,2,1,1,1,3,0,0,1
