timestamp,gyro_rad[0],gyro_rad[1],gyro_rad[2],gyro_integral_dt,accelerometer_timestamp_relative,accelerometer_m_s2[0],accelerometer_m_s2[1],accelerometer_m_s2[2],accelerometer_integral_dt,accelerometer_clipping
568360902,-0.002001133,-0.00032396388,-0.01140933,4996,0,-0.10096815,-0.073463686,-9.82604,4996,0
568365899,-0.0008905907,-0.00081102195,-0.011765498,4997,0,-0.04342169,-0.0923028,-9.899317,4997,0
568380887,-0.0026925928,0.0023794754,-0.011965164,4996,0,-0.058776263,-0.09772157,-9.859575,4996,0
568400874,-0.0023474363,0.00022270207,-0.013629511,4998,0,-0.07623221,-0.09694084,-9.842819,4998,0
568425855,-0.0018365723,0.0018882772,-0.038328115,4996,0,-0.08461355,-0.08380139,-9.740915,4996,0
568445841,0.021312902,-0.0021490245,0.023895772,4997,0,0.03400106,0.0765216,-9.949951,4997,0
568460830,-0.009029225,-0.0010253229,-0.04930105,4997,0,0.09839879,-0.14401959,-9.849779,4997,0
568485811,0.002012491,8.7704255e-05,-0.0018347794,4996,0,-0.11422639,0.064683236,-9.791188,4996,0
568505798,-0.025437951,0.006078965,-0.0078031807,4997,0,-0.098203905,-0.3021792,-9.47133,4997,0
568520786,-0.007449329,0.002135851,-0.0073980363,4997,0,-0.22621715,-0.02760252,-10.006368,4997,0
568540772,0.0036046521,0.00031743437,-0.007132078,4997,0,-0.018727703,0.092622094,-9.854809,4997,0
568565753,-0.003810321,-0.002526187,-0.012946862,4995,0,0.08913063,0.0059044953,-10.10487,4995,0
568585744,-0.004373438,-0.0040846798,-0.011719568,5001,0,-0.122206025,-0.01462228,-10.015528,5001,0
568600728,-0.009177237,-0.004640218,-0.0128777595,4997,0,-0.023423364,-0.0046871826,-9.917145,4997,0
568620713,0.003422443,0.0020112635,-0.012944687,4996,0,0.04637782,-0.17735913,-9.782076,4996,0
568645699,0.02618847,-0.004133703,0.001394504,5000,0,-0.0103907725,0.117059626,-9.966261,5000,0
568660684,0.006018795,-0.0070251925,-0.030112622,4995,0,0.04622436,0.019514263,-10.101791,4995,0
568680670,-0.006360499,0.006667513,0.011076251,4996,0,-0.088757515,0.025744826,-9.9224,4996,0
568705653,-0.0020582608,0.0029249177,0.0019293559,4996,0,0.007849542,0.041282777,-9.84399,4996,0
568720641,-0.0040649,-0.006369576,-0.022562977,4997,0,-0.062910974,0.022192761,-9.81533,4997,0
568740626,-0.012851415,-0.0029064554,-0.011684547,4995,0,0.08637107,-0.17002496,-9.817043,4995,0
568765608,-0.021013903,-0.0004941781,-0.023162238,4996,0,-0.2593038,-0.22052646,-9.769687,4996,0
568785593,-0.018571846,-0.004182815,-0.023473267,4996,0,-0.23596871,-0.21999066,-9.721022,4996,0
568800584,0.007932612,0.008017274,-0.014504819,4998,0,0.08228899,-0.31681943,-9.828516,4998,0
568820568,0.021886151,0.009320462,-0.016336074,4997,0,-0.13881257,-0.1913101,-10.019232,4997,0
568845549,-0.06294542,0.0019342242,-0.033272363,4996,0,-0.18923141,0.39599735,-9.403604,4996,0
568865534,0.049151596,-0.005797035,0.028605606,4995,0,0.92858255,0.14867483,-10.30335,4995,0
568880524,-0.021747513,0.011333332,-0.048092473,4996,0,-0.41689956,-1.5525699,-9.684333,4996,0
568905506,0.030660998,0.016593201,-0.05451739,4995,0,-1.4880661,-0.8217001,-10.072062,4995,0
568925491,0.031926896,-0.016030157,0.057550214,4996,0,0.07758826,2.4357185,-9.97338,4996,0
568940481,-0.0082985405,-0.005306898,-0.059268795,4997,0,0.41997778,2.4959097,-9.852449,4997,0
568960466,-0.012019999,0.02989323,0.031385787,4996,0,-2.2041574,-1.3524317,-9.515857,4996,0
568985448,0.015381589,0.021041535,0.05158037,4996,0,-0.20898995,-1.9595401,-9.433513,4996,0
569005433,-0.034530833,0.0080061285,-0.13160257,4996,0,-0.057296976,-0.119858846,-9.554287,4996,0
569020423,-0.0033788779,0.016584767,0.03478027,4997,0,-0.5666838,0.99679106,-9.897485,4997,0
569045404,-0.018775506,0.020426612,-0.09757424,4996,0,-1.1476767,-2.9531991,-9.262489,4996,0
569060394,0.0021145958,-0.0017034246,0.0365407,4997,0,-1.9658101,-1.415265,-9.93425,4997,0
569080379,-0.0068276017,0.0011130169,-0.01624329,4997,0,0.45094612,3.4317122,-10.108503,4997,0
569100365,0.0471917,-0.010713814,-0.09451874,4997,0,-1.4049896,-1.8733572,-10.551856,4997,0
569125349,0.07920399,0.016218273,0.19828606,4998,0,0.15765733,0.8643213,-9.76145,4998,0
569145331,-0.02289242,0.011453778,-0.12187166,4995,0,-0.9474258,-2.1607282,-9.217142,4995,0
569160321,-0.017635742,-0.013442178,0.083834074,4996,0,-1.7667304,-0.59264493,-9.680083,4996,0
569185302,0.028413,0.024009394,0.14744695,4995,0,-0.7635112,-1.5748334,-9.405267,4995,0
569205288,-0.06842383,0.005991491,-0.29029042,4995,0,-0.4517062,-0.15996987,-9.623553,4995,0
569220278,0.010244598,0.01448322,0.18714829,4997,0,-0.13454206,2.1170719,-9.447543,4997,0
569240262,0.067408755,-0.01543948,-0.249,4996,0,-0.5223415,0.9295025,-10.556678,4996,0
569265244,0.030812304,0.02922241,0.095083036,4996,0,-0.07386595,3.0554602,-10.38465,4996,0
569285230,0.037759952,0.011863644,0.034568552,4996,0,-0.19079684,-1.8748974,-9.342696,4996,0
569300222,0.041965857,-0.008845476,0.05301755,4999,0,-1.2561026,-1.4402168,-10.214119,4999,0
569325201,0.07855372,0.027905615,0.30215374,4996,0,0.98622084,-0.12524736,-9.28685,4996,0
569345186,-0.017520372,0.009536102,-0.32694188,4991,0,-0.8813419,-2.4859288,-9.414243,4991,0
569365175,0.072425865,0.031011166,0.2947674,4993,0,0.17167765,2.883963,-10.013369,4993,0
569380161,-0.010561791,-0.018802825,-0.30880368,4996,0,0.3523846,2.1491783,-10.451051,4996,0
569405143,-0.027122384,-0.001353341,0.013960608,4994,0,-0.0042219176,1.0960767,-10.202846,4994,0
569425128,0.046517275,0.01441217,0.070443265,4996,0,0.78974336,-0.9511637,-9.591942,4996,0
569440117,0.07676025,-0.0011313037,0.090282924,4995,0,-0.65200746,-0.47950336,-10.371204,4995,0
569465099,0.07563008,0.058941886,0.31454125,4996,0,0.88751006,1.1448376,-9.197764,4996,0
569485084,-0.002554798,-0.0008082103,-0.33661225,4996,0,-1.0383216,-2.0872183,-9.578291,4996,0
569500075,0.008584365,0.0047013825,0.22379501,4998,0,-1.6505021,-1.6056968,-9.583171,4998,0
569520059,-0.06495219,-0.002302528,-0.34364703,4996,0,-0.05018039,2.4197605,-9.81013,4996,0
569545040,-0.043081556,0.007949166,0.07012388,4995,0,-0.60122275,-1.6368545,-9.686112,4995,0
569565026,0.028869687,0.045179542,0.044010922,4996,0,1.6113726,0.5139551,-9.401224,4996,0
569580016,0.05058288,0.022964742,0.19456613,4997,0,0.007970631,3.579677,-10.624124,4997,0
569604999,-0.022544561,0.043979608,0.2593096,4996,0,-0.29398268,0.66077507,-9.367644,4996,0
569624983,-0.0066868635,-0.019873599,-0.32945648,4996,0,1.3973087,1.1641062,-10.049264,4996,0
569639972,0.08074041,0.038106274,0.26444378,4995,0,0.8986336,-0.5925108,-9.566774,4995,0
569664953,-0.040755007,0.011322136,-0.32937256,4996,0,0.9840062,0.19470716,-9.814137,4996,0
569684940,0.07940109,0.02202633,0.28100705,4997,0,0.6276935,-1.0446525,-9.314506,4997,0
569704924,-0.04255061,0.015955243,-0.124287635,4994,0,-0.6277741,-1.6696274,-9.142795,4994,0
569719914,-0.011789025,-0.012590672,0.17846443,4995,0,-1.847115,0.9965881,-9.919604,4995,0
569744895,-0.0028538406,-0.02183363,0.13155228,4996,0,0.07748198,-2.6005716,-9.339683,4996,0
569764881,-0.081981346,-0.028572481,-0.30959076,4996,0,0.1565481,-0.19677372,-10.235823,4996,0
569784866,0.045904137,0.042177074,0.36368248,4996,0,1.8355454,-0.912275,-8.924208,4996,0
569804854,-0.03527071,-0.025080753,-0.36474004,4997,0,-0.3057416,-2.5220246,-9.321666,4997,0
569824837,-0.009215136,0.025030686,0.35150102,4996,0,0.8154196,2.1939797,-9.96109,4996,0
569844823,-0.006650847,-0.042143084,-0.27782154,4996,0,0.6611685,-1.8933482,-9.98061,4996,0
569859812,0.06611956,0.031973813,0.35357165,4996,0,0.8503511,-2.900235,-9.488616,4996,0
569884794,-0.00693747,0.0085698655,-0.020555727,4997,0,2.223518,0.13409266,-9.806089,4997,0
569904779,0.025120832,-0.028989721,-0.1080053,4994,0,0.36802262,-3.4137185,-9.842649,4994,0
569919770,-0.008538938,-0.016456114,-0.11806354,4998,0,-0.064435884,-2.9585454,-9.342316,4998,0
569944751,-0.004239864,-0.022960465,-0.2811532,4997,0,1.4813178,1.5613178,-10.4804735,4997,0
569964736,-0.053462327,-0.01067025,0.30845103,4996,0,-0.44297135,-2.9104085,-9.482811,4996,0
569984722,-0.1244762,-0.035849135,-0.4599508,4997,0,-0.039103173,1.2538018,-9.857773,4997,0
569999715,0.025977544,0.06557029,0.36570898,5000,0,0.20734113,0.96514213,-9.032641,5000,0
570024692,-0.047805667,-0.035426017,-0.32823986,4996,0,-0.98356956,-2.6798887,-9.781757,4996,0
570044678,-0.0027843318,-0.005642988,0.17603914,4995,0,-0.8782458,3.72357,-10.733729,4995,0
570059669,-0.10187737,-0.013187931,-0.41085944,4998,0,1.2360284,-0.14214842,-9.565168,4998,0
570084649,-0.067292504,-0.040998623,-0.12083053,4996,0,-1.1438775,-2.930968,-10.003376,4996,0
570104634,0.025896436,0.025041873,0.14393713,4995,0,0.2073468,1.9570974,-9.935206,4995,0
570124619,0.03229656,-0.026202297,-0.19429971,4996,0,0.50289494,0.48952195,-10.038369,4996,0
570139608,-0.009274109,-0.043974016,0.027361166,4995,0,0.9902698,-2.2079237,-9.9425,4995,0
570164590,-0.041749235,-0.02770499,-0.40971935,4992,0,-0.16928172,3.583926,-10.769111,4992,0
570184576,0.0006042662,-0.018305784,0.3798697,4996,0,-0.55945104,-2.004968,-9.627614,4996,0
570199567,0.013706547,-0.052096877,-0.33600104,4998,0,0.22280374,-2.059373,-9.78212,4998,0
570224547,0.06463312,0.05015817,0.40234774,4996,0,0.5498199,2.5246172,-9.828938,4996,0
570244533,-0.005380469,-0.02855536,-0.21677029,4996,0,-1.798811,-1.0103502,-9.848285,4996,0
570264521,-0.08997167,-0.011271504,-0.020533016,4999,0,-2.4233193,2.2285247,-10.714561,4999,0
570284503,0.020864297,0.025824144,0.08651,4996,0,0.8361695,1.2022544,-9.430922,4996,0
570304490,0.07229791,-0.037611093,-0.1906931,4997,0,-0.55163425,-1.1941198,-10.117472,4997,0
570324474,0.0013508704,0.046402264,0.25311503,4997,0,-2.156319,0.46844128,-9.601205,4997,0
570339464,-0.07442994,-0.04852793,-0.28081045,4996,0,-2.7024834,-0.032454893,-10.3459425,4996,0
570364445,0.07054602,-0.013483083,0.20313075,4997,0,-1.0162572,-0.20541406,-10.057715,4997,0
570384431,0.001306608,-0.022050224,-0.165077,4992,0,-1.6179638,-1.6315031,-9.582314,4992,0
570404416,-0.004249449,0.0468703,-0.009031238,4996,0,-0.4588637,2.913334,-10.34515,4996,0
570424401,0.051541682,0.026716135,0.12676921,4995,0,1.051496,0.90587234,-9.645944,4995,0
570444387,0.029190842,-0.030352045,-0.19231628,4996,0,-1.0665436,-1.4165363,-9.871851,4996,0
570464372,-0.020567501,0.035062015,0.1744571,4996,0,-1.6406227,-0.47482944,-9.450288,4996,0
570479361,-0.04740681,-0.008087214,-0.26444444,4996,0,-2.7194877,-0.65100497,-10.194658,4996,0
570504343,0.06032034,0.0016776281,0.14156361,4991,0,0.48658746,0.40260354,-9.758857,4991,0
570524329,0.026394831,0.0003985136,-0.027837278,4991,0,-1.2549596,-2.557342,-9.355333,4991,0
570544314,-0.03237915,0.031970166,-0.14426355,4990,0,-1.3419915,0.43389693,-10.156569,4990,0
570564300,0.059552815,0.04237117,0.18397234,4994,0,0.7964388,1.6610631,-9.311684,4994,0
570584285,0.06805794,-0.0287649,-0.16640471,4990,0,0.23643833,-0.6312054,-9.630304,4990,0
570604272,-0.00465753,0.0158386,0.11159183,4998,0,-1.6496606,-1.6475488,-9.773774,4998,0
570619264,-0.030728562,-0.038001467,-0.23755358,5001,0,-1.8958873,-1.4384487,-10.049302,5001,0
570644242,0.092589885,0.008494831,0.038308214,4992,0,0.72310233,2.3767579,-10.153452,4992,0
570664227,0.014080806,0.007068848,0.11430181,4996,0,-0.30521214,-1.7037929,-9.492759,4996,0
570684212,-0.031804837,-0.017882038,-0.2553313,4996,0,-1.9020197,-1.5225443,-10.24979,4996,0
570704198,0.021629566,0.041219234,0.18647319,4995,0,-0.67402434,2.447106,-9.412991,4995,0
570724184,0.041451644,-0.0039447797,-0.098021306,4996,0,1.2703747,1.3442241,-9.611514,4996,0
570744173,0.0219344,-0.012867067,0.045267414,4993,0,-1.1293869,-1.779712,-10.448995,4993,0
570764155,-0.010751851,0.025362702,-0.0006645264,4995,0,-1.9764265,-0.90756005,-9.57426,4995,0
570784143,-0.0051815035,0.0361316,-0.15427883,4997,0,-0.202843,3.1971226,-10.077996,4997,0
570804125,0.04858201,0.009993054,0.23460703,4993,0,0.92747235,0.56021,-9.299753,4993,0
570824111,0.00012151277,-0.014645262,-0.225796,4996,0,-0.68122774,-2.2701323,-9.823203,4996,0
570844096,-0.004245646,0.023589028,0.12474352,4996,0,-2.2625299,-0.113233775,-10.171389,4996,0
570864082,-0.01346355,0.038275383,-0.102286495,4997,0,0.046080634,2.4279838,-9.947784,4997,0
570884067,0.05080485,-0.008085401,0.025081435,4995,0,1.2182455,1.1787785,-9.627189,4995,0
570904053,0.016851194,0.016155424,0.10179999,4995,0,-1.0552491,-2.550705,-9.522784,4995,0
570924038,-0.04920571,0.0018402027,-0.2753928,4995,0,-2.2088594,-0.15407386,-9.9138975,4995,0
570944024,0.048601944,0.042982135,0.25483447,4995,0,0.22962391,2.7079,-9.751161,4995,0
570964009,0.035177357,0.001965384,-0.1941051,4995,0,1.4465417,1.2708528,-9.688949,4995,0
570983995,0.04141486,-0.008928623,0.14698082,4997,0,-1.1511954,-1.6252705,-10.297134,4997,0
571003980,-0.027203629,0.031030256,-0.11498347,4995,0,-2.0157576,-1.5531868,-9.462375,4995,0
571023967,0.03328384,0.038601123,-0.08147921,4998,0,-0.7228212,2.9180262,-10.217266,4998,0
571043952,0.042418536,0.03692324,0.21383466,4998,0,0.95643586,1.650077,-9.649317,4998,0
571063937,0.046233542,-0.04382602,-0.22451653,4996,0,0.14637026,-1.3844061,-9.975281,4996,0
571083923,0.0023593025,0.03769158,0.20773213,4998,0,-2.3138936,-1.4261006,-9.507942,4998,0
571103907,-0.025946653,0.008861032,-0.2637879,4995,0,-1.2728709,0.64459056,-10.252295,4995,0
571123893,0.041183412,0.023753075,0.16637908,4997,0,0.9564241,3.126627,-9.808598,4997,0
571143880,0.05136505,-0.0022286524,0.023232482,4997,0,1.2633971,-0.7538498,-9.32203,4997,0
571163867,0.004768038,-0.016583223,-0.14539285,4998,0,-1.8614215,-2.0497472,-10.053959,4998,0
571183850,0.03567709,0.041114077,0.14326511,4998,0,-1.6003904,-0.579785,-9.441003,4998,0
571203835,-0.018671881,0.031074947,-0.24581528,4997,0,0.41041574,2.4445229,-9.91988,4997,0
571223821,0.066239916,0.013827549,0.27219975,4997,0,1.3670605,0.9780862,-9.323404,4997,0
571243807,0.032959796,-0.018399699,-0.18623234,4997,0,-0.096615896,-2.1432326,-9.586918,4997,0
571263791,-0.0020075634,0.019302461,0.040592827,4995,0,-2.2310073,-1.2924252,-10.402232,4995,0
571283780,-0.007212339,0.040213164,-0.047507267,4996,0,-0.56320155,0.22266111,-9.048888,4996,0
571303764,0.037753128,0.013549933,-0.061787575,4996,0,1.1398469,2.66828,-10.233448,4996,0
571323750,0.056531627,-0.0046082605,0.22511342,4999,0,1.1365774,-0.33108887,-9.579594,4999,0
571343734,0.0012716827,-0.023717988,-0.24150796,4996,0,-0.8458931,-2.1115134,-9.763797,4996,0
571363718,0.02251217,0.03554137,0.19421828,4994,0,-1.8049728,-1.1374518,-10.104065,4994,0
571383708,-0.054466378,0.048866816,-0.25348133,5001,0,-0.3017725,1.2647135,-9.537817,5001,0
571403691,0.072359644,0.0119499285,0.18108626,4998,0,1.3288704,2.1550472,-9.988379,4998,0
571423676,0.053751618,-0.015567874,-0.0020581943,4998,0,0.69898224,-0.45880467,-9.404492,4998,0
571443665,0.010922374,-0.02410152,-0.09525572,4999,0,-1.4020395,-1.8209492,-10.261292,4999,0
571463646,0.013844663,0.05348241,0.12032166,4994,0,-1.719729,-1.3809347,-9.688009,4994,0
571483632,-0.017243182,0.038332045,-0.27824545,4997,0,-0.42940208,1.8703084,-9.937509,4997,0
571503617,0.049078494,0.032992214,0.3013534,4994,0,1.1329545,1.8915687,-9.53152,4994,0
571523603,0.041106094,-0.03951953,-0.2092549,4996,0,1.3019258,-0.1243604,-9.346537,4996,0
571543589,0.040987,-0.01620144,0.1718898,4996,0,-1.1409456,-1.7591022,-10.19888,4996,0
571563573,-0.0366506,0.01605112,-0.14187072,4995,0,-1.5983087,-2.2051404,-9.3856735,4995,0
571583559,-0.00970122,0.042598043,-0.042612303,4995,0,-0.91102225,1.0948532,-10.379388,4995,0
571603544,0.016335897,0.059228677,0.109299764,4995,0,0.9528227,1.5117748,-9.4610615,4995,0
571623529,0.07662377,-0.03244406,-0.17471445,4996,0,2.1855116,1.5173552,-9.919333,4996,0
571643515,0.05999441,0.00833193,0.32380837,4997,0,0.3206818,-1.1228496,-9.365288,4997,0
571663500,-0.0184989,-0.033749912,-0.34282568,4996,0,-0.59500194,-2.5132456,-9.442131,4996,0
571683486,0.010997797,0.03605264,0.2821933,4995,0,-1.4876673,-1.4427342,-9.817684,4995,0
571703474,-0.05845359,0.02091414,-0.33313528,4999,0,0.18077976,0.019265268,-9.766039,4999,0
571723457,0.040562935,0.03676854,0.19760711,4995,0,1.727232,1.6696736,-9.68516,4995,0
571743443,-0.0030339889,-0.00024837756,-0.03798327,4997,0,1.8266879,0.017424759,-9.534792,4997,0
571763428,0.033156082,-0.070969895,-0.035547867,4995,0,0.4623649,-2.0462322,-9.811113,4995,0
571783414,-0.042822495,0.01597769,0.15419939,4996,0,-0.88895446,-3.3578415,-8.9212885,4996,0
571803403,-0.06392322,0.0013449455,-0.35018587,5001,0,-0.82261336,-0.82889766,-10.36273,5001,0
571823387,0.00068296905,0.04531323,0.3371722,4999,0,1.5469404,0.95896214,-9.135813,4999,0
571843370,-0.02393662,-0.024129195,-0.35110325,4997,0,2.543776,1.5550288,-10.079389,4997,0
571863355,0.060873248,-0.01292612,0.40035513,4996,0,0.8946361,-1.7049274,-9.862744,4996,0
571883341,-0.06698569,-0.055256285,-0.3947692,4997,0,-0.81226444,-3.3328295,-9.615675,4997,0
571903330,-0.037413225,0.013585665,0.26644045,4999,0,-1.3932691,-1.0483662,-9.800984,4999,0
571923311,-0.110217884,0.014932626,-0.24904253,4996,0,0.46966922,0.4066479,-9.626588,4996,0
571943297,0.019348899,-0.005741761,0.11011249,4996,0,2.681811,2.3115911,-9.79673,4996,0
571963282,0.020657752,-0.021842865,0.11544205,4994,0,2.1542647,-0.10306266,-9.657477,4994,0
571983269,0.018931668,-0.08313314,-0.22687013,4997,0,-0.22256935,-0.96272886,-10.245255,4997,0
572003253,0.00851467,-0.028517623,0.28633624,4996,0,-1.18401,-2.7219791,-9.974577,4996,0
572023241,-0.077636816,-0.025261696,-0.394219,4995,0,-2.657642,-1.5389194,-10.11492,4995,0
572043224,-0.016798059,0.012171235,0.2278755,4995,0,-0.8470953,0.55668443,-9.831088,4995,0
572063210,-0.053470425,0.030123126,-0.19375762,4996,0,0.65952283,2.4938002,-10.559099,4996,0
572083195,0.01160994,-0.0028665806,0.07837021,4991,0,1.74084,2.935496,-9.947771,4991,0
572103181,0.03376487,-0.019449756,0.10192566,4994,0,1.3377769,1.0871109,-9.790735,4994,0
572123166,0.017481074,-0.06773362,-0.15388884,4995,0,-0.9822442,-0.77239835,-10.111485,4995,0
572143153,0.019067336,-0.02406708,0.16768068,4997,0,-2.0446434,-2.505115,-10.085641,4997,0
572163137,-0.06079797,-0.016616134,-0.26800093,4995,0,-2.6666067,-1.735449,-10.061117,4995,0
572183123,-0.04343466,0.011304332,0.07382919,4996,0,-1.395124,-0.02572622,-10.326896,4996,0
572203110,-0.055367235,0.031506386,-0.072765164,4998,0,-0.21376881,1.4900455,-9.99693,4998,0
572223095,-0.03840392,0.0068361633,-0.09136777,4996,0,1.1186106,2.7488797,-10.261479,4996,0
572243079,0.010166288,0.0065790117,0.19017348,4994,0,1.8052117,2.771664,-9.755504,4994,0
572263065,0.014643429,-0.0472866,-0.17045854,4997,0,2.1275992,2.205919,-10.162959,4997,0
572283050,0.046891708,-0.0413464,0.20990327,4995,0,1.1904131,1.0423671,-9.896406,4995,0
572303037,0.008874807,-0.06435804,-0.060931105,4996,0,0.12389934,-0.99999696,-9.932406,4996,0
572323021,6.91208e-05,-0.07062602,-0.0392375,4996,0,-1.4344822,-1.8657072,-10.13677,4996,0
572343007,-0.01771487,-0.028442489,0.10553433,4995,0,-1.8747096,-3.347765,-9.743416,4995,0
572362993,-0.07673605,-0.02575274,-0.24855751,4993,0,-1.7966168,-2.4910483,-10.128871,4993,0
572382980,-0.047318585,0.0073187696,0.11056083,4998,0,-1.7104807,-1.6646882,-9.673931,4998,0
572402963,-0.117331706,0.028982151,-0.18359219,4996,0,-0.21381456,-1.1371545,-9.843779,4996,0
572422948,-0.09095187,0.059225455,-0.026267083,4996,0,-0.38801104,-0.4077709,-10.581127,4996,0
572442935,-0.001509588,0.03730959,-0.07382339,4997,0,0.121559724,-1.4924598,-8.761032,4997,0
572462921,0.05444846,0.0058731604,0.040842414,4995,0,0.61664283,0.38745677,-10.000248,4995,0
572482910,0.029787742,0.022039387,0.009695118,5001,0,-0.09264296,2.4298458,-9.700246,5001,0
572502891,-0.091047905,-0.07889899,-0.051103838,4995,0,-0.03974774,-0.056379914,-9.687151,4995,0
572522878,-0.025555609,-0.009083656,-0.031351108,4997,0,0.43799213,-1.8773915,-10.211958,4997,0
572542865,0.024208687,0.012917132,-0.039040275,4995,0,-0.25248662,0.49155173,-10.417508,4995,0
572562848,-0.16446595,0.023284664,0.026470367,4996,0,0.05185138,0.019824015,-10.662839,4996,0
572582833,-0.06338261,0.020760855,-0.058464225,4996,0,0.08227675,-1.324422,-9.851987,4996,0
572602819,-0.008222074,0.05714479,-0.011267726,4997,0,0.2849836,1.0639336,-9.589591,4997,0
572622803,-0.029187968,0.012540025,-0.013853911,4995,0,-1.5048022,-0.053007122,-9.63244,4995,0
572642790,0.0032210816,-0.034791406,-0.028316643,4997,0,0.31102732,0.8228303,-10.198385,4997,0
572662776,-0.029892465,0.020183913,-0.0056795706,4997,0,0.025893442,0.14225845,-9.45111,4997,0
572682762,-0.04496754,-0.0025640305,-0.01985916,4997,0,0.93152356,0.12996896,-10.061647,4997,0
572702745,-0.04469915,0.02837381,0.018397586,4995,0,-0.085817024,0.037506755,-9.082991,4995,0
572722732,-0.0072886087,-0.029608248,-0.04744219,4996,0,0.40981627,0.21115083,-9.690661,4996,0
572742718,-0.06586965,-0.0086215595,-0.000629332,4997,0,0.27962443,-0.020494023,-10.05834,4997,0
572762707,-0.11030311,-0.017705427,0.02752094,5001,0,0.119503595,0.49199638,-9.911108,5001,0
572782687,-0.101322174,0.0010267607,-0.03710252,4996,0,0.13381293,0.0014079242,-10.258099,4996,0
572802674,-0.21667384,-0.05759535,0.0361425,4993,0,-0.0021012262,-0.7874214,-9.675778,4993,0
572822659,-0.17240709,-0.014904264,-0.007308414,4997,0,0.030957934,-0.581339,-10.175548,4997,0
572842644,-0.16742252,-0.018813731,0.026378226,4997,0,-0.4889394,-0.4088713,-10.698884,4997,0
572862631,-0.21012455,0.05056486,0.028167728,4996,0,-0.7590921,-0.5499547,-9.967439,4996,0
572882615,-0.15387408,0.041095246,0.0037344159,4997,0,-0.5362533,0.42164963,-10.279771,4997,0
572902601,-0.078648455,-0.015181655,0.038266446,4996,0,-0.25237712,0.28776345,-9.072214,4996,0
572922585,-0.12601519,-0.040331196,0.027666584,4996,0,0.18354122,0.7568502,-9.305729,4996,0
572942570,-0.18030255,-0.0018380064,0.039581582,4993,0,-0.5427959,-0.055058282,-9.945096,4993,0
572962558,-0.14389794,0.023042168,0.008316748,4997,0,0.0796889,-0.14881255,-10.625217,4997,0
572982541,-0.09215437,0.0067947293,-0.014538203,4996,0,-0.43206352,0.07455816,-10.051072,4996,0
573002527,-0.1686807,-0.036509164,0.051663138,4997,0,-0.031703983,0.72447246,-10.245732,4997,0
573022513,-0.2736215,-0.04349157,0.012772367,4997,0,0.077887565,0.07057456,-10.089295,4997,0
573042499,-0.2203677,0.06527875,0.03486801,4997,0,-0.16500112,0.3396479,-10.475185,4997,0
573062485,-0.04495367,0.13134284,0.013809509,4998,0,0.20073514,-0.09454096,-10.585626,4998,0
573082470,0.1705058,0.04858209,-0.035886716,4997,0,-0.33729905,1.276476,-10.301212,4997,0
573102454,0.2063586,-0.0581816,0.059233945,4996,0,-0.38677025,0.2556753,-12.115261,4996,0
573122440,-0.16403854,0.049952004,-0.0646122,4997,0,-0.28325802,-0.03321433,-10.243547,4997,0
573142427,-0.3384857,-0.058796234,0.0039193328,4998,0,-0.73347217,-0.08154067,-12.183843,4998,0
573162411,-0.17986901,-0.10050361,0.048441518,4995,0,0.27582794,0.6521273,-11.452754,4995,0
573182396,0.17445758,0.023244474,-0.06255634,4996,0,-0.16386588,0.54318964,-12.559354,4996,0
573202384,0.29301512,0.15712102,0.025301628,4997,0,-0.9770368,-0.2841771,-9.851821,4997,0
573222367,0.4717126,0.16776834,-0.020213412,4996,0,-1.7216271,-0.12906565,-11.429714,4996,0
573242353,0.19086625,0.028871058,-0.037165757,4997,0,-0.61538225,0.041648928,-10.6809225,4997,0
573262338,0.31297454,-0.11818408,0.037005965,4996,0,0.04539449,1.3056239,-11.36783,4996,0
573282324,-0.09079084,-0.14823347,0.004885048,4994,0,-0.689983,-0.95893174,-13.237834,4994,0
573302310,-0.045853302,-0.11266921,-0.0081505785,4998,0,0.573219,0.6129848,-13.70177,4998,0
573322295,-0.06313079,0.17196466,0.044667903,4997,0,-0.9589649,-0.6322469,-8.996129,4997,0
573342280,0.23429935,0.08831691,-0.054187346,4996,0,-0.6880998,0.867927,-10.806382,4996,0
573362266,0.11042956,-0.15755478,0.033498194,4993,0,-0.61331517,-0.86113185,-11.796575,4993,0
573382251,0.18663105,-0.41438746,-0.025339646,4996,0,0.029804328,-0.72986233,-12.518166,4996,0
573402237,-0.009212251,-0.4730963,-0.02667881,4997,0,-0.4892605,0.07011386,-9.133694,4997,0
573422222,0.08978661,-0.3948358,0.06031742,4996,0,0.14663002,0.39410096,-9.562479,4996,0
573442209,0.02613282,0.061594933,-0.008565656,4998,0,-0.9900826,-0.03212383,-10.0076,4998,0
573462193,0.1321574,0.21699168,0.003992923,4996,0,-0.7889867,0.4860831,-9.330435,4996,0
573487175,0.2645589,-0.19405064,0.008743039,4997,0,0.5103634,-0.123327546,-10.2642145,4997,0
573502165,0.23421982,-0.3446255,-0.033398733,4998,0,-0.092684254,0.4437666,-8.1954975,4998,0
573522149,-0.00966869,-0.3932959,0.064159565,4994,0,-0.06527596,-0.677157,-9.855963,4994,0
573542136,-0.099982806,-0.18049558,0.07915746,4996,0,-0.5366986,-0.73555815,-9.07591,4996,0
573562121,0.0022328687,-0.014612888,0.027683401,4997,0,-0.75958097,-0.06529893,-8.897819,4997,0
573582106,0.18214625,0.02566774,0.111546285,4997,0,-0.27932575,-0.5828233,-10.423506,4997,0
573602091,0.14143313,-0.08498292,0.010630521,4996,0,-0.66772634,-0.95697683,-10.685662,4996,0
573627073,0.1994002,-0.26348543,0.035424,4996,0,-0.061135445,-0.7427842,-11.164707,4996,0
573642062,0.07057271,-0.19101179,0.0308888,4996,0,-0.5585456,-0.41270354,-8.57292,4996,0
573662048,0.06709013,-0.00875335,-0.05523748,4996,0,-0.4771885,-0.406042,-10.715659,4996,0
573682033,0.08049882,0.1333883,0.0198312,4995,0,-0.55305845,-0.10485527,-10.578931,4995,0
573702019,0.016102666,0.110079,0.028894601,4993,0,0.21285535,-0.22672984,-9.60769,4993,0
573722004,0.24757096,-0.22068773,0.014228856,4995,0,-0.38160652,-0.77108824,-9.471154,4995,0
573741991,0.41193682,-0.38999733,0.07559969,4997,0,-0.0914078,0.1512953,-12.753332,4997,0
573766973,0.248397,-0.17235018,0.031573083,4998,0,-1.1212848,-0.41921538,-9.508853,4998,0
573781961,0.35376552,-0.09526977,0.0929815,4996,0,-0.68642944,-0.49610406,-13.992781,4996,0
573801947,0.086823255,-0.0058358787,-0.04483351,4998,0,-0.45614985,-0.8733387,-10.401836,4998,0
573821932,0.25231048,-0.118787676,0.009754615,4995,0,-0.44353953,0.15973295,-9.995729,4995,0
573841917,0.40199715,-0.08295749,-0.035145305,4993,0,-0.16790602,-1.3492832,-10.868686,4993,0
573861903,0.60939366,-0.08032604,-0.06454515,4997,0,-0.18327698,0.5121774,-10.665319,4997,0
573881888,0.25196424,-0.06440523,-0.038324315,4997,0,-0.045019884,-0.8235445,-8.87483,4997,0
573906870,0.11285785,-0.1252042,-0.03933234,4996,0,-0.48041257,-1.0172988,-11.45799,4996,0
573921859,0.088635415,-0.087574415,-0.03041114,4995,0,-0.43824908,-0.3930356,-8.706432,4995,0
573941845,0.55840003,-0.00019910958,0.008787905,4997,0,-0.6562479,-0.57750237,-8.952192,4997,0
573961830,0.6198831,-0.064273536,-0.0031650984,4997,0,-0.0050870446,-0.26214704,-10.827577,4997,0
573981817,0.33505937,-0.0871324,0.041593414,4998,0,-0.75454074,-0.60348594,-8.192575,4998,0
574001801,0.16521429,-0.1720528,0.07925406,4997,0,-0.09049104,-0.63903654,-9.688171,4997,0
574021787,0.164105,-0.13545491,0.035166204,4997,0,-0.054117527,-0.7691079,-8.679316,4997,0
574046771,0.37472862,0.14592314,0.036985043,4999,0,-0.55901897,-0.30724382,-9.520538,4999,0
574061758,0.49552703,0.21198791,-0.003648745,4996,0,-0.55134964,0.010026432,-10.066685,4996,0
574081743,0.4876467,0.014029913,0.047924515,4997,0,0.31715363,-0.51909405,-9.02785,4997,0
574101728,0.25203305,-0.10834974,0.0012761395,4996,0,0.20472823,0.090632446,-7.466384,4996,0
574121714,0.21215147,-0.17181036,-0.010934149,4997,0,-0.037145227,-0.53334147,-10.349627,4997,0
574141699,0.29125145,-9.9496574e-05,0.015359125,4996,0,-0.43776065,-0.5652438,-9.31531,4996,0
574161687,0.42508975,0.14457804,-0.026384963,4999,0,-0.35210446,0.06271603,-7.911167,4999,0
574186666,0.47787157,0.054912593,-0.0079466645,4995,0,0.11255266,-0.4318035,-8.945707,4995,0
574201656,0.3000312,0.003701561,-0.033426113,4997,0,-0.6691451,-0.44358644,-8.332331,4997,0
574226640,0.0055721547,0.03214549,-0.07393579,4999,0,0.04005995,-0.8501656,-10.680251,4999,0
574241626,-0.19497797,0.118449815,-0.0072994865,4996,0,-0.024297314,-0.9440987,-9.62397,4996,0
574261612,-0.030686554,0.20421219,-0.12209972,4995,0,-0.73103565,0.30978176,-9.215553,4995,0
574281597,0.0586729,0.26629344,-0.056374725,4996,0,-0.080614746,-0.2711387,-9.714164,4996,0
574301584,-0.11696443,0.17177965,-0.03788487,4997,0,-0.057473674,-0.79903686,-10.176173,4997,0
574326564,-0.13645084,0.048417117,-0.017993845,4996,0,-0.5090272,0.11529071,-8.978797,4996,0
574341558,-0.26169428,-0.029141909,0.023578804,4999,0,-0.3345149,-0.97303677,-9.692569,4999,0
574361539,-0.123302765,-0.017068928,-0.0069482396,4996,0,-0.42486838,-0.30305117,-10.605601,4996,0
574386523,-0.08896027,0.11829909,0.04936603,4995,0,-0.2466696,-0.68386084,-9.300385,4995,0
574401510,-0.07070417,0.09338681,0.067495525,4996,0,0.18719612,-0.8393791,-10.835398,4996,0
574421496,-0.018064948,0.18035884,0.013285356,4997,0,-0.68319154,0.04689759,-8.560341,4997,0
574441481,-0.11726028,0.066355236,0.11535144,4995,0,-0.3926981,-0.42272338,-10.931442,4995,0
574461467,-0.20221975,-0.011112096,0.029608048,4995,0,0.08981799,-0.64309704,-11.09368,4995,0
574481452,-0.18673164,-0.043373074,0.05499128,4996,0,-0.9749332,-0.4757924,-8.760166,4996,0
574501439,-0.063495755,-0.01040822,0.08172285,4997,0,-0.26249674,-0.76723325,-10.668605,4997,0
574526420,-0.11115393,0.14329816,0.031284343,4997,0,-0.4670093,-0.4259307,-11.190169,4997,0
574541409,-0.19781116,0.21646838,0.122240044,4995,0,-1.1758447,-0.0061906055,-8.133008,4995,0
574561394,-0.3048062,0.07195356,0.10855608,4994,0,0.12374836,-0.58393604,-10.603589,4994,0
574581380,-0.40805906,0.043677274,0.02007738,4997,0,-0.6612959,-0.3548469,-11.3064375,4997,0
574606362,0.11846269,0.10571124,0.054958034,4995,0,-0.24436921,0.8957952,-7.809535,4995,0
574621351,0.2463261,0.043374106,-0.00516184,4997,0,-0.057118118,-0.52087885,-9.651283,4997,0
574641336,-0.13524567,0.2678727,-0.026967235,4996,0,-0.9062569,-0.44075713,-8.112471,4996,0
574666324,-0.55813766,0.28882152,0.018800013,5003,0,-0.8673328,-0.11914291,-6.8765125,5003,0
574681307,-0.48281312,0.11861329,-0.0042404,4996,0,0.108391054,0.04482072,-9.7478695,4996,0
574701292,-0.49913737,0.10423658,-0.013393626,4992,0,-1.330458,-0.8118805,-7.9146924,4992,0
574721278,-0.032734994,0.10914768,0.06051653,4996,0,0.45173347,0.54999787,-7.958093,4996,0
574746259,-0.38219887,0.17732835,0.006500516,4996,0,-1.6762156,-0.8429556,-9.143529,4996,0
574761249,-0.539914,0.13294247,0.0066131107,4996,0,-0.28391635,-0.027728215,-7.3580656,4996,0
574781234,-0.86347705,0.11862009,-0.0023765364,4995,0,-0.6356442,-1.4599453,-9.590214,4995,0
574806216,-0.50852907,0.03308912,-0.0304334,4995,0,0.71501136,-0.20805734,-7.593177,4995,0
574821205,-0.43416226,0.1067652,-0.021801,4995,0,-1.6067426,0.7446116,-10.043799,4995,0
574841191,-0.19919656,-0.096494354,-0.14540839,4995,0,-0.061394047,-1.6252037,-8.619405,4995,0
574866173,-0.24647309,-0.028559452,-0.0810072,4997,0,-0.08768238,-0.5440116,-8.003085,4997,0
574886158,-0.24716398,-0.06956342,-0.028101709,4997,0,0.5590508,-0.14192033,-8.799954,4997,0
574901148,-0.42894006,-0.06301046,-0.07676686,4997,0,-0.06316742,-0.2583305,-9.152006,4997,0
574921132,-0.41213742,0.005234769,-0.13756266,4996,0,-0.91793436,-0.052270245,-9.209999,4996,0
574946116,-0.24802135,0.006209883,-0.085063145,4998,0,-0.4233705,-0.6076086,-10.99022,4998,0
574961104,-0.2312927,0.03813519,-0.15446503,4997,0,-0.48684213,-0.32739154,-9.331694,4997,0
574981089,-0.25867066,-0.03598655,-0.07924949,4997,0,0.32606962,-0.52927756,-10.217725,4997,0
575001074,-0.28957993,-0.10253835,-0.10502386,4996,0,-0.42505956,0.27162975,-9.05409,4996,0
575026057,-0.2569956,-0.13958514,-0.12456433,4997,0,0.1200003,-0.41081032,-10.611791,4997,0
575041048,-0.37529564,-0.005419858,-0.09225362,4998,0,-0.9919651,-0.42439404,-8.248863,4998,0
575061031,-0.12519513,0.06541674,-0.13034965,4996,0,-0.7121053,0.07259865,-12.072686,4996,0
575086013,-0.28980514,0.025972579,-0.1117511,4996,0,0.055296432,0.050484046,-9.170577,4996,0
575101003,-0.010501846,-0.089951865,-0.076893166,4998,0,0.2613645,0.6132447,-10.581191,4998,0
575120987,-0.34642395,0.037699327,-0.12410586,4996,0,-1.2584159,-0.8225455,-9.696534,4996,0
575145969,-0.23630865,-0.12513877,-0.06788374,4996,0,0.79690325,-0.122695655,-11.264817,4996,0
575165955,-0.20532735,0.0829975,-0.05430083,4997,0,-1.0580937,0.5923091,-9.401173,4997,0
575180944,-0.11443583,0.0573734,-0.1223323,4995,0,0.20106971,-0.32548514,-13.196702,4995,0
575205925,-0.18466716,-0.043716345,-0.021616256,4996,0,-0.16917227,0.59916544,-8.85191,4996,0
575225911,-0.28389838,0.039583866,-0.08256071,4991,0,-0.9367268,-0.6966222,-11.186056,4991,0
575240900,-0.3616209,-0.09262748,-0.09035047,4996,0,0.55988646,0.6201442,-9.38795,4996,0
575260886,-0.12968622,-0.071191825,-0.02231349,4995,0,-0.8513749,-0.33185372,-10.065563,4995,0
575285867,-0.23941323,-0.027293349,-0.07795442,4996,0,0.4220766,0.035654463,-10.752661,4996,0
575305853,-0.16267507,0.041802097,-0.0022011043,4995,0,-0.5698177,0.2112478,-8.746689,4995,0
575320842,-0.15372844,0.20129794,-0.023975428,4996,0,-1.1790652,0.010998398,-10.580308,4996,0
575340827,-0.2607951,0.058105975,-0.09238098,4994,0,0.38885313,-0.5816443,-11.240059,4994,0
575365810,-0.2551796,0.070903,-0.00015938557,4997,0,-0.18258397,0.7104974,-7.93508,4997,0
575380798,-0.19577946,0.11089499,-0.078189224,4996,0,-0.17909813,0.3494665,-10.071185,4996,0
575400785,-0.22132528,0.17069227,-0.0049285395,4997,0,-0.68664545,-0.3914769,-9.526492,4997,0
575425766,-0.26071823,0.16217165,-0.081648834,4996,0,-0.43993956,-0.072486244,-9.093172,4996,0
575445752,-0.2444591,0.07756013,-0.028200999,4995,0,-0.11678713,-0.3150158,-9.925273,4995,0
575460740,-0.17558913,0.027710354,-0.04415624,4996,0,-0.16074155,-0.20252195,-9.950039,4996,0
575485722,-0.20943254,0.0019762714,-0.061539583,4992,0,-0.13913426,0.03816465,-9.133724,4992,0
575505709,-0.22829926,0.022684846,-0.030214008,4993,0,-0.1435491,0.12203189,-8.873366,4993,0
575520697,-0.17714894,0.009322094,-0.08134701,4995,0,-0.19212724,0.25325558,-8.709638,4995,0
575540682,-0.006364344,-0.0228879,-0.029190514,4994,0,-0.07550249,0.4301771,-9.177798,4994,0
575565664,0.039085075,-0.036538146,-0.07250371,4995,0,-0.09140196,0.49612772,-8.727231,4995,0
575585650,0.019810079,-0.0047845165,-0.047827095,4994,0,-0.45928493,0.035082728,-8.625999,4994,0
575600639,0.03255845,0.035774585,-0.03574772,4997,0,-0.32246196,-0.013818329,-8.682045,4997,0
575625621,0.1315701,-0.00437009,-0.075407155,4997,0,-0.33928895,-0.26213893,-10.05045,4997,0
575645606,0.13604113,-0.03671003,-0.023651617,4995,0,-0.37805894,-0.30351773,-10.192076,4995,0
575660596,0.04869639,-0.062031597,-0.03328421,4997,0,-0.26855054,-0.25842208,-9.684318,4997,0
575680581,0.031457227,-0.10188269,-0.049381893,4996,0,0.28918692,0.5760033,-8.677417,4996,0
575705563,0.080843434,0.049550373,-0.031791296,4997,0,-0.7403543,0.44031155,-9.334212,4997,0
575725550,0.11072045,0.06476228,-0.06616842,4998,0,-0.40461922,-0.1451187,-10.800225,4998,0
575740537,0.09140579,0.025088148,-0.0028142007,4995,0,-0.094632715,-0.4681269,-10.353052,4995,0
575765519,0.36428913,-0.1713553,-0.05015691,4996,0,0.3558877,0.7839402,-10.361457,4996,0
575785506,0.30134687,-0.08485989,-0.024095302,4998,0,-0.66899383,0.3174565,-8.152825,4998,0
575800494,0.13789812,0.04283106,-0.017742693,4997,0,-0.86864424,-0.93347913,-11.197784,4997,0
575820479,0.13350402,-0.1256534,-0.029071193,4994,0,1.0539583,0.7346038,-10.257248,4994,0
575845461,0.34223127,0.06724845,-0.031059816,4996,0,-1.0201029,0.023710305,-9.616531,4996,0
575865447,0.38113645,-0.0641986,-0.052005064,4997,0,0.82943577,0.16186967,-11.506692,4997,0
575880437,0.43603435,-0.17081082,0.010242114,4998,0,0.5243476,0.31025165,-9.790815,4998,0
575905418,0.14754084,0.016716158,-0.057262138,4997,0,-0.028226769,0.55700415,-10.264083,4997,0
575925404,0.22548777,-0.012627706,0.03355773,4997,0,-0.5513837,0.16997764,-9.459457,4997,0
575940392,0.33266562,0.10850238,-0.02465223,4994,0,-0.6322505,-0.2879938,-11.938139,4994,0
575960378,0.4499513,-0.026120324,-0.015563639,4992,0,0.79263145,1.2091087,-9.173809,4992,0
575985359,0.26109633,0.062314596,-0.009350121,4995,0,-0.7010662,-0.6539052,-11.210954,4995,0
576005345,0.071810775,-0.09843288,0.030081311,4995,0,0.6369055,0.9975752,-9.034687,4995,0
576020334,0.24848954,-0.036929205,0.034309674,4996,0,-0.237609,0.9181778,-9.200485,4996,0
576045316,0.3224047,0.06527225,-0.015027177,4995,0,-0.13789402,-0.6813141,-10.637146,4995,0
576065301,0.31285927,0.0019603823,0.028163223,4996,0,0.54418015,0.021050984,-9.325824,4996,0
576080291,0.32649046,-0.028739529,0.045566663,4998,0,0.25221872,0.8089433,-8.161628,4998,0
576105272,0.23232374,0.06410649,0.0012444969,4996,0,-0.77335674,-0.28178525,-9.925472,4996,0
576125258,0.17617641,0.07741823,0.040197514,4996,0,0.040312037,-0.23306005,-10.494001,4996,0
576145244,0.21786498,0.030756775,-0.0239795,4997,0,0.3289561,0.33601245,-9.509542,4997,0
576160233,0.30243358,0.014897789,0.049957268,4995,0,0.31594196,0.51939565,-8.789285,4995,0
576185218,0.30704004,0.019312298,-0.048654184,5000,0,-0.15230687,0.39726108,-8.40585,5000,0
576205200,0.2288976,0.046240587,0.03321469,4995,0,-0.14876273,0.19834793,-9.510209,4995,0
576220189,0.14622569,0.09526732,0.020228101,4997,0,-0.3162788,-0.3872337,-9.821941,4997,0
576245171,0.1704121,0.050719023,-0.0096323015,4994,0,0.30401757,-0.13992508,-9.786065,4994,0
576265160,0.2720383,0.026094977,0.008413167,5000,0,0.28314024,0.43283427,-9.08354,5000,0
576285142,0.3291926,0.0067583043,0.017185537,4996,0,-0.12578343,0.7213207,-8.265047,4996,0
576300131,0.28655082,0.054527253,-0.046646237,4995,0,-0.5703087,0.41644466,-8.387221,4995,0
576325112,0.076892324,0.118133485,0.022586524,4995,0,-0.079754375,-0.2605309,-11.028177,4995,0
576345098,0.16659069,-0.006732432,-0.04166331,4996,0,0.66745555,0.31517348,-10.018651,4996,0
576360087,0.32910246,0.00046314287,-0.015840966,4996,0,0.48746017,0.66331244,-9.306089,4996,0
576385069,0.30549616,0.16527282,-0.0015743976,4996,0,-0.51987547,-0.3973611,-10.089273,4996,0
576405055,0.1453398,0.025013149,-0.012659663,4996,0,0.8288606,0.8448847,-9.58852,4996,0
576425040,0.0052965707,0.060892068,-0.01377635,4996,0,-0.7001016,-0.6198979,-10.671654,4996,0
576440029,-0.002197708,0.12199768,0.04210829,4993,0,-0.11690968,0.11959631,-11.163965,4993,0
576465011,0.24295983,0.016103253,-0.05300114,4996,0,0.09173454,0.7817481,-9.155231,4996,0
576484997,0.12515453,0.10069886,0.028632225,4997,0,-0.6440494,-1.0795679,-11.346627,4997,0
576499987,0.012474756,0.0053440877,0.023011435,4998,0,0.78529125,0.34673634,-10.535651,4998,0
576524968,0.035127,0.09119091,-0.03524782,4995,0,-0.8535958,0.10408196,-10.767709,4995,0
576544953,-0.06743711,0.037711475,0.011091238,4996,0,0.7971491,0.10268472,-10.95066,4996,0
576559943,-0.010626839,0.013985699,-0.03773322,4998,0,0.4106717,0.2780802,-8.949832,4998,0
576579928,0.13542017,0.15471709,-0.017095165,4995,0,-0.6893642,-0.3321587,-10.9745455,4995,0
576604910,0.18116774,-0.030815158,-0.017154073,4997,0,0.6508307,0.9462467,-9.15416,4997,0
576624896,0.02234358,0.1046153,-0.04992625,4997,0,-0.7158822,-0.78555244,-11.308716,4997,0
576639885,-0.100412406,0.03959245,0.007973683,4997,0,0.7797122,-0.051673237,-10.642085,4997,0
576664866,0.026675215,0.17182276,-0.015159368,4995,0,-0.8698042,-0.1222281,-9.996609,4995,0
576684851,0.008038694,0.17505538,-0.022920342,4996,0,0.24885108,-0.05815391,-10.2278385,4996,0
576704837,0.04172993,0.07259341,0.03961123,4996,0,0.5371702,0.7856349,-8.623571,4996,0
576719826,-0.011785437,0.09035552,-0.03649307,4996,0,-0.14356902,0.15808593,-8.78047,4996,0
576744809,-0.12864016,0.10977483,0.006847989,4997,0,-0.4152971,-0.72371525,-9.7907095,4997,0
576764794,-0.11515242,0.12716746,-0.013534984,4995,0,0.28622526,0.15230808,-9.58221,4995,0
576779783,-0.0550029,0.13994135,-0.008927336,4997,0,0.37534758,0.18455024,-9.26113,4997,0
576804766,0.0145785995,0.17120652,-0.014080621,4998,0,0.5050849,0.29428977,-8.731918,4998,0
576824750,-0.053895704,0.14818223,0.033193395,4996,0,-0.039768256,0.25113255,-8.520511,4996,0
576839739,-0.17095992,0.13138016,-0.021772664,4996,0,-0.12392815,0.04015747,-8.917753,4996,0
576859725,-0.2262071,0.11081047,0.022011051,4997,0,-0.06424465,-0.19675265,-9.087175,4997,0
576884707,-0.080913916,0.12684703,-0.021151977,4997,0,0.26437145,-0.08507184,-9.212028,4997,0
576904694,-0.016918601,0.10232324,-0.01911754,4996,0,0.026677145,-0.43325058,-9.280622,4996,0
576919681,-0.06983055,0.11287199,-0.0024808012,4996,0,-0.058135048,-0.5146166,-9.857771,4996,0
576944663,-0.27753788,0.08231125,-0.008057783,4996,0,0.49008003,-0.055061206,-9.871109,4996,0
576964649,-0.30854344,0.039765544,-0.028637936,4994,0,0.3613396,0.0054853773,-8.907804,4994,0
576979637,-0.25742278,0.084241144,0.008349269,4996,0,0.07153101,-0.019192426,-8.714094,4996,0
576999628,-0.16447105,0.11367179,-0.011821694,5002,0,-0.21146475,-0.20164406,-9.308847,5002,0
577024605,-0.07996998,0.06971616,-0.03957233,4996,0,-0.32960033,-0.24030809,-10.807568,4996,0
577044590,-0.065498784,0.017956223,0.0022517703,4997,0,0.73195463,0.5549472,-9.966908,4997,0
577059579,-0.081459545,0.06059217,-0.025916195,4996,0,0.20264174,0.43726504,-8.5192795,4996,0
577084561,-0.22331455,0.18244594,0.01390717,4996,0,-0.09034526,-0.74092734,-12.004767,4996,0
577104547,-0.186421,0.0007108875,0.028003799,4997,0,0.9233245,0.41251206,-9.946313,4997,0
577119536,-0.0984347,0.065251045,0.050211664,4995,0,0.11141984,0.4516029,-9.182541,4995,0
577144517,-0.18791647,0.06630482,-0.021941818,4995,0,-0.0032384428,-0.6152768,-11.781007,4995,0
577164503,-0.28721178,-0.07183124,0.0928034,4996,0,1.0168278,0.51205736,-9.339864,4996,0
577184489,-0.24051818,-0.015113439,-0.016431611,4997,0,-0.18298683,0.3050558,-10.034669,4997,0
577199478,-0.31352705,-0.013167462,0.053846985,4997,0,-0.11251815,-0.56034917,-11.788727,4997,0
577224461,-0.30511868,-0.022207115,0.0040028994,4997,0,0.31450334,0.4390358,-9.527154,4997,0
577244445,-0.22595662,-0.04511079,0.0227843,4997,0,0.58786434,0.33416536,-9.813696,4997,0
577259436,-0.25213158,0.0028534804,0.05096042,4998,0,0.08394498,-0.230248,-9.918279,4998,0
577284416,-0.24074681,0.07768447,0.0016124678,4996,0,-0.38968515,0.35013023,-9.827787,4996,0
577304401,-0.3369988,-0.018863492,0.018083539,4995,0,0.37145182,-0.35973954,-11.114729,4995,0
577324386,-0.4499541,-0.06628688,0.049492925,4995,0,0.14967334,-0.24691495,-9.482475,4995,0
577339378,-0.38490304,-0.071750484,-0.014313787,4997,0,0.16467765,0.48374495,-9.114967,4997,0
577364358,-0.2851466,-0.084517576,0.07566665,4996,0,0.30407676,0.26562092,-9.984521,4996,0
577384343,-0.27987418,-0.08603454,-0.024422344,4996,0,0.27992782,-0.24880585,-9.854155,4996,0
577399336,-0.31444144,-0.0792891,0.017121762,5000,0,0.16257627,0.14741614,-9.1075325,5000,0
577424314,-0.3413024,-0.09621349,-0.016651684,4996,0,-0.08999915,0.26870325,-8.750698,4996,0
577444300,-0.33349526,-0.102865465,-0.015448102,4995,0,-0.003626745,-0.1837497,-9.484682,4995,0
577464285,-0.26715127,-0.10583135,0.0103252735,4996,0,0.17916538,-0.41649565,-9.313746,4996,0
577484271,-0.25416926,-0.115795694,-0.08187055,4995,0,0.271397,-0.3666931,-9.456316,4995,0
577504258,-0.22489326,-0.1335237,0.026196925,4996,0,0.023006288,-0.038739502,-9.322087,4996,0
577524241,-0.2225191,-0.14518052,-0.06709359,4996,0,0.056331336,-0.289844,-9.00691,4996,0
577539231,-0.25590017,-0.13869663,-0.048566986,4995,0,-0.0675241,-0.40006828,-8.779719,4995,0
577564213,-0.16905932,-0.14913462,-0.042265538,4993,0,0.08954834,0.040143605,-9.35723,4993,0
577584198,-0.06750254,-0.14945409,-0.062307324,4997,0,0.1639738,0.1384466,-9.605471,4997,0
577604188,-0.07165864,-0.14486487,-0.06552779,4991,0,0.27021676,-0.010279617,-9.010768,4991,0
577619177,-0.025091281,-0.16884671,-0.0324595,4998,0,0.26021135,0.04937062,-9.246792,4998,0
577644155,0.116931796,-0.21441522,-0.09754277,4997,0,0.23053843,0.15285885,-9.680839,4997,0
577664140,-0.033559132,-0.10892498,-0.033715617,4996,0,-0.35596576,-0.82959336,-9.458245,4996,0
577679129,-0.0190459,-0.0784499,-0.042702895,4993,0,-0.048658777,-0.49250314,-11.229031,4993,0
577704112,0.09867361,-0.17330255,-0.079477854,4996,0,0.48790154,-0.16704428,-9.747308,4996,0
577724097,0.22004807,-0.18258178,-0.014077199,4997,0,-0.32492864,0.70131814,-9.795976,4997,0
577744083,0.13385285,-0.0895123,-0.115314655,4997,0,-0.19339617,-1.1942244,-12.037353,4997,0
577759072,0.021897085,-0.19461052,-0.0029356084,4997,0,0.98751616,0.31963328,-10.4791765,4997,0
577784053,0.0069126906,0.013485453,-0.096101075,4996,0,-0.9337067,-0.88777065,-11.157795,4996,0
577804041,0.11247142,-0.232667,-0.026223943,4999,0,1.1973257,0.38042307,-12.17905,4999,0
577824024,0.06532562,-0.04473202,-0.0026852877,4993,0,-0.9684116,-0.4662426,-8.889997,4993,0
577844011,0.24812824,-0.10765266,-0.070074506,4995,0,0.7876964,0.6268227,-13.422544,4995,0
577863995,0.09356321,-0.16269994,0.036886167,4995,0,0.03698709,-0.047048345,-8.333137,4995,0
577883980,0.19427,-0.070824005,-0.05382122,4995,0,-0.24380277,-0.16412877,-11.69723,4995,0
577903966,-0.00067796704,-0.20428908,-0.003405534,4994,0,0.71942055,-0.48419628,-10.90522,4994,0
577923952,0.2625085,-0.23792543,0.0029272956,4996,0,0.15820783,0.9129872,-9.686832,4996,0
577943936,0.21188341,-0.07611162,-0.015074706,4995,0,-0.26608872,-0.29477042,-9.541756,4995,0
577958927,0.20912616,-0.03982106,-0.012708628,4996,0,0.06271504,-0.6419986,-11.022491,4996,0
577983908,0.17144029,-0.16205215,0.028698113,4996,0,0.81453145,0.49114668,-10.16569,4996,0
578003893,0.1671448,-0.22621793,-0.03497808,4996,0,0.34200287,0.027884414,-8.818647,4996,0
578023879,0.22898082,-0.21503897,0.037136734,4995,0,0.56581455,0.454876,-8.621954,4995,0
578043864,0.29835182,-0.16643256,-0.037804477,4990,0,0.35796478,0.24631643,-8.721859,4990,0
578063850,0.30314916,-0.10191545,0.02137417,4995,0,0.2189825,0.1332149,-8.602848,4995,0
578083837,0.24458547,-0.050353903,0.0009910113,4996,0,0.0813465,0.19435939,-8.298515,4996,0
578103822,0.19160865,-0.04095081,-0.019223433,4997,0,-0.09135717,-0.007963813,-8.632903,4997,0
578123806,0.2045772,-0.030779144,0.04023787,4995,0,0.25915274,0.13223329,-8.502198,4995,0
578143792,0.23115633,-0.012438543,-0.05733762,4994,0,0.0939225,-0.1028693,-8.782072,4994,0
578163778,0.23440968,0.009276643,0.04638839,4994,0,-0.07328528,0.21642463,-8.642661,4994,0
578183763,0.20640205,0.034112785,-0.049325544,4995,0,0.05521651,-0.26757967,-9.003592,4995,0
578203748,0.19547954,0.051238865,0.021049386,4994,0,0.19472279,0.09228725,-9.414989,4994,0
578223734,0.27832252,0.09676193,-0.012196038,4991,0,0.2846836,0.11925692,-9.362458,4991,0
578243719,0.2581731,0.11011804,-0.03880363,4994,0,0.012618121,0.17656115,-8.666695,4994,0
578263705,0.1874154,0.0838045,-0.027299372,4997,0,-0.19091438,0.07068327,-9.395437,4997,0
578283690,0.10027114,0.008476754,-0.021451281,4996,0,0.22539176,-0.47353372,-11.075037,4996,0
578303676,0.13773324,-0.041212365,-0.03515747,4996,0,0.5517646,0.53985155,-10.549911,4996,0
578323661,0.20246744,-0.0075722607,0.0062517617,4995,0,0.29251313,0.50823337,-8.717742,4995,0
578343647,0.07930307,0.10618886,-0.050136153,4994,0,-0.49553877,-0.610762,-11.560577,4994,0
578363632,0.10566016,0.07521695,-0.043872636,4994,0,0.3782739,0.8013453,-10.580612,4994,0
578383618,0.12400199,0.13218656,0.031096771,4994,0,-0.092981786,-0.45492116,-9.74531,4994,0
578403603,0.25845802,0.13464314,-0.12740323,4995,0,-0.13197164,0.5790752,-11.462569,4995,0
578423590,0.14122333,-0.13284469,0.008887721,4997,0,0.41932872,0.12376116,-10.534483,4997,0
578443576,0.079631135,0.08519089,-0.096096754,4996,0,0.10145764,0.18684107,-11.946059,4996,0
578463560,0.049541656,0.092901915,-0.034152843,4995,0,-0.875193,-0.182153,-11.616065,4995,0
578483547,0.112818174,0.06766491,-0.039362125,4997,0,0.850061,0.5782279,-8.516354,4997,0
578503532,0.31787136,0.13296612,-0.0794498,4994,0,-0.58834165,-0.5696221,-14.218075,4994,0
578523519,0.2519097,-0.0068375766,0.039980587,4998,0,0.26954296,0.97306895,-8.931105,4998,0
578543501,0.11990088,0.024834044,-0.060085326,4994,0,0.8766107,0.11711149,-12.408487,4994,0
578563487,0.0027854757,0.07357502,0.03058559,4995,0,-1.1932185,-0.7245003,-10.391575,4995,0
578583472,0.23464985,-0.0679266,0.014217284,4996,0,1.125053,1.211349,-10.155876,4996,0
578603458,0.14945133,0.1400216,-0.022217061,4996,0,-0.88045186,-0.4977662,-10.112157,4996,0
578623443,-0.0029097474,-0.017265668,0.027995296,4996,0,1.1391771,0.2648954,-9.897659,4996,0
578643429,0.039582122,0.13668905,0.019529486,4996,0,-0.6058338,0.59823155,-8.694408,4996,0
578663414,0.0781694,0.16531274,-0.019318692,4995,0,0.20967953,-0.00031589193,-11.168303,4995,0
578683400,0.23815271,0.12064266,0.029301837,4995,0,0.6988771,0.07074132,-10.007283,4995,0
578703385,0.27854067,0.105974875,0.029010158,4996,0,0.14972976,0.72814393,-7.795208,4996,0
578723371,0.17508571,0.096829765,-0.004638115,4995,0,0.046747822,0.16134508,-8.550157,4995,0
578743356,0.0019011088,0.09297027,0.04902795,4995,0,-0.00073267816,-0.32841566,-9.321691,4995,0
578763343,-0.026930349,0.08238964,-0.014866054,4996,0,-0.10989105,0.14154539,-9.517348,4996,0
578783328,0.06828174,0.057614658,0.058474973,4997,0,-0.35750365,0.427108,-9.441085,4997,0
578803313,0.052028026,0.10266686,0.0048211156,4996,0,0.10688993,0.5080208,-8.513685,4996,0
578823298,-0.011648908,0.12492797,-0.004096835,4995,0,0.3329085,0.43286505,-8.874166,4995,0
578843284,-0.15772511,0.045422792,0.024707368,4995,0,0.30906147,0.07041546,-8.955519,4995,0
578863269,-0.20100568,0.0029622493,0.040161744,4994,0,0.3387778,0.27805954,-8.683956,4994,0
578883256,-0.1358466,-0.009938246,-0.025909416,4997,0,0.43464738,0.60705084,-8.621336,4997,0
578903241,-0.116558045,0.083622344,0.019748544,4996,0,-0.06470068,0.15467328,-8.487468,4996,0
578923226,-0.16788515,0.19648804,-0.01587186,4995,0,-0.7334865,-0.0015378969,-8.753825,4995,0
578943212,-0.18582885,0.1662942,-0.0628074,4997,0,0.03933477,0.2566636,-9.939566,4997,0
578963197,-0.27118087,0.03172334,0.016178522,4995,0,0.7376114,-0.19571142,-10.598124,4995,0
578983184,-0.35475343,-0.03239221,-0.042688668,4997,0,0.26340008,0.60481536,-8.649794,4997,0
579003167,-0.3323492,0.16623522,-0.010669193,4994,0,-0.88372624,0.31775007,-9.404246,4994,0
579023155,-0.2681083,0.15790752,-0.029334553,4998,0,0.5066707,0.052935187,-10.946438,4998,0
579043140,-0.15943505,0.047010366,-0.03446745,4998,0,0.7002024,0.30756232,-9.902413,4998,0
579063130,-0.25786272,0.21122378,-0.047450587,5002,0,-1.1968789,-0.29548576,-10.109358,5002,0
579083111,-0.2673488,0.0025737518,0.002858151,4998,0,1.251515,0.49424946,-10.976603,4998,0
579103097,-0.353844,0.11295213,-0.05473397,4998,0,-0.7002924,-0.76428604,-10.423127,4998,0
579123082,-0.39577425,0.13124923,-0.003543656,4996,0,0.41494107,0.4528978,-11.171965,4996,0
579143067,-0.3270857,0.07910815,0.014734477,4996,0,-0.22184925,0.017447619,-10.509617,4996,0
579163052,-0.41740087,0.24555875,-0.02537831,4995,0,-0.5034835,-0.6783103,-10.1931305,4995,0
579183039,-0.3281079,0.088428214,0.05273222,4997,0,0.9903379,0.19713946,-11.435197,4997,0
579203024,-0.31650114,0.032223627,0.021651303,4998,0,0.2647887,0.16899936,-9.53092,4998,0
579223008,-0.35493776,0.06268378,0.024365045,4996,0,0.0028139164,0.18389747,-10.227186,4996,0
579242994,-0.49262398,0.041099045,0.017270096,4995,0,0.06194471,-0.72251016,-10.470485,4995,0
579262980,-0.3793812,0.12238037,0.060143385,4996,0,-0.26888677,-0.0028933343,-9.659985,4996,0
579282965,-0.22904329,0.1286357,-0.029824251,4997,0,-0.17569344,0.12165856,-9.750079,4997,0
579302951,-0.19584312,0.061989713,0.050552577,4996,0,0.17563033,-0.37200606,-10.482647,4996,0
579322939,-0.23088011,0.038301036,0.0116202375,4998,0,0.15153262,-0.26616943,-9.670434,4998,0
579342921,-0.26113173,0.048153833,0.0025046244,4995,0,-0.1798327,-0.03857242,-8.953503,4995,0
579362908,-0.17167196,0.060049836,0.011279135,4996,0,-0.052645158,0.20524788,-8.937833,4996,0
579382892,-0.10393906,0.05065198,-0.008195011,4995,0,0.12024088,-0.14850242,-9.2708845,4995,0
579402880,-0.07986316,0.031858478,-0.021939045,4998,0,-0.11322345,-0.4166363,-9.4864025,4998,0
579422864,-0.08217819,0.027931236,0.03871119,4997,0,0.03673625,-0.28069836,-9.118119,4997,0
579442850,-0.06730203,-0.007368463,-0.04052727,4997,0,-0.018084783,0.065114155,-9.16504,4997,0
579462836,-0.01737579,0.0065431683,-0.00028208684,4996,0,-0.21110614,-0.1509341,-8.885343,4996,0
579482819,0.00795459,0.036164194,-0.04264197,4994,0,-0.33596036,0.09742363,-9.285413,4994,0
579502807,-0.019508094,0.041662782,-0.031314366,4998,0,0.041203257,0.14906327,-10.218535,4998,0
579522791,-0.040526852,0.05209126,-0.006820374,4996,0,0.10773683,-0.5568139,-10.488135,4996,0
579542777,-0.07499819,0.0073898598,-0.020400643,4997,0,-0.027622849,-0.2547082,-9.586937,4997,0
579562762,-0.033911873,-0.0031557838,-0.059734024,4995,0,0.10288406,0.20717706,-9.108526,4995,0
579582746,0.04953378,-0.05873807,-0.0027122374,4996,0,0.2359359,-0.15172105,-10.493724,4996,0
579602733,0.022332666,-0.115633786,-0.0929052,4997,0,0.07919017,-0.36863312,-11.246329,4997,0
579622720,-0.11991094,-0.07253579,-0.024099302,4997,0,-0.19234863,-0.25614396,-9.117433,4997,0
579647701,0.08548771,-0.11705019,-0.08452247,4994,0,0.30538833,0.4758142,-10.728622,4994,0
579662691,0.049575716,-0.10915581,-0.07675954,4997,0,0.09081875,-0.62038404,-10.2236595,4997,0
579682676,0.1395097,-0.17493542,-0.022929844,4997,0,-0.081533454,0.4757822,-10.466614,4997,0
579702660,0.08670894,-0.1182692,-0.085769005,4995,0,-0.3940974,-0.49933106,-9.25236,4995,0
579722645,0.04791827,-0.12389336,-0.06657781,4994,0,-0.36625266,-0.34142873,-11.53007,4994,0
579742632,0.03290293,-0.15547444,-0.069713086,4997,0,0.3516476,-0.6387588,-10.986377,4997,0
579762615,0.082584955,-0.1717419,-0.045597404,4992,0,0.60817987,0.42012793,-10.496938,4992,0
579782603,0.054177362,-0.08485024,-0.10953747,4992,0,-0.2171708,-0.1931543,-8.642781,4992,0
579802587,0.19976269,-0.10261645,-0.03904957,4997,0,-0.46931282,0.16435489,-11.254931,4997,0
579822572,0.10609462,-0.13995074,-0.10029299,4996,0,0.07795026,-0.98427206,-10.160402,4996,0
579842558,0.264265,-0.24287829,-0.073329665,4988,0,0.76848155,0.19656141,-11.893992,4988,0
579862544,0.07875627,-0.23419605,-0.0027857032,4997,0,0.5108939,-0.22153775,-8.344192,4997,0
579882529,0.22515033,-0.13855788,-0.13013963,4997,0,-0.42796066,0.3231671,-9.977572,4997,0
579902516,0.14435375,-0.08140347,-0.0047395234,4998,0,-0.40091905,-0.71013665,-9.42445,4998,0
579922501,0.45749655,-0.24218813,-0.08106873,4997,0,0.3079318,0.37697393,-11.2987385,4997,0
579942486,0.39273944,-0.28803694,-0.07203153,4994,0,0.039030757,-0.59987974,-9.477113,4994,0
579962473,0.37030745,-0.32302275,-0.021740556,4997,0,0.690254,0.5306877,-9.216206,4997,0
579982456,0.29650387,-0.23403187,-0.043494962,4996,0,0.114277974,0.21418084,-8.768327,4996,0
580002443,0.19953777,-0.123329006,-0.055839986,4996,0,-0.52713114,-0.32994065,-9.593218,4996,0
580022429,0.1410349,-0.15396398,-0.009025737,4998,0,-0.051248852,-0.4388831,-9.614378,4998,0
580042413,0.2061754,-0.23763667,-0.015001842,4996,0,0.45409226,-0.33391172,-9.230687,4996,0
580062402,0.37182948,-0.24381247,-0.03933222,5000,0,0.58873236,0.2641615,-9.453315,5000,0
580082384,0.34991992,-0.21465625,-0.0061600213,4997,0,0.4079881,0.14537477,-9.02073,4997,0
580102371,0.23944333,-0.16774094,-0.01171952,4998,0,0.27127665,0.38763317,-8.595521,4998,0
580122355,0.13722526,-0.104934,-0.017575778,4997,0,-0.22258222,-0.3467201,-9.009645,4997,0
580142340,0.16487817,-0.0834647,-0.0075061377,4996,0,0.087825224,-0.05243689,-9.72121,4996,0
580162325,0.29774463,-0.088192776,0.0016979541,4995,0,0.07472369,0.423456,-10.224569,4995,0
580182311,0.27150226,-0.08919337,-0.022906465,4996,0,0.51504534,0.19915329,-9.450916,4996,0
580202297,0.190488,-0.105178416,-0.0002675816,4997,0,0.21307309,0.5726088,-8.600585,4997,0
580222282,0.10286799,0.011223707,0.032223463,4996,0,-0.635721,-0.26122567,-8.937562,4996,0
580242270,0.09263558,0.03507926,-0.059134938,4998,0,-0.032727722,-0.41725284,-11.237458,4998,0
580262253,0.14759587,-0.1018723,0.009722459,4993,0,0.9406967,0.069481164,-11.019211,4993,0
580282242,0.061995216,-0.084839135,-0.0006990309,5000,0,-0.06516542,0.107141815,-8.110301,5000,0
580302224,0.025641551,0.0024501563,-0.015119617,4995,0,-0.21564114,-0.2471805,-11.148582,4995,0
580322209,-0.14085563,-0.0868273,-0.055247616,4996,0,0.91402245,0.019972652,-9.693977,4996,0
580347193,0.25949442,0.03266115,-0.008322223,4998,0,-0.45682746,0.21253245,-11.40727,4998,0
580362180,0.15056697,0.2201452,-0.041848484,4995,0,-0.45529124,-0.8645028,-10.854582,4995,0
580382166,0.35892564,-0.030863106,-0.039404776,4996,0,1.3337361,0.63968164,-10.892295,4996,0
580402152,-0.016855897,0.061619323,-0.025232933,4996,0,-1.0269068,-0.74032354,-9.874761,4996,0
580422139,0.041472685,-0.17427859,0.022570854,4998,0,1.444621,0.7636569,-11.0832,4998,0
580442122,-0.09852802,0.09628849,-0.046605833,4996,0,-0.28119174,-0.87240934,-11.314678,4996,0
580462108,0.15706038,-0.009004318,-0.03950094,4996,0,1.1977574,-0.029388146,-9.721939,4996,0
580487090,0.375089,0.17430581,-0.031079544,4996,0,-0.7571664,-0.3346669,-12.097596,4996,0
580502080,0.02812681,0.06578761,-0.06903476,4997,0,1.5022407,-0.2724716,-9.94836,4997,0
580522066,-0.0041574,0.09218306,-0.017658029,4998,0,-0.93022794,-0.45430705,-11.297134,4998,0
580542050,-0.24907085,0.16265595,-0.040832493,4996,0,0.74488103,-0.36103708,-9.106047,4996,0
580562035,0.18415022,0.044662997,-0.06406213,4994,0,0.66367733,0.66214806,-10.359059,4994,0
580582021,0.22457224,0.09257507,-0.07425812,4997,0,-0.18803321,-0.34003973,-9.559344,4997,0
580602008,0.32748815,-0.037051156,-0.055862736,4998,0,1.1183243,-0.35638458,-10.496981,4998,0
580626991,-0.011628522,0.1073197,-0.054480508,4999,0,-0.7251075,-1.0480516,-9.256782,4999,0
580641978,-0.1000766,0.13526385,-0.034522574,4995,0,1.0180743,-0.21994765,-10.114874,4995,0
580661963,-0.0806921,0.0689542,-0.0631233,4996,0,-0.06987146,0.50358033,-7.787575,4996,0
580681950,0.016575918,0.055090062,0.014235772,4998,0,-0.6028186,-0.8224477,-8.329794,4998,0
580701935,0.22385643,0.005124566,-0.008656135,4997,0,0.26258585,-0.20197229,-10.970376,4997,0
580721919,0.14472812,0.120444454,-0.049894124,4996,0,0.1962297,0.09148723,-7.491082,4996,0
580741906,-0.0067826016,0.2033089,-0.049845945,4998,0,-0.7496156,-0.7963849,-8.244832,4998,0
580766887,-0.037682008,0.021377726,-0.00507987,4993,0,1.3922529,0.24323374,-7.910965,4993,0
580781876,0.18745682,0.008168556,-0.043041177,4997,0,0.40852603,0.19359949,-7.9150267,4997,0
580801862,0.16560185,0.15667725,0.015838347,4997,0,0.20714085,-0.9279684,-10.171454,4997,0
580826844,0.041435342,0.2216517,-0.016923068,4997,0,-1.6981211,-1.3066308,-8.517552,4997,0
580841832,-0.11567027,0.25615767,0.06734885,4996,0,0.6441956,-0.16608411,-9.454588,4996,0
580861820,-0.09692127,0.15829259,0.03246803,4994,0,-1.2362835,-0.27043125,-8.510684,4994,0
580881803,0.054034445,0.0070097903,0.037026137,4996,0,1.0964041,0.4114729,-8.99313,4996,0
580906785,-0.070654355,0.30386516,0.03339685,4994,0,-1.3450139,-0.6401817,-10.67796,4994,0
580921774,-0.13989538,0.11393038,-0.0037793054,4995,0,0.75817776,0.021686465,-8.103829,4995,0
580941760,-0.09477381,0.25913376,0.09306178,4996,0,-1.2030706,0.46042943,-11.671726,4996,0
580966742,-0.104197316,0.2406904,0.006584171,4996,0,-1.3243366,-0.6224361,-11.549099,4996,0
580981731,0.3673426,0.093788035,0.057416055,4996,0,0.4553369,1.8398331,-9.107223,4996,0
581001718,0.28482884,0.26285693,0.027894963,4998,0,1.149631,0.43240765,-11.904524,4998,0
581021702,-0.30577752,0.26421094,0.06451361,4996,0,1.1403507,1.4287469,-14.028625,4996,0
581046684,-0.5782892,0.11282075,0.021219196,4996,0,2.1053295,-0.4150359,-8.1756315,4996,0
581061673,-0.29477608,0.2743973,0.010876687,4995,0,-0.5234199,0.8334731,-13.021682,4995,0
581081659,-0.09163798,0.25536665,0.0023969233,4997,0,-1.5709876,0.16273022,-10.84411,4997,0
581106642,0.16838299,0.089324474,0.053852893,4998,0,-1.092019,-0.9498622,-11.170306,4998,0
581121629,0.054476734,-0.046082158,0.12408318,4997,0,-1.1447029,-1.1615813,-7.450152,4997,0
581141615,-0.30764264,0.24963968,0.10968791,4996,0,-2.4813864,-1.6107244,-10.39314,4996,0
581161600,-0.65807766,0.45020726,0.086367466,4994,0,-1.0419862,-1.1852793,-13.240715,4994,0
581186583,-0.25102255,0.3118193,0.06457429,4996,0,0.032356955,0.5770728,-12.940216,4996,0
581201572,0.017051235,0.09558533,0.047286373,4997,0,-0.52294725,0.42317578,-8.194545,4997,0
581221557,-0.08500801,-0.15918447,-0.03997812,4989,0,1.7225429,-0.92580247,-9.272548,4989,0
581246538,-0.3065682,0.3099512,-0.03461351,4996,0,-2.8817775,0.5495302,-11.720331,4996,0
