timestamp,q[0],q[1],q[2],q[3],delta_q_reset[0],delta_q_reset[1],delta_q_reset[2],delta_q_reset[3],quat_reset_counter
568360902,0.7184366,0.004874319,5.6693458e-05,0.6955754,-0.9441011,-2.5442032e-10,-8.8480634e-10,-0.32965627,3
568365899,0.7184362,0.0048746797,5.700287e-05,0.69557583,-0.9441011,-2.5442032e-10,-8.8480634e-10,-0.32965627,3
568380887,0.7184355,0.004866942,5.6843754e-05,0.6955766,-0.9441011,-2.5442032e-10,-8.8480634e-10,-0.32965627,3
568400874,0.71844065,0.004858996,5.740476e-05,0.69557136,-0.9441011,-2.5442032e-10,-8.8480634e-10,-0.32965627,3
568425855,0.7184913,0.0048572444,4.965785e-05,0.6955191,-0.9441011,-2.5442032e-10,-8.8480634e-10,-0.32965627,3
568445841,0.7183287,0.0049003633,7.107307e-05,0.6956867,-0.9441011,-2.5442032e-10,-8.8480634e-10,-0.32965627,3
568460830,0.7184611,0.004869178,3.591744e-05,0.6955502,-0.9441011,-2.5442032e-10,-8.8480634e-10,-0.32965627,3
568485811,0.71834064,0.0048907194,5.4371943e-05,0.69567436,-0.9441011,-2.5442032e-10,-8.8480634e-10,-0.32965627,3
568505798,0.7184899,0.0048406334,2.7534146e-05,0.69552064,-0.9441011,-2.5442032e-10,-8.8480634e-10,-0.32965627,3
568520786,0.7184526,0.004857861,4.1925974e-05,0.695559,-0.9441011,-2.5442032e-10,-8.8480634e-10,-0.32965627,3
568540772,0.7184528,0.0048831883,3.95539e-05,0.6955586,-0.9441011,-2.5442032e-10,-8.8480634e-10,-0.32965627,3
568565753,0.71844405,0.004870311,4.454799e-05,0.6955677,-0.9441011,-2.5442032e-10,-8.8480634e-10,-0.32965627,3
568585744,0.7184364,0.0048607644,4.4326654e-05,0.6955758,-0.9441011,-2.5442032e-10,-8.8480634e-10,-0.32965627,3
568600728,0.7184435,0.004857341,1.8155972e-05,0.6955684,-0.9441011,-2.5442032e-10,-8.8480634e-10,-0.32965627,3
568620713,0.71842426,0.004883242,6.566606e-05,0.6955881,-0.9441011,-2.5442032e-10,-8.8480634e-10,-0.32965627,3
568645699,0.7184307,0.0049128113,7.6071425e-05,0.69558126,-0.9441011,-2.5442032e-10,-8.8480634e-10,-0.32965627,3
568660684,0.7184421,0.0048645996,4.6441102e-05,0.6955699,-0.9441011,-2.5442032e-10,-8.8480634e-10,-0.32965627,3
568680670,0.71839684,0.004853847,7.570775e-05,0.69561666,-0.9441011,-2.5442032e-10,-8.8480634e-10,-0.32965627,3
568705653,0.7184477,0.0048593446,6.750033e-05,0.69556403,-0.9441011,-2.5442032e-10,-8.8480634e-10,-0.32965627,3
568720641,0.7184261,0.0048650866,4.763436e-05,0.6955863,-0.9441011,-2.5442032e-10,-8.8480634e-10,-0.32965627,3
568740626,0.71843404,0.0048439316,4.6708912e-05,0.6955782,-0.9441011,-2.5442032e-10,-8.8480634e-10,-0.32965627,3
568765608,0.7184549,0.0048336005,5.3696782e-05,0.6955568,-0.9441011,-2.5442032e-10,-8.8480634e-10,-0.32965627,3
568785593,0.7184334,0.0048402864,4.388089e-05,0.695579,-0.9441011,-2.5442032e-10,-8.8480634e-10,-0.32965627,3
568800584,0.71843797,0.0048656035,8.9555135e-05,0.6955741,-0.9441011,-2.5442032e-10,-8.8480634e-10,-0.32965627,3
568820568,0.71843714,0.0048622764,0.0001134498,0.6955749,-0.9441011,-2.5442032e-10,-8.8480634e-10,-0.32965627,3
568845549,0.7184979,0.0047744773,6.128488e-05,0.69551283,-0.9441011,-2.5442032e-10,-8.8480634e-10,-0.32965627,3
568865534,0.71838385,0.0048189135,8.9598274e-05,0.69563025,-0.9441011,-2.5442032e-10,-8.8480634e-10,-0.32965627,3
568880524,0.71851456,0.0047088843,6.854642e-05,0.6954961,-0.9441011,-2.5442032e-10,-8.8480634e-10,-0.32965627,3
568905506,0.71847737,0.0047211032,0.000118549404,0.69553435,-0.9441011,-2.5442032e-10,-8.8480634e-10,-0.32965627,3
568925491,0.7184073,0.0046884944,5.6179033e-05,0.69560707,-0.9441011,-2.5442032e-10,-8.8480634e-10,-0.32965627,3
568940481,0.71848553,0.0046501607,2.258802e-05,0.6955264,-0.9441011,-2.5442032e-10,-8.8480634e-10,-0.32965627,3
568960466,0.7183813,0.0045783757,7.9233076e-05,0.6956346,-0.9441011,-2.5442032e-10,-8.8480634e-10,-0.32965627,3
568985448,0.71851546,0.0046202843,0.00010603206,0.6954958,-0.9441011,-2.5442032e-10,-8.8480634e-10,-0.32965627,3
569005433,0.7185573,0.004579681,4.336697e-05,0.69545275,-0.9441011,-2.5442032e-10,-8.8480634e-10,-0.32965627,3
569020423,0.7185491,0.004617101,3.3416454e-05,0.69546103,-0.9441011,-2.5442032e-10,-8.8480634e-10,-0.32965627,3
569045404,0.71874744,0.0045913323,3.481449e-05,0.6952562,-0.9441011,-2.5442032e-10,-8.8480634e-10,-0.32965627,3
569060394,0.7182894,0.0046450184,3.5787696e-05,0.6957291,-0.9441011,-2.5442032e-10,-8.8480634e-10,-0.32965627,3
569080379,0.7187711,0.0045693843,-4.0499093e-05,0.69523185,-0.9441011,-2.5442032e-10,-8.8480634e-10,-0.32965627,3
569100365,0.71831805,0.004691685,8.468318e-05,0.69569916,-0.9441011,-2.5442032e-10,-8.8480634e-10,-0.32965627,3
569125349,0.7181234,0.0046337,0.00014363766,0.69590044,-0.9441011,-2.5442032e-10,-8.8480634e-10,-0.32965627,3
569145331,0.7189326,0.004562235,3.444605e-05,0.69506484,-0.9441011,-2.5442032e-10,-8.8480634e-10,-0.32965627,3
569160321,0.718106,0.0045630513,3.4054567e-05,0.6959189,-0.9441011,-2.5442032e-10,-8.8480634e-10,-0.32965627,3
569185302,0.7186626,0.004566656,8.794742e-05,0.69534403,-0.9441011,-2.5442032e-10,-8.8480634e-10,-0.32965627,3
569205288,0.7185931,0.004557633,6.0280036e-05,0.69541585,-0.9441011,-2.5442032e-10,-8.8480634e-10,-0.32965627,3
569220278,0.7185993,0.004526133,2.445379e-05,0.69540966,-0.9441011,-2.5442032e-10,-8.8480634e-10,-0.32965627,3
569240262,0.7186239,0.004708821,5.7238984e-05,0.695383,-0.9441011,-2.5442032e-10,-8.8480634e-10,-0.32965627,3
569265244,0.7178932,0.004570057,0.00017315864,0.6961383,-0.9441011,-2.5442032e-10,-8.8480634e-10,-0.32965627,3
569285230,0.718968,0.0045700553,7.631201e-05,0.6950283,-0.9441011,-2.5442032e-10,-8.8480634e-10,-0.32965627,3
569300222,0.7178551,0.004639621,0.00014517682,0.6961772,-0.9441011,-2.5442032e-10,-8.8480634e-10,-0.32965627,3
569325201,0.7184337,0.004662984,0.00014125873,0.6955798,-0.9441011,-2.5442032e-10,-8.8480634e-10,-0.32965627,3
569345186,0.71876854,0.004658753,0.00013319436,0.6952339,-0.9441011,-2.5442032e-10,-8.8480634e-10,-0.32965627,3
569365175,0.71797335,0.004587401,0.00017448286,0.6960555,-0.9441011,-2.5442032e-10,-8.8480634e-10,-0.32965627,3
569380161,0.7187535,0.0046803337,5.034971e-05,0.69524926,-0.9441011,-2.5442032e-10,-8.8480634e-10,-0.32965627,3
569405143,0.71786654,0.004582434,0.00014415756,0.6961657,-0.9441011,-2.5442032e-10,-8.8480634e-10,-0.32965627,3
569425128,0.7189227,0.0046105213,0.00013093969,0.6950748,-0.9441011,-2.5442032e-10,-8.8480634e-10,-0.32965627,3
569440117,0.7178109,0.0047430107,0.00023600167,0.69622195,-0.9441011,-2.5442032e-10,-8.8480634e-10,-0.32965627,3
569465099,0.7184521,0.004627837,0.00016508574,0.69556105,-0.9441011,-2.5442032e-10,-8.8480634e-10,-0.32965627,3
569485084,0.71872455,0.004692695,0.000109146175,0.6952791,-0.9441011,-2.5442032e-10,-8.8480634e-10,-0.32965627,3
569500075,0.7185697,0.004582735,4.747644e-05,0.69544,-0.9441011,-2.5442032e-10,-8.8480634e-10,-0.32965627,3
569520059,0.71872324,0.0045973463,-5.199612e-06,0.69528115,-0.9441011,-2.5442032e-10,-8.8480634e-10,-0.32965627,3
569545040,0.7178056,0.0045919013,0.00013477419,0.6962285,-0.9441011,-2.5442032e-10,-8.8480634e-10,-0.32965627,3
569565026,0.71907294,0.00460765,0.000100728845,0.69491947,-0.9441011,-2.5442032e-10,-8.8480634e-10,-0.32965627,3
569580016,0.71772665,0.0045244866,0.00010057718,0.6963104,-0.9441011,-2.5442032e-10,-8.8480634e-10,-0.32965627,3
569604999,0.718716,0.0044661434,1.2016918e-05,0.6952894,-0.9441011,-2.5442032e-10,-8.8480634e-10,-0.32965627,3
569624983,0.71859634,0.0046037287,7.8705234e-05,0.69541216,-0.9441011,-2.5442032e-10,-8.8480634e-10,-0.32965627,3
569639972,0.7187102,0.004661504,0.00019538835,0.69529414,-0.9441011,-2.5442032e-10,-8.8480634e-10,-0.32965627,3
569664953,0.71900386,0.0045738677,8.948799e-05,0.6949911,-0.9441011,-2.5442032e-10,-8.8480634e-10,-0.32965627,3
569684940,0.7176925,0.004640043,0.0002793651,0.69634473,-0.9441011,-2.5442032e-10,-8.8480634e-10,-0.32965627,3
569704924,0.71919304,0.0045647793,2.5446025e-05,0.6947953,-0.9441011,-2.5442032e-10,-8.8480634e-10,-0.32965627,3
569719914,0.7178668,0.0045869453,0.00011081488,0.6961655,-0.9441011,-2.5442032e-10,-8.8480634e-10,-0.32965627,3
569744895,0.7189522,0.004601701,3.955023e-05,0.69504434,-0.9441011,-2.5442032e-10,-8.8480634e-10,-0.32965627,3
569764881,0.7182589,0.004613879,5.4560187e-05,0.6957607,-0.9441011,-2.5442032e-10,-8.8480634e-10,-0.32965627,3
569784866,0.7183922,0.004599919,0.00021470246,0.6956231,-0.9441011,-2.5442032e-10,-8.8480634e-10,-0.32965627,3
569804854,0.71872544,0.004620053,5.1649175e-05,0.6952787,-0.9441011,-2.5442032e-10,-8.8480634e-10,-0.32965627,3
569824837,0.71802187,0.004552059,0.00010760491,0.69600576,-0.9441011,-2.5442032e-10,-8.8480634e-10,-0.32965627,3
569844823,0.7191228,0.0046299133,-6.889707e-06,0.6948676,-0.9441011,-2.5442032e-10,-8.8480634e-10,-0.32965627,3
569859812,0.71796024,0.0046426486,0.00027905277,0.6960686,-0.9441011,-2.5442032e-10,-8.8480634e-10,-0.32965627,3
569884794,0.71908844,0.0045750435,8.727008e-05,0.6949036,-0.9441011,-2.5442032e-10,-8.8480634e-10,-0.32965627,3
569904779,0.71775997,0.0047551123,0.0002515603,0.69627434,-0.9441011,-2.5442032e-10,-8.8480634e-10,-0.32965627,3
569919770,0.7192365,0.0046259123,5.816443e-06,0.69474995,-0.9441011,-2.5442032e-10,-8.8480634e-10,-0.32965627,3
569944751,0.7182315,0.0046142126,0.00010767421,0.6957889,-0.9441011,-2.5442032e-10,-8.8480634e-10,-0.32965627,3
569964736,0.71831864,0.0045696064,8.116796e-05,0.69569933,-0.9441011,-2.5442032e-10,-8.8480634e-10,-0.32965627,3
569984722,0.7188386,0.0045567327,-2.0535e-05,0.6951622,-0.9441011,-2.5442032e-10,-8.8480634e-10,-0.32965627,3
569999715,0.71848965,0.0045003565,0.00018935832,0.6955231,-0.9441011,-2.5442032e-10,-8.8480634e-10,-0.32965627,3
570024692,0.71927553,0.0045877723,-1.0576925e-05,0.69470984,-0.9441011,-2.5442032e-10,-8.8480634e-10,-0.32965627,3
570044678,0.7176956,0.0045100893,0.00014029647,0.6963424,-0.9441011,-2.5442032e-10,-8.8480634e-10,-0.32965627,3
570059669,0.71915686,0.0045183403,2.3258408e-05,0.6948331,-0.9441011,-2.5442032e-10,-8.8480634e-10,-0.32965627,3
570084649,0.71773404,0.004712775,0.00020157768,0.6963014,-0.9441011,-2.5442032e-10,-8.8480634e-10,-0.32965627,3
570104634,0.71897906,0.004509509,3.6140893e-05,0.6950171,-0.9441011,-2.5442032e-10,-8.8480634e-10,-0.32965627,3
570124619,0.71803737,0.004619575,0.00022461548,0.6959892,-0.9441011,-2.5442032e-10,-8.8480634e-10,-0.32965627,3
570139608,0.7191653,0.00454614,-1.4761485e-05,0.6948242,-0.9441011,-2.5442032e-10,-8.8480634e-10,-0.32965627,3
570164590,0.7186315,0.004502211,-5.2839546e-06,0.69537663,-0.9441011,-2.5442032e-10,-8.8480634e-10,-0.32965627,3
570184576,0.71805245,0.0046128626,0.0001925774,0.69597375,-0.9441011,-2.5442032e-10,-8.8480634e-10,-0.32965627,3
570199567,0.7182644,0.004591752,0.0001969091,0.6957551,-0.9441011,-2.5442032e-10,-8.8480634e-10,-0.32965627,3
570224547,0.7176332,0.004501686,0.0002544376,0.6964067,-0.9441011,-2.5442032e-10,-8.8480634e-10,-0.32965627,3
570244533,0.71922606,0.0045551215,-5.437805e-05,0.6947612,-0.9441011,-2.5442032e-10,-8.8480634e-10,-0.32965627,3
570264521,0.7178423,0.0043987785,3.4009397e-05,0.69619185,-0.9441011,-2.5442032e-10,-8.8480634e-10,-0.32965627,3
570284503,0.7189202,0.004475813,0.00012935874,0.69507825,-0.9441011,-2.5442032e-10,-8.8480634e-10,-0.32965627,3
570304490,0.7180863,0.004656888,0.00025709864,0.6959385,-0.9441011,-2.5442032e-10,-8.8480634e-10,-0.32965627,3
570324474,0.7184711,0.0044967523,0.00013610527,0.69554234,-0.9441011,-2.5442032e-10,-8.8480634e-10,-0.32965627,3
570339464,0.71827656,0.0045352764,3.539477e-05,0.695743,-0.9441011,-2.5442032e-10,-8.8480634e-10,-0.32965627,3
570364445,0.71795315,0.004666619,0.00024199742,0.69607586,-0.9441011,-2.5442032e-10,-8.8480634e-10,-0.32965627,3
570384431,0.71886796,0.0045876056,8.758904e-05,0.69513154,-0.9441011,-2.5442032e-10,-8.8480634e-10,-0.32965627,3
570404416,0.7180496,0.004443895,0.00018380565,0.6959778,-0.9441011,-2.5442032e-10,-8.8480634e-10,-0.32965627,3
570424401,0.71867746,0.004576302,0.0001662236,0.69532853,-0.9441011,-2.5442032e-10,-8.8480634e-10,-0.32965627,3
570444387,0.71837765,0.004608638,0.00018581476,0.6956381,-0.9441011,-2.5442032e-10,-8.8480634e-10,-0.32965627,3
570464372,0.71832234,0.004456641,0.00016081835,0.6956962,-0.9441011,-2.5442032e-10,-8.8480634e-10,-0.32965627,3
570479361,0.7184646,0.004520958,9.2972165e-05,0.6955489,-0.9441011,-2.5442032e-10,-8.8480634e-10,-0.32965627,3
570504343,0.71800166,0.004573461,0.0002506069,0.6960263,-0.9441011,-2.5442032e-10,-8.8480634e-10,-0.32965627,3
570524329,0.71880203,0.004525995,0.00015514846,0.69520015,-0.9441011,-2.5442032e-10,-8.8480634e-10,-0.32965627,3
570544314,0.7182875,0.0044600973,0.000160316,0.69573206,-0.9441011,-2.5442032e-10,-8.8480634e-10,-0.32965627,3
570564300,0.7184711,0.004502599,0.00021652183,0.6955422,-0.9441011,-2.5442032e-10,-8.8480634e-10,-0.32965627,3
570584285,0.71857077,0.0046376823,0.00022746538,0.6954384,-0.9441011,-2.5442032e-10,-8.8480634e-10,-0.32965627,3
570604272,0.7181521,0.0044543087,0.00015673655,0.69587195,-0.9441011,-2.5442032e-10,-8.8480634e-10,-0.32965627,3
570619264,0.7186979,0.004507182,3.759399e-05,0.6953079,-0.9441011,-2.5442032e-10,-8.8480634e-10,-0.32965627,3
570644242,0.7180972,0.004529985,0.0002616615,0.69592804,-0.9441011,-2.5442032e-10,-8.8480634e-10,-0.32965627,3
570664227,0.7186573,0.0044952696,0.00010732814,0.69534993,-0.9441011,-2.5442032e-10,-8.8480634e-10,-0.32965627,3
570684212,0.7185969,0.0045337654,0.00010765343,0.6954121,-0.9441011,-2.5442032e-10,-8.8480634e-10,-0.32965627,3
570704198,0.71826255,0.0044111544,0.00017948876,0.6957582,-0.9441011,-2.5442032e-10,-8.8480634e-10,-0.32965627,3
570724184,0.7188074,0.004538386,0.0001778456,0.6951944,-0.9441011,-2.5442032e-10,-8.8480634e-10,-0.32965627,3
570744173,0.71800363,0.004527375,0.00017150526,0.6960247,-0.9441011,-2.5442032e-10,-8.8480634e-10,-0.32965627,3
570764155,0.71880865,0.004491029,0.00013178917,0.69519347,-0.9441011,-2.5442032e-10,-8.8480634e-10,-0.32965627,3
570784143,0.7183492,0.0043789465,0.00014397922,0.69566894,-0.9441011,-2.5442032e-10,-8.8480634e-10,-0.32965627,3
570804125,0.71837115,0.004519821,0.00021413834,0.69564533,-0.9441011,-2.5442032e-10,-8.8480634e-10,-0.32965627,3
570824111,0.7187158,0.004469503,0.00017935551,0.6952896,-0.9441011,-2.5442032e-10,-8.8480634e-10,-0.32965627,3
570844096,0.7181058,0.004425264,0.00016256023,0.69591993,-0.9441011,-2.5442032e-10,-8.8480634e-10,-0.32965627,3
570864082,0.7188843,0.0043966854,0.00017461652,0.69511586,-0.9441011,-2.5442032e-10,-8.8480634e-10,-0.32965627,3
570884067,0.7179757,0.00454855,0.00030724346,0.6960534,-0.9441011,-2.5442032e-10,-8.8480634e-10,-0.32965627,3
570904053,0.7186863,0.004482548,0.00017582138,0.69532,-0.9441011,-2.5442032e-10,-8.8480634e-10,-0.32965627,3
570924038,0.7184731,0.0044845054,0.00012679375,0.6955403,-0.9441011,-2.5442032e-10,-8.8480634e-10,-0.32965627,3
570944024,0.71825886,0.004440703,0.00027355456,0.69576174,-0.9441011,-2.5442032e-10,-8.8480634e-10,-0.32965627,3
570964009,0.71883565,0.0045182267,0.00023026315,0.69516534,-0.9441011,-2.5442032e-10,-8.8480634e-10,-0.32965627,3
570983995,0.7179337,0.0045577073,0.00026378946,0.6960965,-0.9441011,-2.5442032e-10,-8.8480634e-10,-0.32965627,3
571003980,0.71901065,0.004465064,0.00019910843,0.69498473,-0.9441011,-2.5442032e-10,-8.8480634e-10,-0.32965627,3
571023967,0.71809953,0.0044265133,0.0002859401,0.69592637,-0.9441011,-2.5442032e-10,-8.8480634e-10,-0.32965627,3
571043952,0.7185769,0.004446658,0.00024493845,0.6954333,-0.9441011,-2.5442032e-10,-8.8480634e-10,-0.32965627,3
571063937,0.7184756,0.00458017,0.0002796469,0.6955371,-0.9441011,-2.5442032e-10,-8.8480634e-10,-0.32965627,3
571083923,0.71816874,0.004362532,0.00020553815,0.6958553,-0.9441011,-2.5442032e-10,-8.8480634e-10,-0.32965627,3
571103907,0.7189655,0.0045380723,0.00017733232,0.695031,-0.9441011,-2.5442032e-10,-8.8480634e-10,-0.32965627,3
571123893,0.71787673,0.0043411567,0.00030623437,0.6961567,-0.9441011,-2.5442032e-10,-8.8480634e-10,-0.32965627,3
571143880,0.71884197,0.0044940687,0.00024316422,0.6951591,-0.9441011,-2.5442032e-10,-8.8480634e-10,-0.32965627,3
571163867,0.71809673,0.0045660473,0.00026588346,0.69592834,-0.9441011,-2.5442032e-10,-8.8480634e-10,-0.32965627,3
571183850,0.71858627,0.004449911,0.00022959338,0.69542366,-0.9441011,-2.5442032e-10,-8.8480634e-10,-0.32965627,3
571203835,0.71862864,0.0043935785,0.00021677824,0.69538015,-0.9441011,-2.5442032e-10,-8.8480634e-10,-0.32965627,3
571223821,0.71811026,0.004440987,0.0002805103,0.6959152,-0.9441011,-2.5442032e-10,-8.8480634e-10,-0.32965627,3
571243807,0.7188964,0.0044915588,0.0001806284,0.6951027,-0.9441011,-2.5442032e-10,-8.8480634e-10,-0.32965627,3
571263791,0.7180302,0.00447954,0.00018242885,0.6959976,-0.9441011,-2.5442032e-10,-8.8480634e-10,-0.32965627,3
571283780,0.7190201,0.0043750815,0.000124994,0.6949755,-0.9441011,-2.5442032e-10,-8.8480634e-10,-0.32965627,3
571303764,0.71814615,0.004421118,0.00022818992,0.69587827,-0.9441011,-2.5442032e-10,-8.8480634e-10,-0.32965627,3
571323750,0.71858007,0.004459646,0.00018793576,0.6954299,-0.9441011,-2.5442032e-10,-8.8480634e-10,-0.32965627,3
571343734,0.718484,0.004538117,0.00025212017,0.6955286,-0.9441011,-2.5442032e-10,-8.8480634e-10,-0.32965627,3
571363718,0.7181753,0.0044371854,0.00023222265,0.69584817,-0.9441011,-2.5442032e-10,-8.8480634e-10,-0.32965627,3
571383708,0.71894133,0.0043850895,0.00014037233,0.695057,-0.9441011,-2.5442032e-10,-8.8480634e-10,-0.32965627,3
571403691,0.7179037,0.0044782287,0.00028881393,0.696128,-0.9441011,-2.5442032e-10,-8.8480634e-10,-0.32965627,3
571423676,0.718935,0.0045092925,0.00014069641,0.6950627,-0.9441011,-2.5442032e-10,-8.8480634e-10,-0.32965627,3
571443665,0.71804214,0.0045545097,0.00020623754,0.6959847,-0.9441011,-2.5442032e-10,-8.8480634e-10,-0.32965627,3
571463646,0.7186954,0.004471855,0.00012399237,0.6953107,-0.9441011,-2.5442032e-10,-8.8480634e-10,-0.32965627,3
571483632,0.7185215,0.004405778,0.00021403539,0.6954908,-0.9441011,-2.5442032e-10,-8.8480634e-10,-0.32965627,3
571503617,0.7181756,0.00446146,0.00026424,0.6958477,-0.9441011,-2.5442032e-10,-8.8480634e-10,-0.32965627,3
571523603,0.7188173,0.0045495047,0.00022930704,0.6951842,-0.9441011,-2.5442032e-10,-8.8480634e-10,-0.32965627,3
571543589,0.7178757,0.00451021,0.00027248316,0.6961567,-0.9441011,-2.5442032e-10,-8.8480634e-10,-0.32965627,3
571563573,0.7190405,0.004485027,0.0001551874,0.6949538,-0.9441011,-2.5442032e-10,-8.8480634e-10,-0.32965627,3
571583559,0.7179215,0.0043819197,0.00024607644,0.6961103,-0.9441011,-2.5442032e-10,-8.8480634e-10,-0.32965627,3
571603544,0.718883,0.004355136,0.0002507616,0.6951175,-0.9441011,-2.5442032e-10,-8.8480634e-10,-0.32965627,3
571623529,0.71820307,0.0045254803,0.000376306,0.69581884,-0.9441011,-2.5442032e-10,-8.8480634e-10,-0.32965627,3
571643515,0.7183924,0.004487065,0.00029517707,0.6956237,-0.9441011,-2.5442032e-10,-8.8480634e-10,-0.32965627,3
571663500,0.7187256,0.0045410027,0.0002714245,0.695279,-0.9441011,-2.5442032e-10,-8.8480634e-10,-0.32965627,3
571683486,0.7180265,0.004455383,0.00031382617,0.69600147,-0.9441011,-2.5442032e-10,-8.8480634e-10,-0.32965627,3
571703474,0.7192148,0.004368874,0.00015264984,0.69477415,-0.9441011,-2.5442032e-10,-8.8480634e-10,-0.32965627,3
571723457,0.7177074,0.0043822736,0.00041017786,0.69633096,-0.9441011,-2.5442032e-10,-8.8480634e-10,-0.32965627,3
571743443,0.71919686,0.0044638454,0.00016254744,0.6947921,-0.9441011,-2.5442032e-10,-8.8480634e-10,-0.32965627,3
571763428,0.71773374,0.0046043354,0.00030933873,0.6963024,-0.9441011,-2.5442032e-10,-8.8480634e-10,-0.32965627,3
571783414,0.71893346,0.0043716882,0.00017869263,0.69506514,-0.9441011,-2.5442032e-10,-8.8480634e-10,-0.32965627,3
571803403,0.71831155,0.004430183,0.00019729149,0.6957075,-0.9441011,-2.5442032e-10,-8.8480634e-10,-0.32965627,3
571823387,0.71849364,0.0043577915,0.00024464884,0.6955199,-0.9441011,-2.5442032e-10,-8.8480634e-10,-0.32965627,3
571843370,0.7187319,0.004375211,0.0001325369,0.69527364,-0.9441011,-2.5442032e-10,-8.8480634e-10,-0.32965627,3
571863355,0.7179242,0.004458798,0.0003358541,0.696107,-0.9441011,-2.5442032e-10,-8.8480634e-10,-0.32965627,3
571883341,0.7190995,0.004428598,2.9368462e-05,0.69489306,-0.9441011,-2.5442032e-10,-8.8480634e-10,-0.32965627,3
571903330,0.7176292,0.0043107723,0.0002336844,0.6964121,-0.9441011,-2.5442032e-10,-8.8480634e-10,-0.32965627,3
571923311,0.7193492,0.00423103,-2.8318704e-05,0.6946358,-0.9441011,-2.5442032e-10,-8.8480634e-10,-0.32965627,3
571943297,0.7175204,0.0043597324,0.00035447584,0.6965238,-0.9441011,-2.5442032e-10,-8.8480634e-10,-0.32965627,3
571963282,0.7190648,0.0044234837,0.00014253285,0.694929,-0.9441011,-2.5442032e-10,-8.8480634e-10,-0.32965627,3
571983269,0.71806675,0.0046127248,0.00021942714,0.695959,-0.9441011,-2.5442032e-10,-8.8480634e-10,-0.32965627,3
572003253,0.71849704,0.004376065,0.000108194276,0.69551635,-0.9441011,-2.5442032e-10,-8.8480634e-10,-0.32965627,3
572023241,0.7187723,0.004454425,8.4843574e-05,0.69523126,-0.9441011,-2.5442032e-10,-8.8480634e-10,-0.32965627,3
572043224,0.7180798,0.004345564,0.00023818629,0.69594723,-0.9441011,-2.5442032e-10,-8.8480634e-10,-0.32965627,3
572063210,0.7190303,0.004259995,4.682365e-05,0.69496566,-0.9441011,-2.5442032e-10,-8.8480634e-10,-0.32965627,3
572083195,0.71794266,0.0043808417,0.00031806895,0.6960885,-0.9441011,-2.5442032e-10,-8.8480634e-10,-0.32965627,3
572103181,0.71878487,0.004393708,0.00017464615,0.6952187,-0.9441011,-2.5442032e-10,-8.8480634e-10,-0.32965627,3
572123166,0.71827346,0.004601154,0.00022010911,0.69574577,-0.9441011,-2.5442032e-10,-8.8480634e-10,-0.32965627,3
572143153,0.71837723,0.004462802,0.00017636418,0.6956395,-0.9441011,-2.5442032e-10,-8.8480634e-10,-0.32965627,3
572163137,0.7187682,0.004449,0.00013324781,0.6952356,-0.9441011,-2.5442032e-10,-8.8480634e-10,-0.32965627,3
572183123,0.71811485,0.0043781223,0.00021820574,0.6959109,-0.9441011,-2.5442032e-10,-8.8480634e-10,-0.32965627,3
572203110,0.7188647,0.004329864,0.00016744509,0.69513655,-0.9441011,-2.5442032e-10,-8.8480634e-10,-0.32965627,3
572223095,0.71824765,0.004319377,0.00021866446,0.6957742,-0.9441011,-2.5442032e-10,-8.8480634e-10,-0.32965627,3
572243079,0.71847963,0.0043511894,0.0002389942,0.6955344,-0.9441011,-2.5442032e-10,-8.8480634e-10,-0.32965627,3
572263065,0.71864754,0.0043737385,0.00020615727,0.69536084,-0.9441011,-2.5442032e-10,-8.8480634e-10,-0.32965627,3
572283050,0.71805745,0.004498907,0.00032839432,0.6959692,-0.9441011,-2.5442032e-10,-8.8480634e-10,-0.32965627,3
572303037,0.7187948,0.0044577583,0.00015699334,0.6952081,-0.9441011,-2.5442032e-10,-8.8480634e-10,-0.32965627,3
572323021,0.7181053,0.0045520277,0.0002656002,0.6959195,-0.9441011,-2.5442032e-10,-8.8480634e-10,-0.32965627,3
572343007,0.71856594,0.004491089,0.00019279167,0.69544435,-0.9441011,-2.5442032e-10,-8.8480634e-10,-0.32965627,3
572362993,0.718599,0.004459613,0.00016601344,0.69541043,-0.9441011,-2.5442032e-10,-8.8480634e-10,-0.32965627,3
572382980,0.7182612,0.004356325,0.00021673644,0.69575995,-0.9441011,-2.5442032e-10,-8.8480634e-10,-0.32965627,3
572402963,0.71891844,0.004238688,0.00011253239,0.6950816,-0.9441011,-2.5442032e-10,-8.8480634e-10,-0.32965627,3
572422948,0.71809375,0.0041327,0.0002230682,0.69593406,-0.9441011,-2.5442032e-10,-8.8480634e-10,-0.32965627,3
572442935,0.7187089,0.0044099214,0.00035724952,0.6952972,-0.9441011,-2.5442032e-10,-8.8480634e-10,-0.32965627,3
572462921,0.71812147,0.0036961564,0.00010776451,0.695908,-0.9441011,-2.5442032e-10,-8.8480634e-10,-0.32965627,3
572482910,0.7186471,0.0036320344,1.7304132e-05,0.69536555,-0.9441011,-2.5442032e-10,-8.8480634e-10,-0.32965627,3
572502891,0.7182643,0.0038749194,-0.00025577383,0.6957596,-0.9441011,-2.5442032e-10,-8.8480634e-10,-0.32965627,3
572522878,0.7186166,0.0039038677,-2.7543963e-05,0.6953955,-0.9441011,-2.5442032e-10,-8.8480634e-10,-0.32965627,3
572542865,0.7183151,0.003485084,-0.0006456273,0.6957089,-0.9441011,-2.5442032e-10,-8.8480634e-10,-0.32965627,3
572562848,0.7187005,0.0024741788,-0.0011017844,0.6953145,-0.9441011,-2.5442032e-10,-8.8480634e-10,-0.32965627,3
572582833,0.71848524,0.002067495,-0.0014629852,0.6955377,-0.9441011,-2.5442032e-10,-8.8480634e-10,-0.32965627,3
572602819,0.71885073,0.0014010458,-0.0016485672,0.6951611,-0.9441011,-2.5442032e-10,-8.8480634e-10,-0.32965627,3
572622803,0.7186296,0.0012281633,-0.0019232541,0.6953894,-0.9441011,-2.5442032e-10,-8.8480634e-10,-0.32965627,3
572642790,0.71886784,0.00091022265,-0.0018072181,0.6951438,-0.9441011,-2.5442032e-10,-8.8480634e-10,-0.32965627,3
572662776,0.7187243,0.0006784591,-0.0016740977,0.6952929,-0.9441011,-2.5442032e-10,-8.8480634e-10,-0.32965627,3
572682762,0.7186665,0.00019408329,-0.0023155937,0.69535106,-0.9441011,-2.5442032e-10,-8.8480634e-10,-0.32965627,3
572702745,0.7185858,1.0271567e-05,-0.0023971063,0.6954342,-0.9441011,-2.5442032e-10,-8.8480634e-10,-0.32965627,3
572722732,0.7186423,-0.00031617066,-0.0025767412,0.69537514,-0.9441011,-2.5442032e-10,-8.8480634e-10,-0.32965627,3
572742718,0.71856415,-0.00041401232,-0.0029918335,0.6954542,-0.9441011,-2.5442032e-10,-8.8480634e-10,-0.32965627,3
572762707,0.71840274,-0.000650577,-0.0037740872,0.69561696,-0.9441011,-2.5442032e-10,-8.8480634e-10,-0.32965627,3
572782687,0.7184561,-0.0013266166,-0.004306849,0.6955578,-0.9441011,-2.5442032e-10,-8.8480634e-10,-0.32965627,3
572802674,0.7182501,-0.0023283616,-0.005485159,0.6957596,-0.9441011,-2.5442032e-10,-8.8480634e-10,-0.32965627,3
572822659,0.7179454,-0.0033410683,-0.00686222,0.6960577,-0.9441011,-2.5442032e-10,-8.8480634e-10,-0.32965627,3
572842644,0.71777815,-0.004239216,-0.0080613,0.69621235,-0.9441011,-2.5442032e-10,-8.8480634e-10,-0.32965627,3
572862631,0.7174576,-0.0059705223,-0.00926251,0.696515,-0.9441011,-2.5442032e-10,-8.8480634e-10,-0.32965627,3
572882615,0.71728915,-0.0072699217,-0.010226251,0.69666266,-0.9441011,-2.5442032e-10,-8.8480634e-10,-0.32965627,3
572902601,0.71691334,-0.0076136542,-0.010739613,0.6970381,-0.9441011,-2.5442032e-10,-8.8480634e-10,-0.32965627,3
572922585,0.71668935,-0.008253342,-0.011695863,0.6972457,-0.9441011,-2.5442032e-10,-8.8480634e-10,-0.32965627,3
572942570,0.7164262,-0.0091188215,-0.013279759,0.6974769,-0.9441011,-2.5442032e-10,-8.8480634e-10,-0.32965627,3
572962558,0.71620476,-0.010532772,-0.014291196,0.6976644,-0.9441011,-2.5442032e-10,-8.8480634e-10,-0.32965627,3
572982541,0.7161548,-0.011295949,-0.014805007,0.6976931,-0.9441011,-2.5442032e-10,-8.8480634e-10,-0.32965627,3
573002527,0.7157214,-0.012461007,-0.015822515,0.69809544,-0.9441011,-2.5442032e-10,-8.8480634e-10,-0.32965627,3
573022513,0.7154827,-0.013950643,-0.01782338,0.6982638,-0.9441011,-2.5442032e-10,-8.8480634e-10,-0.32965627,3
573042499,0.7152145,-0.015994636,-0.019508928,0.6984496,-0.9441011,-2.5442032e-10,-8.8480634e-10,-0.32965627,3
573062485,0.71497697,-0.01781703,-0.019379677,0.69865227,-0.9441011,-2.5442032e-10,-8.8480634e-10,-0.32965627,3
573082470,0.71510655,-0.017766315,-0.018104881,0.6985551,-0.9441011,-2.5442032e-10,-8.8480634e-10,-0.32965627,3
573102454,0.7148786,-0.01570922,-0.01647102,0.69887805,-0.9441011,-2.5442032e-10,-8.8480634e-10,-0.32965627,3
573122440,0.714828,-0.01609588,-0.016811997,0.6989129,-0.9441011,-2.5442032e-10,-8.8480634e-10,-0.32965627,3
573142427,0.71484977,-0.01804617,-0.019051585,0.6987855,-0.9441011,-2.5442032e-10,-8.8480634e-10,-0.32965627,3
573162411,0.7143759,-0.018984022,-0.021308899,0.69918,-0.9441011,-2.5442032e-10,-8.8480634e-10,-0.32965627,3
573182396,0.7144548,-0.019111125,-0.021926494,0.6990768,-0.9441011,-2.5442032e-10,-8.8480634e-10,-0.32965627,3
573202384,0.7145357,-0.017860362,-0.019009462,0.69911253,-0.9441011,-2.5442032e-10,-8.8480634e-10,-0.32965627,3
573222367,0.7143326,-0.015427355,-0.014978533,0.69947606,-0.9441011,-2.5442032e-10,-8.8480634e-10,-0.32965627,3
573242353,0.7147145,-0.013993107,-0.012526602,0.6991641,-0.9441011,-2.5442032e-10,-8.8480634e-10,-0.32965627,3
573262338,0.71427464,-0.011855741,-0.011849043,0.69966483,-0.9441011,-2.5442032e-10,-8.8480634e-10,-0.32965627,3
573282324,0.7141004,-0.010994863,-0.012436176,0.69984645,-0.9441011,-2.5442032e-10,-8.8480634e-10,-0.32965627,3
573302310,0.7140368,-0.011259163,-0.014310073,0.69987136,-0.9441011,-2.5442032e-10,-8.8480634e-10,-0.32965627,3
573322295,0.7138472,-0.011838133,-0.01374992,0.70006645,-0.9441011,-2.5442032e-10,-8.8480634e-10,-0.32965627,3
573342280,0.71375436,-0.011881258,-0.012072345,0.7001913,-0.9441011,-2.5442032e-10,-8.8480634e-10,-0.32965627,3
573362266,0.71384585,-0.01053789,-0.011432371,0.70013034,-0.9441011,-2.5442032e-10,-8.8480634e-10,-0.32965627,3
573382251,0.7137045,-0.0069585512,-0.011972094,0.70031,-0.9441011,-2.5442032e-10,-8.8480634e-10,-0.32965627,3
573402237,0.7137007,-0.0033711183,-0.015004257,0.70028204,-0.9441011,-2.5442032e-10,-8.8480634e-10,-0.32965627,3
573422222,0.7133134,0.0005277653,-0.017677676,0.7006221,-0.9441011,-2.5442032e-10,-8.8480634e-10,-0.32965627,3
573442209,0.7129474,0.0015414248,-0.01817973,0.7009802,-0.9441011,-2.5442032e-10,-8.8480634e-10,-0.32965627,3
573462193,0.71307033,0.0006089093,-0.01627494,0.70090336,-0.9441011,-2.5442032e-10,-8.8480634e-10,-0.32965627,3
573487175,0.7126422,0.0022809978,-0.014551602,0.7013731,-0.9441011,-2.5442032e-10,-8.8480634e-10,-0.32965627,3
573502165,0.7127081,0.005308711,-0.014745414,0.7012857,-0.9441011,-2.5442032e-10,-8.8480634e-10,-0.32965627,3
573522149,0.71240884,0.0087389145,-0.016966766,0.7015051,-0.9441011,-2.5442032e-10,-8.8480634e-10,-0.32965627,3
573542136,0.711666,0.00989125,-0.019557893,0.7021761,-0.9441011,-2.5442032e-10,-8.8480634e-10,-0.32965627,3
573562121,0.71130955,0.010035514,-0.02050629,0.7025081,-0.9441011,-2.5442032e-10,-8.8480634e-10,-0.32965627,3
573582106,0.71067154,0.010715904,-0.019347277,0.7031762,-0.9441011,-2.5442032e-10,-8.8480634e-10,-0.32965627,3
573602091,0.71010494,0.012317994,-0.018452145,0.70374626,-0.9441011,-2.5442032e-10,-8.8480634e-10,-0.32965627,3
573627073,0.70973307,0.01543912,-0.018690564,0.70405346,-0.9441011,-2.5442032e-10,-8.8480634e-10,-0.32965627,3
573642062,0.70940095,0.01729515,-0.019305015,0.7043285,-0.9441011,-2.5442032e-10,-8.8480634e-10,-0.32965627,3
573662048,0.70947546,0.01814824,-0.0192908,0.70423234,-0.9441011,-2.5442032e-10,-8.8480634e-10,-0.32965627,3
573682033,0.709529,0.018008577,-0.018175518,0.70421165,-0.9441011,-2.5442032e-10,-8.8480634e-10,-0.32965627,3
573702019,0.7091732,0.017060732,-0.016905785,0.7046251,-0.9441011,-2.5442032e-10,-8.8480634e-10,-0.32965627,3
573722004,0.7089578,0.019614475,-0.016293926,0.7047899,-0.9441011,-2.5442032e-10,-8.8480634e-10,-0.32965627,3
573741991,0.7082636,0.023613174,-0.016737444,0.7053546,-0.9441011,-2.5442032e-10,-8.8480634e-10,-0.32965627,3
573766973,0.70785034,0.028647073,-0.016325017,0.70559263,-0.9441011,-2.5442032e-10,-8.8480634e-10,-0.32965627,3
573781961,0.7072049,0.030872779,-0.015267708,0.7061693,-0.9441011,-2.5442032e-10,-8.8480634e-10,-0.32965627,3
573801947,0.70701593,0.032371335,-0.01394823,0.7063187,-0.9441011,-2.5442032e-10,-8.8480634e-10,-0.32965627,3
573821932,0.70682746,0.034300055,-0.0135439085,0.7064241,-0.9441011,-2.5442032e-10,-8.8480634e-10,-0.32965627,3
573841917,0.70681596,0.037882823,-0.011380442,0.70629084,-0.9441011,-2.5442032e-10,-8.8480634e-10,-0.32965627,3
573861903,0.7068621,0.041961875,-0.008338333,0.70605654,-0.9441011,-2.5442032e-10,-8.8480634e-10,-0.32965627,3
573881888,0.7068961,0.045511257,-0.006049655,0.70582575,-0.9441011,-2.5442032e-10,-8.8480634e-10,-0.32965627,3
573906870,0.706918,0.04785719,-0.0056577646,0.705652,-0.9441011,-2.5442032e-10,-8.8480634e-10,-0.32965627,3
573921859,0.70702237,0.04839031,-0.005960872,0.70550853,-0.9441011,-2.5442032e-10,-8.8480634e-10,-0.32965627,3
573941845,0.7066901,0.052277643,-0.00282361,0.70558363,-0.9441011,-2.5442032e-10,-8.8480634e-10,-0.32965627,3
573961830,0.70625734,0.05631757,0.0009881989,0.70571095,-0.9441011,-2.5442032e-10,-8.8480634e-10,-0.32965627,3
573981817,0.7057381,0.060483366,0.0036175107,0.7058771,-0.9441011,-2.5442032e-10,-8.8480634e-10,-0.32965627,3
574001801,0.70503914,0.06275769,0.004243518,0.7063734,-0.9441011,-2.5442032e-10,-8.8480634e-10,-0.32965627,3
574021787,0.7045005,0.06502316,0.004093676,0.7067067,-0.9441011,-2.5442032e-10,-8.8480634e-10,-0.32965627,3
574046771,0.70376885,0.067293376,0.007078998,0.7071994,-0.9441011,-2.5442032e-10,-8.8480634e-10,-0.32965627,3
574061758,0.7034302,0.06857278,0.010566929,0.70736986,-0.9441011,-2.5442032e-10,-8.8480634e-10,-0.32965627,3
574081743,0.7029221,0.07132465,0.014859425,0.7075256,-0.9441011,-2.5442032e-10,-8.8480634e-10,-0.32965627,3
574101728,0.7023486,0.074197404,0.016679645,0.70775914,-0.9441011,-2.5442032e-10,-8.8480634e-10,-0.32965627,3
574121714,0.7023016,0.07699832,0.017120246,0.707496,-0.9441011,-2.5442032e-10,-8.8480634e-10,-0.32965627,3
574141699,0.7018601,0.07922873,0.018350413,0.70765716,-0.9441011,-2.5442032e-10,-8.8480634e-10,-0.32965627,3
574161687,0.70150656,0.08121715,0.021729833,0.70768654,-0.9441011,-2.5442032e-10,-8.8480634e-10,-0.32965627,3
574186666,0.7012575,0.08420184,0.02708028,0.70739996,-0.9441011,-2.5442032e-10,-8.8480634e-10,-0.32965627,3
574201656,0.70102715,0.086140685,0.029062988,0.70731616,-0.9441011,-2.5442032e-10,-8.8480634e-10,-0.32965627,3
574226640,0.7016608,0.087022945,0.030603526,0.7065145,-0.9441011,-2.5442032e-10,-8.8480634e-10,-0.32965627,3
574241626,0.7017195,0.08586289,0.030305672,0.70661086,-0.9441011,-2.5442032e-10,-8.8480634e-10,-0.32965627,3
574261612,0.7022005,0.08385114,0.03084566,0.7063512,-0.9441011,-2.5442032e-10,-8.8480634e-10,-0.32965627,3
574281597,0.70266455,0.08248372,0.03308556,0.7059493,-0.9441011,-2.5442032e-10,-8.8480634e-10,-0.32965627,3
574301584,0.7028445,0.080427036,0.03424078,0.7059524,-0.9441011,-2.5442032e-10,-8.8480634e-10,-0.32965627,3
574326564,0.7030932,0.07889624,0.034096345,0.70588446,-0.9441011,-2.5442032e-10,-8.8480634e-10,-0.32965627,3
574341558,0.70311743,0.07767054,0.032841064,0.70605576,-0.9441011,-2.5442032e-10,-8.8480634e-10,-0.32965627,3
574361539,0.70306784,0.07680069,0.031249305,0.7062725,-0.9441011,-2.5442032e-10,-8.8480634e-10,-0.32965627,3
574386523,0.70301604,0.075122945,0.03113106,0.70650965,-0.9441011,-2.5442032e-10,-8.8480634e-10,-0.32965627,3
574401510,0.702591,0.07420581,0.03123682,0.7070246,-0.9441011,-2.5442032e-10,-8.8480634e-10,-0.32965627,3
574421496,0.7023349,0.07307396,0.032025028,0.7073616,-0.9441011,-2.5442032e-10,-8.8480634e-10,-0.32965627,3
574441481,0.7016947,0.0720271,0.032375243,0.7080879,-0.9441011,-2.5442032e-10,-8.8480634e-10,-0.32965627,3
574461467,0.701305,0.07030405,0.031325378,0.70869416,-0.9441011,-2.5442032e-10,-8.8480634e-10,-0.32965627,3
574481452,0.7011203,0.06935807,0.029625729,0.7090431,-0.9441011,-2.5442032e-10,-8.8480634e-10,-0.32965627,3
574501439,0.70050037,0.0691759,0.028634377,0.70971406,-0.9441011,-2.5442032e-10,-8.8480634e-10,-0.32965627,3
574526420,0.69991595,0.06749776,0.028627805,0.7104521,-0.9441011,-2.5442032e-10,-8.8480634e-10,-0.32965627,3
574541409,0.6993959,0.065713905,0.02871303,0.7111278,-0.9441011,-2.5442032e-10,-8.8480634e-10,-0.32965627,3
574561394,0.69862944,0.0627009,0.027995128,0.71218103,-0.9441011,-2.5442032e-10,-8.8480634e-10,-0.32965627,3
574581380,0.69851935,0.05935773,0.02553075,0.712668,-0.9441011,-2.5442032e-10,-8.8480634e-10,-0.32965627,3
574606362,0.69788843,0.05759518,0.02549318,0.7134316,-0.9441011,-2.5442032e-10,-8.8480634e-10,-0.32965627,3
574621351,0.69760346,0.05871107,0.027166944,0.7135576,-0.9441011,-2.5442032e-10,-8.8480634e-10,-0.32965627,3
574641336,0.69765705,0.057506375,0.028587067,0.7135479,-0.9441011,-2.5442032e-10,-8.8480634e-10,-0.32965627,3
574666324,0.6975472,0.0522498,0.027724022,0.7140933,-0.9441011,-2.5442032e-10,-8.8480634e-10,-0.32965627,3
574681307,0.6977032,0.048614196,0.025850857,0.7142679,-0.9441011,-2.5442032e-10,-8.8480634e-10,-0.32965627,3
574701292,0.6977987,0.044559322,0.022749066,0.71454453,-0.9441011,-2.5442032e-10,-8.8480634e-10,-0.32965627,3
574721278,0.6974165,0.041977547,0.022202943,0.71509105,-0.9441011,-2.5442032e-10,-8.8480634e-10,-0.32965627,3
574746259,0.6976282,0.039546464,0.021265578,0.7150516,-0.9441011,-2.5442032e-10,-8.8480634e-10,-0.32965627,3
574761249,0.6976009,0.036166463,0.019565027,0.7153057,-0.9441011,-2.5442032e-10,-8.8480634e-10,-0.32965627,3
574781234,0.6975891,0.030564502,0.015083647,0.7156869,-0.9441011,-2.5442032e-10,-8.8480634e-10,-0.32965627,3
574806216,0.6978673,0.023049505,0.009772682,0.7157895,-0.9441011,-2.5442032e-10,-8.8480634e-10,-0.32965627,3
574821205,0.6982978,0.020196114,0.007458299,0.71548355,-0.9441011,-2.5442032e-10,-8.8480634e-10,-0.32965627,3
574841191,0.69819486,0.019213073,0.0062733474,0.7156225,-0.9441011,-2.5442032e-10,-8.8480634e-10,-0.32965627,3
574866173,0.69892704,0.017050968,0.0039769015,0.71497864,-0.9441011,-2.5442032e-10,-8.8480634e-10,-0.32965627,3
574886158,0.69921184,0.015605071,0.0019625453,0.7147416,-0.9441011,-2.5442032e-10,-8.8480634e-10,-0.32965627,3
574901148,0.6995186,0.014185713,-0.0004784894,0.7144734,-0.9441011,-2.5442032e-10,-8.8480634e-10,-0.32965627,3
574921132,0.7003858,0.011353681,-0.0034574603,0.71366584,-0.9441011,-2.5442032e-10,-8.8480634e-10,-0.32965627,3
574946116,0.70085293,0.008725214,-0.0058617997,0.71322846,-0.9441011,-2.5442032e-10,-8.8480634e-10,-0.32965627,3
574961104,0.70154154,0.0073259985,-0.006857986,0.712558,-0.9441011,-2.5442032e-10,-8.8480634e-10,-0.32965627,3
574981089,0.7022268,0.0055906475,-0.00840416,0.7118818,-0.9441011,-2.5442032e-10,-8.8480634e-10,-0.32965627,3
575001074,0.7027903,0.00414671,-0.01115456,0.7112976,-0.9441011,-2.5442032e-10,-8.8480634e-10,-0.32965627,3
575026057,0.70385927,0.003427315,-0.014208849,0.71018916,-0.9441011,-2.5442032e-10,-8.8480634e-10,-0.32965627,3
575041048,0.70434755,0.001885778,-0.016371766,0.709664,-0.9441011,-2.5442032e-10,-8.8480634e-10,-0.32965627,3
575061031,0.7050288,-4.4279626e-05,-0.017418427,0.7089648,-0.9441011,-2.5442032e-10,-8.8480634e-10,-0.32965627,3
575086013,0.7062272,-0.0024219728,-0.018937286,0.70772785,-0.9441011,-2.5442032e-10,-8.8480634e-10,-0.32965627,3
575101003,0.70655316,-0.002585507,-0.019696072,0.7073811,-0.9441011,-2.5442032e-10,-8.8480634e-10,-0.32965627,3
575120987,0.707195,-0.0039843502,-0.021456687,0.7066818,-0.9441011,-2.5442032e-10,-8.8480634e-10,-0.32965627,3
575145969,0.70806074,-0.005721657,-0.02385758,0.7057253,-0.9441011,-2.5442032e-10,-8.8480634e-10,-0.32965627,3
575165955,0.7082975,-0.00750489,-0.02571329,0.7054057,-0.9441011,-2.5442032e-10,-8.8480634e-10,-0.32965627,3
575180944,0.7088093,-0.008543232,-0.025733136,0.70487887,-0.9441011,-2.5442032e-10,-8.8480634e-10,-0.32965627,3
575205925,0.7093138,-0.010339271,-0.027822422,0.7042677,-0.9441011,-2.5442032e-10,-8.8480634e-10,-0.32965627,3
575225911,0.7095895,-0.011494473,-0.028966501,0.70392597,-0.9441011,-2.5442032e-10,-8.8480634e-10,-0.32965627,3
575240900,0.71003634,-0.013325374,-0.031076666,0.70335275,-0.9441011,-2.5442032e-10,-8.8480634e-10,-0.32965627,3
575260886,0.7101267,-0.013482612,-0.033310436,0.70315623,-0.9441011,-2.5442032e-10,-8.8480634e-10,-0.32965627,3
575285867,0.7105534,-0.015900556,-0.034978285,0.7025935,-0.9441011,-2.5442032e-10,-8.8480634e-10,-0.32965627,3
575305853,0.7107228,-0.016925005,-0.036494523,0.70232105,-0.9441011,-2.5442032e-10,-8.8480634e-10,-0.32965627,3
575320842,0.71072286,-0.01858103,-0.036418796,0.7022831,-0.9441011,-2.5442032e-10,-8.8480634e-10,-0.32965627,3
575340827,0.7112786,-0.02097141,-0.03708725,0.7016178,-0.9441011,-2.5442032e-10,-8.8480634e-10,-0.32965627,3
575365810,0.71118474,-0.02395531,-0.03900472,0.70151347,-0.9441011,-2.5442032e-10,-8.8480634e-10,-0.32965627,3
575380798,0.7114605,-0.02558794,-0.03954423,0.7011459,-0.9441011,-2.5442032e-10,-8.8480634e-10,-0.32965627,3
575400785,0.7115951,-0.027970396,-0.040032003,0.7008905,-0.9441011,-2.5442032e-10,-8.8480634e-10,-0.32965627,3
575425766,0.7120355,-0.03170196,-0.04060903,0.70025104,-0.9441011,-2.5442032e-10,-8.8480634e-10,-0.32965627,3
575445752,0.71221757,-0.0342583,-0.04158887,0.6998879,-0.9441011,-2.5442032e-10,-8.8480634e-10,-0.32965627,3
575460740,0.7123095,-0.035561815,-0.04238648,0.6996814,-0.9441011,-2.5442032e-10,-8.8480634e-10,-0.32965627,3
575485722,0.7126776,-0.037249267,-0.04397259,0.69912064,-0.9441011,-2.5442032e-10,-8.8480634e-10,-0.32965627,3
575505709,0.7127755,-0.03900801,-0.045414716,0.69883263,-0.9441011,-2.5442032e-10,-8.8480634e-10,-0.32965627,3
575520697,0.7129986,-0.040155504,-0.046363816,0.69847757,-0.9441011,-2.5442032e-10,-8.8480634e-10,-0.32965627,3
575540682,0.71332985,-0.04061542,-0.046964664,0.6980726,-0.9441011,-2.5442032e-10,-8.8480634e-10,-0.32965627,3
575565664,0.7136428,-0.039895855,-0.046993,0.6977923,-0.9441011,-2.5442032e-10,-8.8480634e-10,-0.32965627,3
575585650,0.71400076,-0.03965147,-0.04700451,0.69743913,-0.9441011,-2.5442032e-10,-8.8480634e-10,-0.32965627,3
575600639,0.71416736,-0.039667375,-0.046742514,0.6972852,-0.9441011,-2.5442032e-10,-8.8480634e-10,-0.32965627,3
575625621,0.714535,-0.03906517,-0.0457949,0.6970054,-0.9441011,-2.5442032e-10,-8.8480634e-10,-0.32965627,3
575645606,0.714878,-0.037878007,-0.044970382,0.6967728,-0.9441011,-2.5442032e-10,-8.8480634e-10,-0.32965627,3
575660596,0.7149435,-0.037238833,-0.044827346,0.6967493,-0.9441011,-2.5442032e-10,-8.8480634e-10,-0.32965627,3
575680581,0.71527094,-0.03643951,-0.045359794,0.696421,-0.9441011,-2.5442032e-10,-8.8480634e-10,-0.32965627,3
575705563,0.71518916,-0.035649925,-0.045119848,0.69656146,-0.9441011,-2.5442032e-10,-8.8480634e-10,-0.32965627,3
575725550,0.7156862,-0.035493206,-0.04391126,0.696136,-0.9441011,-2.5442032e-10,-8.8480634e-10,-0.32965627,3
575740537,0.71575147,-0.035221193,-0.043146495,0.6961306,-0.9441011,-2.5442032e-10,-8.8480634e-10,-0.32965627,3
575765519,0.71595836,-0.032152932,-0.04200481,0.6961362,-0.9441011,-2.5442032e-10,-8.8480634e-10,-0.32965627,3
575785506,0.7161779,-0.028668681,-0.04065107,0.69614285,-0.9441011,-2.5442032e-10,-8.8480634e-10,-0.32965627,3
575800494,0.7162479,-0.02767425,-0.039588172,0.69617224,-0.9441011,-2.5442032e-10,-8.8480634e-10,-0.32965627,3
575820479,0.71634907,-0.026558798,-0.039336894,0.696126,-0.9441011,-2.5442032e-10,-8.8480634e-10,-0.32965627,3
575845461,0.7165591,-0.023775449,-0.037066855,0.696135,-0.9441011,-2.5442032e-10,-8.8480634e-10,-0.32965627,3
575865447,0.7169341,-0.021567183,-0.034595914,0.69594795,-0.9441011,-2.5442032e-10,-8.8480634e-10,-0.32965627,3
575880437,0.71696866,-0.018428247,-0.033238288,0.69606876,-0.9441011,-2.5442032e-10,-8.8480634e-10,-0.32965627,3
575905418,0.71717715,-0.016205264,-0.030888904,0.6960174,-0.9441011,-2.5442032e-10,-8.8480634e-10,-0.32965627,3
575925404,0.71710944,-0.0144873755,-0.030027077,0.69616276,-0.9441011,-2.5442032e-10,-8.8480634e-10,-0.32965627,3
575940392,0.7170909,-0.013471648,-0.028023232,0.69628584,-0.9441011,-2.5442032e-10,-8.8480634e-10,-0.32965627,3
575960378,0.7172957,-0.0106966775,-0.024917444,0.696241,-0.9441011,-2.5442032e-10,-8.8480634e-10,-0.32965627,3
575985359,0.71715826,-0.007400867,-0.021598287,0.6965363,-0.9441011,-2.5442032e-10,-8.8480634e-10,-0.32965627,3
576005345,0.7170119,-0.0063610882,-0.021019211,0.6967149,-0.9441011,-2.5442032e-10,-8.8480634e-10,-0.32965627,3
576020334,0.71674937,-0.0050609997,-0.020502843,0.6970111,-0.9441011,-2.5442032e-10,-8.8480634e-10,-0.32965627,3
576045316,0.71664375,-0.0026867394,-0.017237647,0.6972212,-0.9441011,-2.5442032e-10,-8.8480634e-10,-0.32965627,3
576065301,0.7165052,-0.00074096874,-0.014859498,0.6974231,-0.9441011,-2.5442032e-10,-8.8480634e-10,-0.32965627,3
576080291,0.71619135,0.0010658076,-0.01340396,0.69777447,-0.9441011,-2.5442032e-10,-8.8480634e-10,-0.32965627,3
576105272,0.71609735,0.0032777244,-0.010934144,0.69790715,-0.9441011,-2.5442032e-10,-8.8480634e-10,-0.32965627,3
576125258,0.7157554,0.004009493,-0.009143086,0.69827974,-0.9441011,-2.5442032e-10,-8.8480634e-10,-0.32965627,3
576145244,0.71573454,0.005089129,-0.007453941,0.6983142,-0.9441011,-2.5442032e-10,-8.8480634e-10,-0.32965627,3
576160233,0.7155333,0.006398535,-0.0059587914,0.6985239,-0.9441011,-2.5442032e-10,-8.8480634e-10,-0.32965627,3
576185218,0.71531284,0.009146969,-0.0030864205,0.6987377,-0.9441011,-2.5442032e-10,-8.8480634e-10,-0.32965627,3
576205200,0.71524733,0.01074578,-0.0010594105,0.69878805,-0.9441011,-2.5442032e-10,-8.8480634e-10,-0.32965627,3
576220189,0.7149903,0.011262271,0.00031356167,0.6990436,-0.9441011,-2.5442032e-10,-8.8480634e-10,-0.32965627,3
576245171,0.7149711,0.011835778,0.001980041,0.6990511,-0.9441011,-2.5442032e-10,-8.8480634e-10,-0.32965627,3
576265160,0.71486014,0.013205848,0.0038004846,0.6991325,-0.9441011,-2.5442032e-10,-8.8480634e-10,-0.32965627,3
576285142,0.71456134,0.015420367,0.0061572716,0.69937575,-0.9441011,-2.5442032e-10,-8.8480634e-10,-0.32965627,3
576300131,0.7145865,0.01686346,0.007962889,0.6992985,-0.9441011,-2.5442032e-10,-8.8480634e-10,-0.32965627,3
576325112,0.714509,0.017369375,0.010377349,0.6993336,-0.9441011,-2.5442032e-10,-8.8480634e-10,-0.32965627,3
576345098,0.7145426,0.017877009,0.0114399595,0.6992699,-0.9441011,-2.5442032e-10,-8.8480634e-10,-0.32965627,3
576360087,0.7145791,0.019384893,0.012782276,0.6991692,-0.9441011,-2.5442032e-10,-8.8480634e-10,-0.32965627,3
576385069,0.7144043,0.021623705,0.016725138,0.6991991,-0.9441011,-2.5442032e-10,-8.8480634e-10,-0.32965627,3
576405055,0.71426505,0.022195967,0.018821046,0.69927007,-0.9441011,-2.5442032e-10,-8.8480634e-10,-0.32965627,3
576425040,0.71435773,0.022636522,0.019388942,0.6991457,-0.9441011,-2.5442032e-10,-8.8480634e-10,-0.32965627,3
576440029,0.7141178,0.021871248,0.020011121,0.6993977,-0.9441011,-2.5442032e-10,-8.8480634e-10,-0.32965627,3
576465011,0.7140418,0.023084,0.021658512,0.69938713,-0.9441011,-2.5442032e-10,-8.8480634e-10,-0.32965627,3
576484997,0.7139889,0.02407521,0.02357123,0.69934595,-0.9441011,-2.5442032e-10,-8.8480634e-10,-0.32965627,3
576499987,0.7137391,0.023961889,0.024000395,0.6995902,-0.9441011,-2.5442032e-10,-8.8480634e-10,-0.32965627,3
576524968,0.71384966,0.024135998,0.024356466,0.69945896,-0.9441011,-2.5442032e-10,-8.8480634e-10,-0.32965627,3
576544953,0.7137142,0.023347126,0.024723476,0.6996112,-0.9441011,-2.5442032e-10,-8.8480634e-10,-0.32965627,3
576559943,0.7137563,0.023095965,0.024572514,0.6995819,-0.9441011,-2.5442032e-10,-8.8480634e-10,-0.32965627,3
576579928,0.7138264,0.022942673,0.025941381,0.69946593,-0.9441011,-2.5442032e-10,-8.8480634e-10,-0.32965627,3
576604910,0.7138045,0.02406562,0.02792059,0.6993744,-0.9441011,-2.5442032e-10,-8.8480634e-10,-0.32965627,3
576624896,0.71390384,0.024515418,0.028865065,0.6992189,-0.9441011,-2.5442032e-10,-8.8480634e-10,-0.32965627,3
576639885,0.7139174,0.023722127,0.02888792,0.69923156,-0.9441011,-2.5442032e-10,-8.8480634e-10,-0.32965627,3
576664866,0.7135479,0.023064442,0.029235644,0.69961613,-0.9441011,-2.5442032e-10,-8.8480634e-10,-0.32965627,3
576684851,0.7137467,0.02180517,0.030753084,0.6993886,-0.9441011,-2.5442032e-10,-8.8480634e-10,-0.32965627,3
576704837,0.7133621,0.021394752,0.031770125,0.6997481,-0.9441011,-2.5442032e-10,-8.8480634e-10,-0.32965627,3
576719826,0.71334285,0.020996876,0.032310955,0.69975513,-0.9441011,-2.5442032e-10,-8.8480634e-10,-0.32965627,3
576744809,0.7133117,0.019448731,0.032551836,0.6998204,-0.9441011,-2.5442032e-10,-8.8480634e-10,-0.32965627,3
576764794,0.7132151,0.01770803,0.032511562,0.6999669,-0.9441011,-2.5442032e-10,-8.8480634e-10,-0.32965627,3
576779783,0.71316737,0.016621025,0.032868538,0.7000256,-0.9441011,-2.5442032e-10,-8.8480634e-10,-0.32965627,3
576804766,0.71318674,0.01520384,0.034352206,0.6999668,-0.9441011,-2.5442032e-10,-8.8480634e-10,-0.32965627,3
576824750,0.71288705,0.013967916,0.0353214,0.70024955,-0.9441011,-2.5442032e-10,-8.8480634e-10,-0.32965627,3
576839739,0.7128037,0.012595467,0.03544059,0.70035434,-0.9441011,-2.5442032e-10,-8.8480634e-10,-0.32965627,3
576859725,0.71276224,0.010303811,0.034886952,0.70046186,-0.9441011,-2.5442032e-10,-8.8480634e-10,-0.32965627,3
576884707,0.7124178,0.008021545,0.03477138,0.7008478,-0.9441011,-2.5442032e-10,-8.8480634e-10,-0.32965627,3
576904694,0.71255696,0.0070687067,0.035378978,0.7006861,-0.9441011,-2.5442032e-10,-8.8480634e-10,-0.32965627,3
576919681,0.7124758,0.006303738,0.035715304,0.7007589,-0.9441011,-2.5442032e-10,-8.8480634e-10,-0.32965627,3
576944663,0.7124251,0.0036599361,0.035041165,0.70086324,-0.9441011,-2.5442032e-10,-8.8480634e-10,-0.32965627,3
576964649,0.7124572,0.0011974854,0.03333238,0.70092255,-0.9441011,-2.5442032e-10,-8.8480634e-10,-0.32965627,3
576979637,0.7124084,-0.0006273637,0.0322446,0.70102364,-0.9441011,-2.5442032e-10,-8.8480634e-10,-0.32965627,3
576999628,0.7122489,-0.0027337302,0.031626597,0.70120883,-0.9441011,-2.5442032e-10,-8.8480634e-10,-0.32965627,3
577024605,0.712576,-0.0042508035,0.03161743,0.70086926,-0.9441011,-2.5442032e-10,-8.8480634e-10,-0.32965627,3
577044590,0.712503,-0.004943843,0.031458322,0.7009461,-0.9441011,-2.5442032e-10,-8.8480634e-10,-0.32965627,3
577059579,0.712513,-0.005490668,0.03125788,0.70094085,-0.9441011,-2.5442032e-10,-8.8480634e-10,-0.32965627,3
577084561,0.71235305,-0.008317695,0.03154222,0.7010628,-0.9441011,-2.5442032e-10,-8.8480634e-10,-0.32965627,3
577104547,0.71208775,-0.010152391,0.030532416,0.7013528,-0.9441011,-2.5442032e-10,-8.8480634e-10,-0.32965627,3
577119536,0.7117192,-0.010990734,0.030114535,0.7017322,-0.9441011,-2.5442032e-10,-8.8480634e-10,-0.32965627,3
577144517,0.711614,-0.013123182,0.030013165,0.7018066,-0.9441011,-2.5442032e-10,-8.8480634e-10,-0.32965627,3
577164503,0.7110519,-0.014676198,0.028048886,0.7024266,-0.9441011,-2.5442032e-10,-8.8480634e-10,-0.32965627,3
577184489,0.7107876,-0.016109068,0.026052197,0.7027395,-0.9441011,-2.5442032e-10,-8.8480634e-10,-0.32965627,3
577199478,0.71053916,-0.017454235,0.02447939,0.7030151,-0.9441011,-2.5442032e-10,-8.8480634e-10,-0.32965627,3
577224461,0.7099341,-0.02022659,0.02161248,0.7036458,-0.9441011,-2.5442032e-10,-8.8480634e-10,-0.32965627,3
577244445,0.7097201,-0.021672046,0.019829059,0.7038712,-0.9441011,-2.5442032e-10,-8.8480634e-10,-0.32965627,3
577259436,0.70935893,-0.022786384,0.018562675,0.70423454,-0.9441011,-2.5442032e-10,-8.8480634e-10,-0.32965627,3
577284416,0.70887846,-0.025510075,0.017004527,0.7046642,-0.9441011,-2.5442032e-10,-8.8480634e-10,-0.32965627,3
577304401,0.70867985,-0.027776126,0.015137737,0.7048207,-0.9441011,-2.5442032e-10,-8.8480634e-10,-0.32965627,3
577324386,0.7081063,-0.030281546,0.011904263,0.7053558,-0.9441011,-2.5442032e-10,-8.8480634e-10,-0.32965627,3
577339378,0.70790946,-0.032087527,0.009407522,0.7055112,-0.9441011,-2.5442032e-10,-8.8480634e-10,-0.32965627,3
577364358,0.7073965,-0.03407359,0.0060093175,0.70596963,-0.9441011,-2.5442032e-10,-8.8480634e-10,-0.32965627,3
577384343,0.7070952,-0.035379443,0.0035497085,0.70622385,-0.9441011,-2.5442032e-10,-8.8480634e-10,-0.32965627,3
577399336,0.70699376,-0.036579568,0.0015408034,0.7062715,-0.9441011,-2.5442032e-10,-8.8480634e-10,-0.32965627,3
577424314,0.7064285,-0.038542572,-0.0021238462,0.706731,-0.9441011,-2.5442032e-10,-8.8480634e-10,-0.32965627,3
577444300,0.7064881,-0.040269606,-0.0052118916,0.70655924,-0.9441011,-2.5442032e-10,-8.8480634e-10,-0.32965627,3
577464285,0.70608294,-0.041591525,-0.007881004,0.70686275,-0.9441011,-2.5442032e-10,-8.8480634e-10,-0.32965627,3
577484271,0.7062647,-0.042510957,-0.010307294,0.7065953,-0.9441011,-2.5442032e-10,-8.8480634e-10,-0.32965627,3
577504258,0.7061074,-0.043323014,-0.012795777,0.7066625,-0.9441011,-2.5442032e-10,-8.8480634e-10,-0.32965627,3
577524241,0.7060756,-0.043823097,-0.0152616445,0.7066144,-0.9441011,-2.5442032e-10,-8.8480634e-10,-0.32965627,3
577539231,0.7062555,-0.044361457,-0.017295841,0.70635414,-0.9441011,-2.5442032e-10,-8.8480634e-10,-0.32965627,3
577564213,0.706165,-0.04505738,-0.020423096,0.70631707,-0.9441011,-2.5442032e-10,-8.8480634e-10,-0.32965627,3
577584198,0.7064,-0.04468987,-0.022136254,0.7060538,-0.9441011,-2.5442032e-10,-8.8480634e-10,-0.32965627,3
577604188,0.7067069,-0.044126328,-0.023581961,0.70573527,-0.9441011,-2.5442032e-10,-8.8480634e-10,-0.32965627,3
577619177,0.7068219,-0.04354573,-0.024658583,0.70561934,-0.9441011,-2.5442032e-10,-8.8480634e-10,-0.32965627,3
577644155,0.70718217,-0.04084972,-0.025723599,0.7053815,-0.9441011,-2.5442032e-10,-8.8480634e-10,-0.32965627,3
577664140,0.7075103,-0.0395364,-0.026631208,0.70509356,-0.9441011,-2.5442032e-10,-8.8480634e-10,-0.32965627,3
577679129,0.7075506,-0.03933394,-0.027231248,0.70504147,-0.9441011,-2.5442032e-10,-8.8480634e-10,-0.32965627,3
577704112,0.7082519,-0.037503235,-0.027847394,0.70441276,-0.9441011,-2.5442032e-10,-8.8480634e-10,-0.32965627,3
577724097,0.7082344,-0.03528373,-0.028240241,0.70452935,-0.9441011,-2.5442032e-10,-8.8480634e-10,-0.32965627,3
577744083,0.70887125,-0.032812353,-0.027432464,0.70404005,-0.9441011,-2.5442032e-10,-8.8480634e-10,-0.32965627,3
577759072,0.7090274,-0.03194419,-0.028119855,0.7038956,-0.9441011,-2.5442032e-10,-8.8480634e-10,-0.32965627,3
577784053,0.70920086,-0.02990808,-0.028079055,0.703812,-0.9441011,-2.5442032e-10,-8.8480634e-10,-0.32965627,3
577804041,0.7095919,-0.028898818,-0.028985433,0.70342314,-0.9441011,-2.5442032e-10,-8.8480634e-10,-0.32965627,3
577824024,0.7094348,-0.02685391,-0.029098758,0.70365787,-0.9441011,-2.5442032e-10,-8.8480634e-10,-0.32965627,3
577844011,0.7098373,-0.02536565,-0.02807311,0.7033488,-0.9441011,-2.5442032e-10,-8.8480634e-10,-0.32965627,3
577863995,0.7096998,-0.023115078,-0.028280724,0.7035568,-0.9441011,-2.5442032e-10,-8.8480634e-10,-0.32965627,3
577883980,0.7097162,-0.021182716,-0.027490623,0.70363235,-0.9441011,-2.5442032e-10,-8.8480634e-10,-0.32965627,3
577903966,0.7097978,-0.01983771,-0.028103832,0.70356506,-0.9441011,-2.5442032e-10,-8.8480634e-10,-0.32965627,3
577923952,0.70958465,-0.016939228,-0.028713115,0.7038312,-0.9441011,-2.5442032e-10,-8.8480634e-10,-0.32965627,3
577943936,0.70956033,-0.014260602,-0.027980786,0.7039445,-0.9441011,-2.5442032e-10,-8.8480634e-10,-0.32965627,3
577958927,0.7095984,-0.012952277,-0.02712157,0.703965,-0.9441011,-2.5442032e-10,-8.8480634e-10,-0.32965627,3
577983908,0.70928717,-0.010447727,-0.026395397,0.70434785,-0.9441011,-2.5442032e-10,-8.8480634e-10,-0.32965627,3
578003893,0.7093122,-0.007808508,-0.026665686,0.70434666,-0.9441011,-2.5442032e-10,-8.8480634e-10,-0.32965627,3
578023879,0.70909303,-0.004831429,-0.02678783,0.70458937,-0.9441011,-2.5442032e-10,-8.8480634e-10,-0.32965627,3
578043864,0.70895326,-0.0015935077,-0.026224125,0.704766,-0.9441011,-2.5442032e-10,-8.8480634e-10,-0.32965627,3
578063850,0.7089829,0.0014603671,-0.024953011,0.7047826,-0.9441011,-2.5442032e-10,-8.8480634e-10,-0.32965627,3
578083837,0.70864755,0.0038251171,-0.023542643,0.7051594,-0.9441011,-2.5442032e-10,-8.8480634e-10,-0.32965627,3
578103822,0.708802,0.00556251,-0.022273779,0.7050339,-0.9441011,-2.5442032e-10,-8.8480634e-10,-0.32965627,3
578123806,0.70847106,0.007076007,-0.021159178,0.7053871,-0.9441011,-2.5442032e-10,-8.8480634e-10,-0.32965627,3
578143792,0.70857376,0.008700138,-0.019756222,0.70530653,-0.9441011,-2.5442032e-10,-8.8480634e-10,-0.32965627,3
578163778,0.7084026,0.01028751,-0.01816054,0.7055,-0.9441011,-2.5442032e-10,-8.8480634e-10,-0.32965627,3
578183763,0.70832545,0.011633138,-0.016485618,0.70559764,-0.9441011,-2.5442032e-10,-8.8480634e-10,-0.32965627,3
578203748,0.70831156,0.012641276,-0.014926269,0.705629,-0.9441011,-2.5442032e-10,-8.8480634e-10,-0.32965627,3
578223734,0.7081029,0.013861154,-0.01257424,0.7058613,-0.9441011,-2.5442032e-10,-8.8480634e-10,-0.32965627,3
578243719,0.70826375,0.014968668,-0.009998817,0.70571846,-0.9441011,-2.5442032e-10,-8.8480634e-10,-0.32965627,3
578263705,0.70832354,0.015763385,-0.007849787,0.7056683,-0.9441011,-2.5442032e-10,-8.8480634e-10,-0.32965627,3
578283690,0.7083764,0.016355772,-0.0066854777,0.7056137,-0.9441011,-2.5442032e-10,-8.8480634e-10,-0.32965627,3
578303676,0.7084812,0.017244466,-0.0060699284,0.705493,-0.9441011,-2.5442032e-10,-8.8480634e-10,-0.32965627,3
578323661,0.70839274,0.018802494,-0.0049634716,0.7055507,-0.9441011,-2.5442032e-10,-8.8480634e-10,-0.32965627,3
578343647,0.70839983,0.0191957,-0.0036644852,0.70554084,-0.9441011,-2.5442032e-10,-8.8480634e-10,-0.32965627,3
578363632,0.7087522,0.01901193,-0.0024634812,0.705197,-0.9441011,-2.5442032e-10,-8.8480634e-10,-0.32965627,3
578383618,0.70851564,0.01945088,-0.0009330998,0.70542645,-0.9441011,-2.5442032e-10,-8.8480634e-10,-0.32965627,3
578403603,0.7089215,0.019760605,0.0017025947,0.70500845,-0.9441011,-2.5442032e-10,-8.8480634e-10,-0.32965627,3
578423590,0.70920837,0.021114716,0.0023453347,0.7046788,-0.9441011,-2.5442032e-10,-8.8480634e-10,-0.32965627,3
578443576,0.7094814,0.021856863,0.0037509655,0.7043752,-0.9441011,-2.5442032e-10,-8.8480634e-10,-0.32965627,3
578463560,0.7098325,0.021955121,0.003914572,0.7040174,-0.9441011,-2.5442032e-10,-8.8480634e-10,-0.32965627,3
578483547,0.7098261,0.021761833,0.005700569,0.7040177,-0.9441011,-2.5442032e-10,-8.8480634e-10,-0.32965627,3
578503532,0.7103013,0.022798855,0.008212416,0.7034806,-0.9441011,-2.5442032e-10,-8.8480634e-10,-0.32965627,3
578523519,0.7100704,0.024051668,0.010100278,0.70364743,-0.9441011,-2.5442032e-10,-8.8480634e-10,-0.32965627,3
578543501,0.7101411,0.02512347,0.012066053,0.70350754,-0.9441011,-2.5442032e-10,-8.8480634e-10,-0.32965627,3
578563487,0.71014804,0.025381893,0.012177108,0.70348936,-0.9441011,-2.5442032e-10,-8.8480634e-10,-0.32965627,3
578583472,0.7097794,0.026295515,0.013349548,0.7038066,-0.9441011,-2.5442032e-10,-8.8480634e-10,-0.32965627,3
578603458,0.709784,0.027392633,0.0151458215,0.7037237,-0.9441011,-2.5442032e-10,-8.8480634e-10,-0.32965627,3
578623443,0.7095647,0.02732829,0.01593642,0.70392984,-0.9441011,-2.5442032e-10,-8.8480634e-10,-0.32965627,3
578643429,0.7093031,0.027090287,0.016460113,0.7041906,-0.9441011,-2.5442032e-10,-8.8480634e-10,-0.32965627,3
578663414,0.7091902,0.026224408,0.018148148,0.7042956,-0.9441011,-2.5442032e-10,-8.8480634e-10,-0.32965627,3
578683400,0.70904577,0.026480667,0.020306947,0.7043725,-0.9441011,-2.5442032e-10,-8.8480634e-10,-0.32965627,3
578703385,0.7085807,0.027686872,0.02305172,0.70470953,-0.9441011,-2.5442032e-10,-8.8480634e-10,-0.32965627,3
578723371,0.7084429,0.028447654,0.025280155,0.70474136,-0.9441011,-2.5442032e-10,-8.8480634e-10,-0.32965627,3
578743356,0.7080472,0.028374892,0.026438776,0.70509934,-0.9441011,-2.5442032e-10,-8.8480634e-10,-0.32965627,3
578763343,0.7079394,0.027485428,0.026787136,0.70522964,-0.9441011,-2.5442032e-10,-8.8480634e-10,-0.32965627,3
578783328,0.7076796,0.02734489,0.02742534,0.7054713,-0.9441011,-2.5442032e-10,-8.8480634e-10,-0.32965627,3
578803313,0.70732343,0.027332045,0.028522432,0.7057854,-0.9441011,-2.5442032e-10,-8.8480634e-10,-0.32965627,3
578823298,0.7073609,0.026592746,0.029462777,0.7057375,-0.9441011,-2.5442032e-10,-8.8480634e-10,-0.32965627,3
578843284,0.70710826,0.025406284,0.02929226,0.70604146,-0.9441011,-2.5442032e-10,-8.8480634e-10,-0.32965627,3
578863269,0.70684266,0.023872001,0.027965339,0.7064146,-0.9441011,-2.5442032e-10,-8.8480634e-10,-0.32965627,3
578883256,0.7067476,0.022845296,0.026755488,0.7065905,-0.9441011,-2.5442032e-10,-8.8480634e-10,-0.32965627,3
578903241,0.70675355,0.02169002,0.026207106,0.7066415,-0.9441011,-2.5442032e-10,-8.8480634e-10,-0.32965627,3
578923226,0.7065027,0.019585598,0.026404878,0.7069464,-0.9441011,-2.5442032e-10,-8.8480634e-10,-0.32965627,3
578943212,0.70686686,0.016920527,0.026529126,0.7066465,-0.9441011,-2.5442032e-10,-8.8480634e-10,-0.32965627,3
578963197,0.706779,0.014716237,0.025619736,0.7068172,-0.9441011,-2.5442032e-10,-8.8480634e-10,-0.32965627,3
578983184,0.7068663,0.012667024,0.023143819,0.706855,-0.9441011,-2.5442032e-10,-8.8480634e-10,-0.32965627,3
579003167,0.70702326,0.009679956,0.021308465,0.7068029,-0.9441011,-2.5442032e-10,-8.8480634e-10,-0.32965627,3
579023155,0.70705634,0.0062163696,0.020681074,0.7068274,-0.9441011,-2.5442032e-10,-8.8480634e-10,-0.32965627,3
579043140,0.70721805,0.0043747826,0.019855455,0.7067031,-0.9441011,-2.5442032e-10,-8.8480634e-10,-0.32965627,3
579063130,0.707382,0.001993381,0.019385234,0.7065627,-0.9441011,-2.5442032e-10,-8.8480634e-10,-0.32965627,3
579083111,0.7074123,-0.0005755813,0.018308708,0.7065637,-0.9441011,-2.5442032e-10,-8.8480634e-10,-0.32965627,3
579103097,0.70747346,-0.00279109,0.016317489,0.70654607,-0.9441011,-2.5442032e-10,-8.8480634e-10,-0.32965627,3
