timestamp,gyro_rad[0],gyro_rad[1],gyro_rad[2],gyro_integral_dt,accelerometer_timestamp_relative,accelerometer_m_s2[0],accelerometer_m_s2[1],accelerometer_m_s2[2],accelerometer_integral_dt,accelerometer_clipping
49670076,-0.006865495,-0.0013050438,-0.010946417,4993,0,0.046907384,-0.013795242,-9.817733,4993,0
49675074,-0.010056051,-0.0012426142,-0.010126555,4998,0,0.035015915,-0.039742377,-9.818581,4998,0
49690063,-0.0070064645,-0.0036922737,-0.00017487042,4997,0,0.060967382,-0.015449066,-9.784883,4997,0
49710052,-0.015238323,0.0058986186,-0.03101493,4997,0,-0.066141084,0.022493863,-9.745642,4997,0
49730040,-0.019420572,-0.0051917857,-0.009316906,4998,0,0.11053419,-0.19294336,-9.853245,4998,0
49750029,-0.020502778,-0.0025103434,0.0030808242,4999,0,0.16015254,-0.0120057585,-9.915795,4999,0
49770014,-0.015763663,-0.0039005093,-0.038082115,4996,0,0.13764647,-0.06756873,-10.050883,4996,0
49790003,-0.0071348012,0.0019133342,0.025648711,4998,0,-0.12787978,0.23569109,-9.904561,4998,0
49809991,-0.013884932,-0.0073506534,-0.03463619,4998,0,0.20287007,0.09673991,-9.847013,4998,0
49829978,-0.00024315137,0.004883306,-0.0065982183,4997,0,-0.05288392,-0.11605874,-9.739575,4997,0
49849966,0.0011948713,0.0006250009,-0.0011822922,4997,0,0.09967533,-0.07760634,-9.848421,4997,0
49869954,0.008998787,0.0017053308,-0.021738546,4997,0,-0.06700725,0.12319605,-9.838243,4997,0
49889943,0.0010753488,0.0026100436,-0.0051409127,4999,0,-0.056941845,0.06441559,-9.745853,4999,0
49909931,0.003793717,-0.00047235595,-0.015991157,4999,0,0.13089386,-0.0058162827,-9.777555,4999,0
49929918,-0.0020073983,0.00086337776,-0.012041799,4998,0,0.07707348,0.012035398,-9.862605,4998,0
49949906,-0.01161205,-0.007113981,-0.0054632328,4998,0,0.017182298,-0.10872049,-9.758133,4998,0
49969896,-0.015260603,-0.0014842779,-0.022622319,5000,0,0.1492241,-0.04288436,-9.713066,5000,0
49989881,-0.021529697,-0.006920034,0.005626658,4993,0,0.035607982,-0.21764177,-9.767654,4993,0
50009871,-0.01116147,-0.00016627602,-0.032915544,4998,0,0.11175915,-0.109042354,-9.835852,4998,0
50034853,-0.0070398105,-0.0016534867,-0.016917517,4991,0,0.03787831,-0.11574823,-9.793678,4991,0
50049847,-0.011710623,-0.0007607622,-0.0077728843,4999,0,0.032295555,-0.004695466,-9.93015,4999,0
50069833,-0.012991257,0.0005504956,-0.03816923,4998,0,0.040652182,-0.07053735,-9.845259,4998,0
50094818,-0.0054710624,-0.0061250036,-0.014592431,4997,0,-0.088402495,-0.06110382,-9.800954,4997,0
50109810,-0.009893332,-0.0019867765,-0.026433213,5000,0,0.042530462,-0.03364494,-9.7668915,5000,0
50129798,-0.005575392,-0.0070829783,-0.015975265,4998,0,-0.0005756712,-0.25289333,-9.910382,4998,0
50149784,-0.000990081,-0.0050858455,-0.016369404,4997,0,-0.0436164,-0.24076495,-9.870321,4997,0
50174770,-0.021187827,-0.007841367,-0.014339882,4999,0,-0.069822505,0.08952678,-9.8514185,4999,0
50189759,-0.02812886,-0.0049009495,-0.0223624,4996,0,0.014370836,-0.017066378,-9.91963,4996,0
50209747,0.009521669,-0.018456083,-0.015280853,4997,0,-0.16377017,0.09197143,-9.774263,4997,0
50234731,-0.026163176,-0.026989672,0.0021888998,4996,0,0.8230236,0.52571785,-9.998503,4996,0
50249722,-0.009674937,-0.02027054,0.01693676,4997,0,1.562177,-0.21952882,-9.924761,4997,0
50269712,-0.04527938,0.012833719,-0.013611557,4999,0,-0.25847787,-1.6606603,-9.531265,4999,0
50289699,-0.008896033,-0.01468342,-0.0094689,4998,0,2.027459,0.47880816,-9.955744,4998,0
50314684,-0.04055352,-0.008013468,-0.024218427,4998,0,0.025460267,-0.18518612,-9.905678,4998,0
50329677,-0.014013978,0.020909306,-0.04708316,4999,0,0.50289774,1.2944074,-9.901022,4999,0
50349662,0.047401022,0.01101864,0.0005210595,4997,0,0.2612188,1.0333843,-9.774809,4997,0
50374647,0.03843719,0.017061703,0.03667325,4992,0,0.45680025,2.9552457,-9.95852,4992,0
50389642,-0.03296089,-0.017617086,-0.04948304,5002,0,0.73567796,1.7982363,-10.425406,5002,0
50409626,-0.018167619,-0.035422206,0.0038551157,4999,0,0.13471286,-2.6767864,-9.730962,4999,0
50434610,-6.0699847e-05,-0.04281132,0.12411027,4997,0,1.5095671,0.12190465,-9.878094,4997,0
50449601,0.057782255,0.021975761,-0.05429637,4998,0,1.3698951,0.88279474,-9.9442005,4998,0
50469588,0.008656252,0.0134235,0.046783533,4997,0,-1.7372802,-0.51457626,-9.484505,4997,0
50489576,-0.021648386,0.0024660984,-0.03489435,4997,0,0.36889303,2.5398686,-10.143855,4997,0
50514561,-0.058348574,0.015641568,-0.20805648,4997,0,-1.444766,-0.13888308,-9.966519,4997,0
50529553,-0.04458661,-0.019079486,0.08631239,4998,0,-0.33093786,-1.0895578,-9.521036,4998,0
50549541,0.019106831,0.019969534,-0.100490764,4998,0,1.5433079,1.251779,-9.919854,4998,0
50569528,0.018753884,-0.0028771022,0.046555616,4997,0,-0.55071735,-2.4240305,-9.495949,4997,0
50589517,-0.02321054,0.013036523,0.008894378,4997,0,0.2624227,2.727531,-9.561856,4997,0
50609506,0.012977584,0.015618484,-0.11428522,5000,0,-0.28457054,-0.19341636,-10.035699,5000,0
50629491,-0.08007002,-0.026978714,0.11965012,4997,0,-1.0232987,-0.98967934,-9.969239,4997,0
50654476,-0.029721906,-0.022775184,-0.02054885,4995,0,-0.88468546,-2.3751173,-10.340347,4995,0
50669468,0.013529054,-0.007923107,0.038948953,4997,0,-0.6544206,-3.726942,-9.337791,4997,0
50689454,0.0056466274,0.020311289,0.034640055,4996,0,1.3077027,2.264111,-9.680284,4996,0
50709442,0.06328212,0.03990915,-0.120196536,4997,0,-0.5766789,0.46834776,-10.155181,4997,0
50729432,-0.056770205,-0.014899706,0.1563882,4997,0,-0.95795333,-0.3595177,-9.811945,4997,0
50749419,-0.0494185,-0.005343333,-0.18805708,4996,0,0.7510569,2.7020092,-10.216004,4996,0
50769407,-0.033367883,-0.02920199,0.08171224,4995,0,-0.45655006,-4.606658,-9.726051,4995,0
50794393,0.030317701,-0.043997668,0.20268531,5000,0,0.92665887,-0.61462235,-9.91931,5000,0
50809381,0.07703186,0.022697784,-0.11249709,4996,0,0.16153122,-0.9088523,-9.64857,4996,0
50829370,-0.022114282,-0.0068953694,0.19007999,4998,0,-1.1165755,0.37029108,-9.710951,4998,0
50849358,-0.011644633,0.021913854,-0.23793463,4998,0,1.2229509,3.5476372,-10.048155,4998,0
50869346,-0.03273835,-0.03622286,0.13611358,4997,0,-1.6268795,-3.682142,-9.836129,4997,0
50889332,-0.06995617,-0.009322368,-0.11725331,4996,0,1.9989094,1.413083,-9.909821,4996,0
50909320,0.07370686,0.01338772,-0.017845234,4997,0,-0.19601439,-2.090088,-9.709163,4997,0
50934305,0.03228616,-0.035608307,0.30721897,4995,0,1.3226905,1.708676,-9.997286,4995,0
50949297,0.025187105,0.02990141,-0.21820246,4996,0,0.88326615,3.5829628,-9.958114,4996,0
50969284,0.0011433996,-0.012813766,0.20660909,4996,0,-1.7277087,-2.4952703,-9.842049,4996,0
50989272,-0.0727023,0.0052000885,-0.21621275,4997,0,1.3767917,3.3039877,-10.38176,4997,0
51009259,0.0088788895,-0.015934926,0.09912516,4997,0,-1.2636757,-3.1211069,-9.537855,4997,0
51029248,-0.032595757,0.0035996803,0.008781976,4998,0,1.4344392,0.5641403,-9.44607,4998,0
51049236,0.04879924,0.018040925,-0.11154094,4995,0,-0.19635479,0.38755843,-10.123277,4995,0
51074220,0.041150533,-0.026121328,0.3127853,4996,0,1.4392633,1.9821887,-10.079414,4996,0
51089211,-0.0371999,0.017869616,-0.26291174,4997,0,0.92851484,3.2628977,-9.89557,4997,0
51109199,-0.038004868,-0.01980333,0.21006496,4997,0,-1.7216841,-2.5211656,-9.6657915,4997,0
51129187,-0.05742599,-0.011046462,-0.16956897,4998,0,1.5764308,1.1539799,-10.101242,4998,0
51149174,0.029109046,-0.0117191365,0.049012203,4997,0,-0.4866004,-2.2817318,-9.658684,4997,0
51169165,0.028728794,0.012030814,0.07171961,4998,0,0.30910677,0.56301075,-9.5786705,4998,0
51189150,0.0152256135,0.011973837,-0.16209902,4997,0,0.5433657,1.2449241,-10.099555,4997,0
51214136,0.05294608,0.0032410347,0.2657554,4998,0,0.9448725,2.108095,-9.753948,4998,0
51229127,-0.029697796,-0.019073661,-0.2628416,4999,0,1.1443666,0.9189206,-10.304775,4999,0
51249114,-0.052755184,-0.033862524,0.1737681,4996,0,-1.2202532,-2.2436888,-9.643001,4996,0
51274098,-0.03432504,-0.052971154,0.130032,4996,0,0.37386802,-2.4202998,-9.871956,4996,0
51289091,-0.001852386,0.026189303,-0.025712682,4999,0,-0.7975402,-2.408183,-9.59163,4999,0
51309082,0.02261284,0.014074427,0.1356217,5003,0,0.45608076,2.9806464,-9.712267,5003,0
51329066,0.017551633,0.026491176,-0.24288417,4998,0,-0.7846792,-0.91476244,-9.880753,4998,0
51354050,0.055846993,0.006830738,0.23665793,4997,0,-0.35889828,2.3823311,-10.303218,4997,0
51369040,-0.005485939,-0.0131153995,-0.2759979,4995,0,1.491247,-0.16803303,-9.967476,4995,0
51389029,-0.044420242,-0.030966645,0.16251597,4998,0,-0.9074323,-2.5569613,-9.444277,4998,0
51414014,0.003962763,-0.030789593,0.17634639,4997,0,-0.09160813,-3.701327,-9.548756,4997,0
51429006,0.019675609,0.026985971,-0.08812701,4998,0,-1.8312923,-2.7482972,-9.570787,4998,0
51448992,-0.019589448,-0.003760358,0.16929115,4997,0,0.91763407,3.1158628,-10.213643,4997,0
51468980,-0.013518448,-0.006579312,-0.3055031,4997,0,-1.3289356,-2.1447816,-10.240584,4997,0
51493967,-0.005157956,-0.048463702,0.236731,4999,0,-0.17977285,1.7570096,-10.486778,4999,0
51508955,0.024181588,-0.009898946,-0.29587215,4997,0,1.5491327,-0.3418865,-9.821114,4997,0
51528944,0.01578874,0.014630343,0.20788631,4996,0,-1.0901471,-0.75328934,-9.381306,4996,0
51553927,0.032932542,0.004806627,0.1598951,4995,0,-0.6491028,-1.8525221,-9.137735,4995,0
51568919,-0.04542859,0.0042397897,-0.098751746,4997,0,-2.5455456,-2.06283,-10.075569,4997,0
51588906,-0.03673602,-0.031751063,0.18972296,4996,0,1.4710706,1.2703643,-10.147165,4996,0
51608894,-0.014214956,-0.013821522,-0.32064795,4996,0,-0.79381484,-2.6167293,-9.756261,4996,0
51633882,0.032300837,-0.050475746,0.29020324,4999,0,0.48897678,-1.2269053,-9.590814,4999,0
51648870,0.007039063,0.03035574,-0.35330704,4997,0,0.28105557,-0.3559193,-9.890585,4997,0
51668859,-0.01376088,-0.011420585,0.24792996,4999,0,-1.3813547,2.287515,-9.957319,4999,0
51693844,-0.03577091,0.01236169,0.1094862,4997,0,-0.88811535,0.5664535,-9.58769,4997,0
51708833,-0.08152261,-0.016517201,-0.039152797,4995,0,-0.96719915,-0.6463077,-9.88047,4995,0
51728823,0.048339024,-0.022090128,0.13247259,4999,0,1.6521599,-0.7296105,-10.052016,4999,0
51748809,-0.039186023,0.039561093,-0.27256325,4997,0,-1.0142182,-1.8227546,-9.380602,4997,0
51773795,0.03898829,0.0043105492,0.3151045,4998,0,-0.9002997,-2.966875,-9.2844925,4998,0
51788786,-0.038153045,0.057117045,-0.40440223,4999,0,-2.0094838,-2.0649288,-9.69737,4999,0
51808774,-0.017722726,-0.07372578,0.36598557,4998,0,0.2721429,2.812407,-10.361488,4998,0
51833760,-0.06687566,-0.0062279277,0.011441159,4998,0,0.6480378,2.1588883,-10.285029,4998,0
51848750,-0.013750432,-0.03276751,0.18445532,4998,0,1.1247923,1.8914692,-9.914815,4998,0
51868737,0.052434288,0.014316777,-0.03800971,4997,0,0.054536484,-1.3517902,-9.4751835,4997,0
51888724,-0.030363724,0.028083598,-0.13920729,4997,0,-0.35955936,1.9816843,-9.914345,4997,0
51908712,-0.00032568508,-0.018974824,0.23653907,4997,0,0.14830309,0.30862468,-10.282839,4997,0
51928702,-0.07875787,0.016168248,-0.406355,5000,0,-1.036834,-1.696982,-9.871719,5000,0
51948689,0.039657924,-0.044978913,0.41579702,4999,0,0.89730704,-0.5272522,-9.693661,4999,0
51973673,-0.008778606,0.00855047,-0.14565438,4998,0,2.0421016,0.07322786,-9.73683,4998,0
51988663,0.085386686,-0.005356482,0.36051714,4997,0,0.03607171,1.6583377,-10.022699,4997,0
52008653,-0.068587534,0.027645523,-0.275895,4997,0,-0.890913,0.07928754,-9.70101,4997,0
52028641,-0.030348405,-0.04303278,0.11441648,4999,0,0.36461604,0.17438121,-10.381888,4999,0
52053623,-0.05363394,-0.045638703,0.33611223,4997,0,0.9884514,1.1916653,-10.14617,4997,0
52068614,0.04354351,0.01934059,-0.16653776,4996,0,0.8627311,2.5488822,-9.68308,4996,0
52088602,0.023751155,-0.020145778,0.28981358,4997,0,-0.29899326,-1.6096838,-9.63656,4997,0
52113590,0.07579846,0.01682496,-0.38063315,4999,0,0.7131529,-0.3451997,-9.607867,4999,0
52128579,-0.027922709,-0.040143695,0.4108539,4998,0,-0.095812276,-3.1244242,-9.953348,4998,0
52148566,-0.10893791,0.038673434,-0.48498842,4997,0,0.9680889,0.11159884,-9.92585,4997,0
52168553,0.1074279,-0.010237649,0.3964266,4995,0,-0.92691505,-1.3216729,-9.310396,4995,0
52193538,0.032941658,0.009919963,0.07906613,4995,0,1.7550515,0.80896735,-9.595069,4995,0
52208530,0.025949797,-0.03169064,0.19627094,4998,0,-0.8548496,1.9064536,-10.6376295,4998,0
52228518,-0.06888452,-0.030776719,-0.08410161,4998,0,0.004872133,-0.7745646,-9.94119,4998,0
52253502,-0.09061559,0.0026805128,-0.47429672,4996,0,-1.6880354,-1.6703358,-10.3141165,4996,0
52268492,0.014201698,0.000592059,0.2304408,4996,0,-0.021745557,-0.32728183,-9.057759,4996,0
52288488,0.05821781,0.044361144,-0.2799709,5005,0,0.6804899,1.5036898,-9.643955,5005,0
52308476,-0.066838846,-0.0348869,0.3095955,5001,0,-1.0124716,0.42099845,-10.046627,5001,0
52333453,-0.033315748,-0.00493741,-0.06396378,4992,0,-0.41074404,-1.5742075,-10.237098,4992,0
52348444,-0.025603535,-0.0068533216,0.12089469,4997,0,-1.1813225,-4.293625,-9.154412,4997,0
52368432,0.025530618,0.02557409,-0.037341397,4997,0,2.0547981,3.047906,-9.498528,4997,0
52393417,-0.012414451,0.05768282,-0.28728393,4997,0,0.086447515,1.3517923,-9.317458,4997,0
52408408,-0.085501224,-0.034561343,0.2093678,4997,0,0.8947349,2.0610256,-10.260917,4997,0
52428396,-0.011075584,-0.0062240204,-0.2601784,4998,0,0.039768003,-2.0574157,-9.726804,4998,0
52453380,-0.015332859,-0.025128493,0.06096762,4996,0,1.3680966,0.8896047,-9.837776,4996,0
52468371,0.045685437,0.0024719425,-0.103187636,4997,0,1.2562836,2.5577235,-10.207031,4997,0
52488360,-0.0849732,-0.016272,-0.028901981,4998,0,-1.4124286,-1.058551,-9.95919,4998,0
52508347,-0.02414487,-0.022578826,0.110857405,4997,0,1.9639143,0.013929609,-9.946756,4997,0
52533331,-0.058683388,0.020755127,-0.21616846,4997,0,1.2948072,0.16311173,-9.525544,4997,0
52553319,0.08656936,0.00017581788,0.10346767,4997,0,-1.1983882,-1.7850491,-9.633886,4997,0
52568311,-0.06531315,-0.0051108026,-0.16809796,4997,0,-0.39048648,-1.4758973,-10.11787,4997,0
52593295,-0.016129564,-0.017122224,-0.06197925,4997,0,0.47909656,-0.32975116,-10.333122,4997,0
52608289,0.09537575,0.00404101,0.020003082,5000,0,0.22039106,-2.7153332,-9.519717,5000,0
52628275,-0.024488641,0.020640645,-0.17148943,4999,0,-0.83824044,1.8710748,-9.882247,4999,0
52653258,0.021166094,-0.013852748,0.12908672,4995,0,-1.5263512,-1.8358545,-9.897363,4995,0
52673246,-0.09522084,-0.025103755,-0.03492437,4991,0,2.7621014,2.8547642,-10.210983,4991,0
52693234,0.0040901215,0.014743613,-0.06467838,4997,0,-1.4569402,-3.6738262,-9.672393,4997,0
52708225,0.041415516,-0.03589175,-0.086371034,4997,0,-0.74502015,-1.6340303,-10.059614,4997,0
52733209,-0.017364588,-0.020036468,-0.16077438,4994,0,-1.2123613,-0.80860806,-10.416254,4994,0
52753197,-0.02493592,-0.0070351204,0.18037215,4994,0,0.9147084,1.0296578,-9.160489,4994,0
52768189,-0.06762104,-0.08512532,-0.08155654,4996,0,-0.24441741,0.9415,-9.191819,4996,0
52788176,-0.22852491,-0.002538744,-0.05269876,4997,0,-0.16317786,-1.5726354,-11.977104,4997,0
52813162,-0.04587724,-0.20033193,-0.09325178,4998,0,0.9762663,0.35886186,-10.06851,4998,0
52833148,-0.22435078,-0.07251638,0.08165845,4995,0,0.6205978,-0.6738355,-9.055173,4995,0
52848140,-0.14870301,-0.05426968,-0.027685322,4996,0,-0.7337367,0.14963508,-10.051178,4996,0
52873124,-0.03062033,-0.03022417,0.11930111,4996,0,-0.3800632,0.60972935,-9.146893,4996,0
52893112,-0.023805065,-0.16628633,-0.008875019,4996,0,0.113847926,1.1431797,-8.909602,4996,0
52908103,-0.06532607,-0.12910599,-0.010170445,4997,0,-0.015450503,-0.13791627,-9.836406,4997,0
52928092,0.066712715,-0.060062155,0.012469574,4998,0,-0.5236722,-0.36789796,-9.864767,4998,0
52953076,0.06990215,-0.10698024,0.055540834,4998,0,0.7786127,0.2029456,-8.906472,4998,0
52973063,-0.043675337,-0.1203222,-0.0065667983,4997,0,-0.118714266,-0.27875802,-10.571738,4997,0
52988054,0.0071430583,-0.07741307,-0.07821723,4997,0,-0.44312933,-0.21414886,-10.326589,4997,0
53013040,-0.03740387,-0.044888817,-0.054519307,4998,0,-0.8448577,-0.35946605,-10.24464,4998,0
53033027,-0.10678474,-0.08140644,-0.039202537,4998,0,-0.30946636,-0.124558195,-10.204335,4998,0
53048021,-0.17331707,-0.063718,-0.057124473,5000,0,-0.19713674,0.2797986,-9.621086,5000,0
53068005,-0.18260762,-0.11920403,-0.069088824,4995,0,-0.33032623,-0.027005749,-10.068838,4995,0
53092992,-0.14795536,-0.09394077,-0.044188242,4999,0,-1.347791,0.5251786,-10.161284,4999,0
53112981,-0.10554839,-0.10227802,-0.09906856,4995,0,-0.53264314,1.2581058,-10.961592,4995,0
53127969,-0.25602508,-0.072379045,-0.0423892,4997,0,-0.6937096,0.12436157,-10.381273,4997,0
53152954,-0.20397884,-0.100995034,-0.057156872,4997,0,-0.29585186,0.74558187,-10.536125,4997,0
53172943,0.028656669,-0.21984202,-0.032555334,4998,0,-1.1024971,0.8303387,-10.625024,4998,0
53187932,-0.028923105,-0.18240377,-0.038353458,4996,0,-0.57439345,1.0025133,-9.538539,4996,0
53207920,-0.0035669238,-0.24785532,-0.029324308,4996,0,-0.7946791,0.5674511,-9.950974,4996,0
53232907,0.021993268,-0.4130547,-0.011462272,4998,0,-0.2942203,0.7894371,-9.470545,4998,0
53247895,-0.03502272,-0.40729925,-0.010154872,4992,0,-0.72499216,0.66559696,-9.13441,4992,0
53267883,-0.14795864,-0.19256414,0.032498468,4996,0,-0.4993425,0.6231294,-9.632558,4996,0
53292868,-0.2596417,-0.012021629,0.019313788,4996,0,-0.70293725,0.6156665,-10.166418,4996,0
53312858,-0.35031492,-0.10889637,0.010183034,4999,0,-0.63849545,0.020330088,-10.489704,4999,0
53327847,-0.23801099,-0.29834974,0.032409735,4996,0,-0.98310995,0.59690773,-10.415197,4996,0
53352832,-0.20038514,-0.40003538,-0.0073104417,4997,0,-0.5060847,0.37690482,-9.800248,4997,0
53372821,-0.13427368,-0.3081677,0.014533654,4998,0,-0.6780134,0.45624664,-10.383205,4998,0
53392809,-0.12893274,-0.12873095,-0.0010131713,4998,0,-0.20978777,0.43770438,-10.7669935,4998,0
53407798,-0.1345109,-0.027007958,-0.030285707,4996,0,-0.6733677,0.19392407,-10.383844,4996,0
53432784,-0.13884574,0.0068206075,-0.010755083,4996,0,-0.41803232,0.19502659,-10.127393,4996,0
53452771,-0.07195977,-0.012821483,0.019461708,4992,0,-0.2041089,1.3063188,-10.385842,4992,0
53467762,-0.10023309,-0.066086985,-0.026914908,4997,0,-0.9134151,0.53144795,-9.339906,4997,0
53492747,0.29536742,-0.101974525,-0.042508252,4997,0,-0.92054254,1.097255,-10.270746,4997,0
53512736,0.18825835,-0.06702442,-0.005854294,4998,0,-0.78217477,0.88064665,-9.056332,4998,0
53532723,0.11076255,0.065177485,0.01434058,4997,0,-1.5564089,0.31828055,-10.022388,4997,0
53547713,0.10200158,0.10393408,-0.066631444,4992,0,-0.5617304,-0.0018490962,-10.765763,4992,0
53572698,0.061909597,0.16143174,-0.011304455,4997,0,0.2328234,0.70435876,-8.985568,4997,0
53587690,0.05751954,0.22165321,-0.030255243,4998,0,-0.4547891,0.4858324,-8.804869,4998,0
53607677,0.09308398,0.2087888,-0.06528842,4997,0,-0.8682601,-0.23131503,-10.391713,4997,0
53632662,0.15795903,0.038097862,-0.029579204,4993,0,0.4582163,1.1861136,-11.921846,4993,0
53652651,0.06783592,0.045170724,-0.03714262,4998,0,-0.9915558,0.15573236,-9.005909,4998,0
53672637,0.018874072,0.1547262,-0.022124918,4995,0,-1.0103737,0.16389564,-12.323534,4995,0
53687628,0.025375543,-0.010774253,-0.033140965,4997,0,-0.3998599,0.6160343,-11.058519,4997,0
53712613,0.12347415,0.36532092,-0.027210573,4997,0,-1.068225,0.13779312,-12.218019,4997,0
53732601,0.2812659,0.34107906,-0.008064398,4993,0,-0.47962898,1.1773472,-9.71478,4993,0
53747592,0.16038525,0.40319455,-0.03414763,4997,0,-1.2897241,-0.41490975,-10.105789,4997,0
53772576,0.20419574,0.22651942,0.045221064,4996,0,0.1548904,1.5325602,-10.574302,4996,0
53792565,0.117131,0.22763968,-0.03408382,4998,0,-1.0410537,0.24592574,-8.819503,4998,0
53812552,0.10973745,0.25737274,-0.018291103,4997,0,-0.9167884,0.62664455,-10.493675,4997,0
53827543,0.27808803,0.18749441,-0.012923475,4997,0,0.033402234,0.7564277,-11.548021,4997,0
53852528,0.14905468,0.25155327,0.022725055,4997,0,-0.58555794,0.38614228,-8.553217,4997,0
53872516,0.13202943,0.2943105,0.04381718,4997,0,-0.9811693,0.27493092,-10.376112,4997,0
53887506,0.049577676,0.18608838,-0.011881461,4996,0,-0.28124148,0.016679369,-11.580162,4996,0
53912492,-0.13974547,0.015382804,0.04401506,4998,0,-0.22356556,0.90077454,-8.660277,4998,0
53932479,-0.18062022,0.10936092,0.035877995,4997,0,-1.0754468,0.82176983,-8.956786,4997,0
53952467,-0.16766469,0.077003,-0.020914814,4997,0,-0.40166143,0.2873303,-10.514399,4997,0
53972455,0.028817432,-0.013838956,0.032411244,4997,0,-0.103635915,0.8651757,-10.842047,4997,0
53992443,0.050367665,-0.081473716,0.016267512,4997,0,-0.07648787,0.708892,-9.952745,4997,0
54012431,-0.24820119,0.06405239,-0.0063371006,4998,0,-1.3154234,-0.26444325,-8.396081,4998,0
54027422,-0.24125038,0.045511965,-0.033460833,4997,0,-0.27872446,0.8152701,-10.801035,4997,0
54052406,-0.20042793,-0.12654805,0.039290126,4997,0,-0.5085842,0.18153451,-9.389896,4997,0
54072394,-0.060689252,0.012209014,-0.03051971,4997,0,-0.9524562,-0.2770804,-10.969777,4997,0
54092382,-0.093531184,-0.029889127,-0.008123868,4997,0,-0.18175657,1.0025054,-10.155667,4997,0
54112370,-0.23343469,-0.068294935,-0.02333634,4996,0,-0.7991135,-0.34782842,-10.028527,4996,0
54132358,-0.3701068,-0.23599616,0.03574977,4997,0,0.01106675,0.45792738,-10.906303,4997,0
54152349,-0.09843583,-0.2946403,-0.010789834,5001,0,-0.50097686,0.92200905,-8.710461,5001,0
54172334,-0.08973778,-0.15932637,-0.014412003,4998,0,-1.078451,0.032746088,-10.261175,4998,0
54192321,0.039162654,-0.2684671,-0.019060306,4997,0,0.6746735,1.1337075,-12.036848,4997,0
54212309,-0.19415879,-0.11850038,0.015195249,4997,0,-1.5987955,-0.011332082,-7.569872,4997,0
54232297,-0.19841169,-0.19049361,0.0031362271,4996,0,0.22786842,0.743141,-12.086972,4996,0
54252284,-0.36485627,-0.19245802,-0.03758966,4997,0,-0.64959955,-0.24953465,-8.904406,4997,0
54272272,-0.017786974,-0.11877107,-0.024082396,4997,0,-0.94974196,0.6252957,-11.078419,4997,0
54292261,0.20967858,-0.1827532,0.0048973933,4998,0,-0.057728156,1.5046092,-9.870641,4998,0
54312248,-0.073408306,-0.1060993,-0.0386117,4997,0,-0.6840717,-0.97795606,-10.2559805,4997,0
54332236,-0.03945668,-0.2889554,0.009824516,4996,0,0.0026212386,1.8383746,-10.314448,4996,0
54352224,-0.22274674,-0.13883364,-0.040318407,4997,0,-1.1928686,-0.55314285,-8.801427,4997,0
54372212,0.07450094,-0.16666251,0.0124638155,4998,0,0.35063943,1.2160311,-11.760659,4998,0
54392199,0.138852,-0.14517467,-0.02955976,4997,0,-0.6888187,-0.082067326,-8.876302,4997,0
54412187,0.102768384,-0.025454342,-0.04855398,4996,0,-0.88025457,0.5047437,-10.814323,4996,0
54432175,0.03869987,-0.17747673,0.0065641613,4992,0,-0.0717242,0.28690755,-9.142171,4992,0
54452163,-0.0313148,-0.05737604,-0.009979428,4997,0,-0.6516005,0.47684607,-11.9461155,4997,0
54472151,0.062428556,-0.087730676,0.017568232,4997,0,-0.56613153,0.7828973,-8.621484,4997,0
54492139,0.06057283,0.18425958,-0.05387882,4996,0,-0.50229424,0.76012546,-10.494938,4996,0
54512126,0.12335753,0.026491165,0.031908978,4996,0,-0.22230887,0.8992297,-9.460777,4996,0
54532114,0.22277093,0.039319467,-0.012973697,4994,0,-0.59232116,0.60460144,-9.663538,4994,0
54552102,0.071640804,-0.04414547,-0.021983797,4997,0,-0.8007407,-0.20812625,-10.299382,4997,0
54572090,0.23009844,-0.11598441,-0.009731189,4997,0,-0.4505438,1.7031933,-9.044506,4997,0
54592083,-0.087474875,0.1846115,0.0045298883,5002,0,-1.147523,-0.54113334,-9.559798,5002,0
54612067,0.067348,0.102213584,0.015413796,4999,0,0.21484214,1.2078376,-10.187945,4999,0
54632053,-0.004019351,0.20395362,-0.046744213,4995,0,-1.3109598,-0.21310079,-9.418557,4995,0
54652041,0.116729215,0.09471227,0.018411314,4997,0,-0.4662349,0.87536234,-10.279724,4997,0
54672029,0.24407963,-0.085425586,-0.013233475,4996,0,-0.3997225,0.75997317,-9.272061,4996,0
54692019,-0.062099263,0.06412846,-0.0009895285,4998,0,-1.2312204,0.058009546,-11.120444,4998,0
54712007,0.04215566,-0.02551988,0.0049161585,4999,0,-0.27841026,1.2143509,-9.315873,4999,0
54731994,-0.1258005,0.23145996,0.019873798,4998,0,-1.3180443,0.23280305,-9.583864,4998,0
54751981,0.102482304,-0.013235369,-0.011467679,4997,0,0.18555266,0.8874933,-10.834136,4997,0
54771968,0.016283022,0.06534595,-0.019016081,4997,0,-1.3587773,0.39020744,-9.501058,4997,0
54791958,-0.09363504,-0.0052967984,0.005835116,4999,0,-0.4693846,1.045111,-10.179095,4999,0
54811944,-0.17322859,0.13689502,0.0017186103,4997,0,-0.92791784,0.3755338,-8.871872,4997,0
54831932,-0.14347188,0.057541534,0.013892573,4996,0,-0.085494086,0.334309,-11.50732,4996,0
54851920,-0.027589016,0.012782234,-0.02563249,4997,0,-0.9023242,1.3053141,-8.482078,4997,0
54871907,-0.12867218,0.046530146,0.0005067902,4996,0,-1.416163,0.13155434,-9.327493,4996,0
54891897,0.029998308,-0.1634515,0.024163451,4998,0,0.1438892,1.8589443,-10.781364,4998,0
54911883,-0.28297594,-0.11774958,-0.0123419,4997,0,-1.3311665,-0.3275588,-8.638675,4997,0
54931871,-0.3801333,-0.06995315,-0.01708632,4996,0,-0.7322589,0.7108868,-10.670985,4996,0
54951859,-0.16348666,-0.114871986,0.028043145,4997,0,-0.85895795,1.4453645,-8.543465,4997,0
54971847,-0.15374053,-0.06051171,-0.024224514,4998,0,-1.5905862,0.24602444,-8.519289,4998,0
54991836,0.028014254,-0.2203389,-0.031145535,4999,0,-0.44180307,1.2034127,-11.276762,4999,0
55011822,-0.22325169,-0.2089305,-0.0010197915,4997,0,-0.80428284,0.4250333,-8.407036,4997,0
55031810,-0.28098193,-0.07994952,0.030992184,4997,0,-0.88809335,1.3719434,-11.61352,4997,0
55051799,-0.28975782,-0.09286033,-0.050748706,4998,0,-0.8385156,0.8094165,-7.666985,4998,0
55071786,-0.1179227,-0.06930511,-0.029316965,4997,0,-1.0065566,0.850897,-11.000676,4997,0
55091777,-0.098184355,-0.3573815,0.0038217101,5000,0,-0.25717843,1.1757759,-10.26464,5000,0
55111766,-0.27851793,-0.19268438,-0.015746912,5001,0,-1.5634727,-0.014331038,-9.351307,5001,0
55131751,-0.26581848,-0.28407967,-0.040306784,4998,0,-0.65293366,2.0127883,-9.011423,4998,0
55151737,-0.29604366,-0.06321348,-0.0062080766,4997,0,-1.0304093,0.21952283,-10.96901,4997,0
55171728,-0.0002221888,-0.18208341,-0.01729099,5000,0,-0.22296318,1.5732971,-9.256773,5000,0
55191713,-0.103908785,-0.13606828,-0.038923252,4997,0,-1.7419745,-0.2933259,-8.831615,4997,0
55211701,-0.026160058,-0.2914927,-0.014741936,4997,0,-0.45931083,1.8369936,-10.086975,4997,0
55231689,-0.30836737,-0.16821276,-0.010246201,4997,0,-1.6048485,-0.4433451,-8.039804,4997,0
55251686,-0.09511207,-0.18756007,-0.022346184,5005,0,-0.1638806,1.5868213,-10.893917,5005,0
55271664,-0.055319402,-0.10526552,-0.037969466,4997,0,-1.6485127,0.15214755,-8.23254,4997,0
55291655,0.0200844,-0.04862916,-0.06316252,4999,0,-0.65473396,2.994366,-11.464862,4999,0
55311640,2.3581593,-0.170896,-0.80430496,4997,0,-1.3467388,2.5176694,-16.7002,4997,0
55331628,5.9391484,-0.36285523,-0.77451235,4997,0,-0.46850255,2.9490633,-19.21764,4997,0
55351616,5.6054034,-0.3871158,-0.8344832,4997,0,-1.9382476,0.020553645,-22.637152,4997,0
55371603,2.1719763,-0.33983877,-0.787038,4997,0,-1.3427248,-0.26578093,-24.911324,4997,0
55391591,1.4737325,0.10645041,-0.7557682,4997,0,-1.2317468,2.869607,-25.623476,4997,0
55411579,4.4960003,0.5664941,-0.7760142,4997,0,-1.8249583,3.587645,-26.194077,4997,0
55431567,5.718004,0.02854265,-0.49880633,4995,0,-1.4203644,2.267757,-26.641575,4995,0
55451555,3.2037356,-0.55616945,-0.46801782,4997,0,-1.8681272,0.91745645,-27.1958,4997,0
55471542,1.4291096,-0.28951064,-0.28561,4995,0,-2.780316,2.827502,-28.056139,4995,0
55491530,3.379525,0.34703523,-0.37982154,4997,0,-2.5769784,4.3091536,-28.092041,4997,0
55511520,5.2882223,0.23965922,-0.48601,4998,0,-2.3286612,4.0414867,-30.574648,4998,0
55531506,3.9402337,-0.6340688,-0.38184157,4997,0,-2.2998555,2.7660828,-30.808176,4997,0
55551494,1.9524577,-0.93441045,-0.24131496,4997,0,-3.552815,3.8886123,-30.381596,4997,0
55571482,2.665979,-0.088310495,-0.28357548,4997,0,-4.337685,5.593028,-27.763643,4997,0
55591469,4.2173696,0.15486886,-0.50110036,4997,0,-3.3499072,5.979151,-30.331831,4997,0
55611458,3.9382467,-0.68845475,-0.4827369,4998,0,-3.4350722,5.1913886,-31.669079,4998,0
55631445,2.512259,-1.2457902,-0.3744395,4995,0,-3.7208207,6.172747,-30.20526,4995,0
55651433,2.3279612,-0.5503039,-0.41072014,4997,0,-4.114553,7.8257933,-26.477499,4997,0
55671421,3.3638625,-0.2856388,-0.54900193,4997,0,-3.1405084,8.6142845,-26.643545,4997,0
55691408,3.6450083,-1.0394425,-0.60828364,4996,0,-3.571953,9.235532,-27.579714,4996,0
55711396,2.778055,-1.6405652,-0.5374781,4996,0,-4.381942,9.736609,-25.373844,4996,0
55731384,2.120523,-1.1708223,-0.59720904,4996,0,-3.4098356,10.659733,-23.121546,4996,0
55751372,2.578864,-1.3651271,-0.71610546,4996,0,-1.4592419,11.649742,-22.079899,4996,0
55771360,3.1430368,-2.2536852,-0.81065583,4997,0,-2.2562277,11.724149,-20.357702,4997,0
55791348,2.7502732,-2.5591846,-0.9252725,4997,0,-1.1268469,12.316025,-19.698065,4997,0
55811337,2.092849,-2.2973793,-1.0176518,4998,0,-1.5923465,13.102047,-17.583258,4998,0
55831323,2.2352846,-2.2415285,-1.2042539,4995,0,-0.6437623,14.147718,-15.425115,4995,0
55851311,2.793011,-2.6845543,-1.360425,4996,0,-0.6081464,14.90046,-15.949563,4996,0
55871299,2.62389,-3.4547052,-1.6074966,4996,0,1.8268727,15.346821,-14.540883,4996,0
55891287,0.81337893,-3.607928,-1.6211599,4996,0,1.8371633,13.646345,3.8665354,4996,0
55911278,-2.4894052,-3.54231,-1.4790514,5000,0,0.9635677,13.170765,14.499058,5000,0
55931264,-6.4772906,-3.0705345,-1.1530249,4998,0,2.0193558,12.434973,19.18438,4998,0
55951250,-9.201274,-2.5629206,-0.8875291,4996,0,-1.0781038,6.4965653,23.54095,4996,0
55971238,-10.875271,-1.4827827,-0.79945457,4996,0,9.10794,10.833921,22.63865,4996,0
55991226,-10.929009,-0.08139873,-0.9451793,4997,0,5.5084305,0.9484147,26.222418,4997,0
56011215,-9.180875,1.4734586,-1.1699668,4998,0,4.2551737,-1.0056847,25.56359,4998,0
56031201,-5.9633183,2.813884,-1.4296726,4991,0,6.0795865,-3.0923452,23.908659,4991,0
56051190,-1.8718404,4.070469,-1.7220441,4997,0,5.0716543,-7.335705,24.294962,4997,0
56071177,2.63011,5.09108,-2.0429382,4997,0,3.3791537,-6.7874365,24.731375,4997,0
56091166,6.8093996,5.5128617,-2.3649719,4997,0,4.446983,-3.7532232,26.401434,4997,0
56111156,9.869128,5.195009,-2.757156,4999,0,3.1108437,-0.8312889,28.480434,4999,0
56131141,11.190486,4.6123986,-2.9980512,4996,0,1.2318658,2.7903578,30.866947,4996,0
56151129,12.934877,5.8588195,-2.7885365,4997,0,19.31184,-21.051863,46.35485,4997,0
56171117,18.78225,14.932077,-13.19828,4997,0,69.936745,-14.176369,111.90329,4997,4
56191104,-7.5528507,29.908936,-11.038197,4997,0,39.789658,5.517202,86.532684,4997,4
56211093,-6.6975746,-1.0887352,2.9726567,4998,0,53.05929,129.12585,70.24572,4998,4
56231080,2.5910518,-2.7149737,-2.1853454,4995,0,-13.900013,-22.002453,0.70923454,4995,0
56251069,-0.008752654,-5.3247313,-1.1551787,4998,0,4.258964,-31.126472,25.160059,4998,0
56271056,-0.25992167,-5.828447,-0.42984512,4997,0,19.68181,11.251446,12.451958,4997,0
56291043,-2.481459,-9.145991,-1.5622096,4996,0,4.9695807,-8.680659,30.709995,4996,0
56311031,-5.630754,-11.18864,-2.0709405,4996,0,4.622175,-10.457185,19.904604,4996,0
56331019,-5.857274,-12.512344,-2.0472705,4997,0,3.672695,1.1726573,20.089315,4997,0
56351007,-7.7866025,-14.595052,-2.4212534,4996,0,7.437747,-5.6284347,23.465029,4996,0
56370995,-8.497794,-14.97724,-2.9781187,4997,0,6.8984222,-2.4629512,19.379646,4997,0
56390983,-9.076066,-15.866302,-3.112976,4997,0,7.528046,-8.778777,18.292967,4997,0
56410971,-6.35188,-12.502195,-2.4767985,4996,0,14.83097,-9.592981,18.851671,4996,0
56430959,-4.864855,-11.491104,-1.8595634,4994,0,14.555956,-15.123041,5.106689,4994,0
56450946,-3.313054,-9.477568,-1.7329016,4996,0,21.038498,-11.63938,3.4232733,4996,0
56470935,-1.3831899,-4.81116,-2.44638,4998,0,15.389435,-3.0195274,0.44345805,4998,0
56490922,0.17467602,-0.3562447,-2.7532709,4997,0,11.341025,-3.244602,-3.6235979,4997,0
56510910,1.0932542,4.456138,-3.0544944,4997,0,15.250242,-3.2338834,-2.507022,4997,0
56530898,1.7059801,8.927908,-3.286879,4995,0,16.368282,-0.1778285,0.93153006,4995,0
56550885,2.242032,12.810825,-3.4460504,4997,0,15.149167,1.6475577,6.502253,4997,0
56570874,2.8190057,15.891012,-3.6811137,4998,0,14.218047,2.2278233,11.913649,4998,0
56590861,3.2884665,17.773928,-3.8564317,4995,0,12.358989,3.1662095,16.057556,4995,0
56610849,3.397883,18.59426,-4.006026,4997,0,7.4295864,3.5960245,18.688095,4997,0
56630837,3.4271019,18.15179,-4.2000785,4996,0,2.064835,3.8090556,17.849241,4996,0
56650826,3.1555393,16.482752,-4.351315,4996,0,-2.2921307,4.209396,14.60094,4996,0
56670812,2.7087128,14.1196375,-4.4960647,4996,0,-4.5426908,4.793438,10.237595,4996,0
56690800,2.0877666,11.499982,-4.5945454,4992,0,-5.8185525,4.356945,6.9454784,4992,0
56710789,1.286882,9.021828,-4.683745,4998,0,-6.033352,4.0267854,4.4038715,4998,0
56730776,0.5507386,6.698807,-4.7223697,4994,0,-5.2985954,3.175432,1.71345,4994,0
56750765,-0.1478335,4.6370697,-4.6933665,4992,0,-3.7931058,2.3487475,0.6915944,4992,0
56770752,-0.65872365,3.0080209,-4.5915313,4992,0,-2.3251166,1.4589943,0.50779843,4992,0
56790740,-1.9223754,2.5419405,-3.8157778,4996,0,29.312206,46.633877,23.637758,4996,0
56810728,0.6992946,-3.2751534,-0.0102441115,4997,0,123.40518,40.28544,120.14423,4997,4
56830715,-1.8107008,-3.3054385,0.12263528,4997,0,143.84584,-75.50661,123.63354,4997,4
56850704,20.548725,-0.47454995,-0.5042254,4997,0,-62.47477,2.4010513,68.916794,4997,5
56870691,18.252832,0.040925562,-0.4604044,4994,0,-49.795162,5.1708145,43.038837,4994,0
56890679,-2.7620494,0.042358134,0.039991368,4997,0,-39.386524,-8.95435,19.687813,4997,0
56910671,-3.914083,4.7367334,-0.0311731,5001,0,3.403303,-13.971025,3.0306947,5001,0
56930654,-4.6514926,5.1587505,-0.014623461,4996,0,-0.38671094,-17.958447,-1.0125871,4996,0
56950642,-5.0675488,4.745048,0.0072580073,4997,0,8.847578,-9.012906,1.6209075,4997,0
56970630,-5.831821,4.0223274,0.039340995,4997,0,7.3882565,-2.3885732,-1.3320723,4997,0
56990618,-5.5322556,1.3349184,0.0792612,4997,0,15.587152,-0.28949025,-11.47504,4997,0
57010606,-5.653381,-0.42118528,0.117652275,4997,0,3.8250985,1.2701418,-3.4620621,4997,0
57035592,-5.8518763,-1.4330589,0.14395708,4998,0,2.8406165,1.814208,0.6117516,4998,0
57050582,-5.805351,-2.0332859,0.15882935,4992,0,3.6349654,-0.14939323,0.26039907,4992,0
57070571,-5.49843,-2.7782836,7.1424646,4997,0,4.6497345,0.43407685,1.6135314,4997,0
57090558,-5.213188,-3.6841588,7.1070695,4996,0,3.9539597,0.63609016,1.4089705,4996,0
57110545,-4.932474,-4.6531405,6.495978,4996,0,-6.029049,10.348901,-0.45548692,4996,0
57130534,-4.7106986,-5.568448,5.977188,4998,0,2.6118183,0.66739064,2.5933135,4998,0
57150522,-4.2790813,-6.14876,5.888582,4993,0,5.1722264,2.7974126,0.6788257,4993,0
57170511,-3.9084544,-6.4504976,5.6714506,4998,0,2.5639567,-0.7276436,-0.64748424,4998,0
57190498,-3.6430974,-6.4624333,5.426408,4996,0,3.0708559,0.043899342,0.7725675,4996,0
57210485,-3.351834,-6.573516,5.251397,4992,0,2.0124402,0.8005722,1.8667432,4992,0
57230474,-2.987451,-6.659634,5.1517673,4998,0,1.5707685,1.6438372,2.133276,4998,0
57250462,-2.5224452,-6.819951,5.076816,4998,0,0.81940615,1.9494886,2.1040037,4998,0
57270450,-2.03388,-6.8915687,5.006372,4999,0,0.6346102,1.7538505,1.8432752,4999,0
57290435,-1.6791496,-6.8553743,4.8981385,4997,0,0.29990354,0.8658968,1.3576794,4997,0
57310423,-1.3647565,-6.891091,4.8140054,4997,0,0.483066,-0.21265538,1.557077,4997,0
57330411,-1.1895438,-6.925137,4.7046175,4997,0,0.11909699,-0.73079735,1.59576,4997,0
57350402,-1.0468266,-6.8199015,4.5326896,5000,0,-0.0064460663,-0.85723007,1.8776219,5000,0
57370387,-1.0595704,-6.548822,4.2464194,4997,0,-0.6421835,-2.3056338,1.3599153,4997,0
57390375,-3.7907848,-4.588026,4.364641,4997,0,-14.698737,-22.791513,19.585073,4997,0
57410365,-1.2782305,-8.148626,1.6930388,4999,0,31.52142,5.158002,43.181076,4999,0
57430350,33.90237,5.937922,-10.380966,4996,0,-2.4091527,-28.006565,106.1994,4996,4
57450338,13.828608,-0.35494822,3.5165927,4991,0,-16.010674,1.7005831,103.562195,4991,4
57470326,-16.16265,1.0641637,-4.623801,4996,0,24.362675,18.230019,-11.518223,4996,0
57490314,-8.679632,-2.670842,10.720627,4996,0,38.032475,66.00298,48.327774,4996,0
57510302,0.8582612,-9.601831,4.4059525,4994,0,-2.8291085,5.314388,21.897087,4994,0
57530289,2.5064597,-7.5344644,3.9782035,4993,0,-7.61147,-7.095286,20.083187,4993,0
57550277,5.9018264,0.22913466,5.505778,4992,0,-4.293952,-14.970669,19.518848,4992,0
57570265,2.9229302,4.1119633,5.3080554,4991,0,0.095582806,3.687647,2.2952032,4991,0
57590253,2.4084415,4.3000736,5.202433,4997,0,-1.9470338,2.4771504,-0.38440213,4997,0
57610241,1.9589665,4.456069,5.292768,4997,0,1.4193728,-2.9858308,1.4270277,4997,0
57630229,-1.8676382,1.5044354,3.9245424,4995,0,49.71091,-44.727547,33.12901,4995,0
57650217,-6.8655095,-6.074364,5.2597046,4997,0,14.484111,-8.259487,28.069597,4997,0
57670204,1.7870749,2.5960038,0.7001028,4996,0,13.048349,37.921722,-3.5986543,4996,0
57690192,3.1288438,3.0913248,0.06546619,4997,0,6.58678,5.4092617,-5.092802,4997,0
57710180,5.409167,1.6184534,-1.1240889,4997,0,-7.1549573,0.8591489,-3.390922,4997,0
57730168,-6.4755206,-2.0070317,-0.3409414,4997,0,0.64709526,3.039807,3.9411368,4997,0
57750155,-2.1379614,-3.823702,-0.6506519,4996,0,12.493074,21.555943,24.503849,4996,0
57770145,0.051256027,-0.6121763,-0.082007825,4998,0,-0.20365316,-8.725341,-0.83981836,4998,0
57790131,-0.7147671,0.24550678,0.02391336,4997,0,-5.160959,-0.6159066,0.35083395,4997,0
57810119,0.6643032,1.5872827,-0.14179264,4997,0,-1.4326407,-0.8949355,2.1874824,4997,0
57830107,1.7350264,1.6780775,-0.25554004,4995,0,23.958212,-10.761688,62.929897,4995,0
57850095,1.3901333,0.21506664,-0.54259616,4997,0,0.052282304,-2.20858,6.485956,4997,0
57870083,-0.3840771,0.15497115,-0.21504594,4995,0,-0.14804004,2.9930508,1.566477,4995,0
57890070,-0.23391454,-0.28059262,-0.21778521,4997,0,-2.509446,1.4496701,10.553881,4997,0
57910058,-0.20999451,0.07260177,0.08081072,4996,0,2.1784508,0.43124437,8.703668,4996,0
57930048,0.103604235,-0.08410671,-0.057289835,4999,0,-1.4445288,-0.35101822,8.417237,4999,0
57950034,-0.07589994,0.0054733325,0.031562407,4997,0,-0.7290088,-0.47279996,9.743217,4997,0
57970022,0.018298406,-0.024852276,-0.0069829146,4996,0,0.39527494,-0.51216465,9.88132,4996,0
57990010,-0.04208196,-0.0072890692,-0.019348556,4997,0,0.03481246,-0.5616747,10.107338,4997,0
58009998,-0.115223706,-0.040834256,0.009141823,4998,0,0.24309708,-0.3022006,10.000948,4998,0
58029987,-0.022679029,-0.022474607,-0.009370395,4999,0,-0.1099103,-0.22992864,9.928161,4999,0
58049973,0.086371124,0.027987393,-0.090149134,4997,0,0.17575403,0.26797917,10.41511,4997,0
58069961,0.061380707,0.11459229,0.017885514,4995,0,-0.15132242,0.30224606,9.852742,4995,0
58089949,0.13068597,0.086223654,-0.018378949,4997,0,0.26659304,-0.17434388,10.228027,4997,0
58109937,-0.033741463,-0.088649936,0.020682717,4998,0,-0.45276052,-0.07413863,9.333628,4998,0
58129925,-0.13162985,-0.033345487,-0.0041494826,4998,0,0.09148461,-0.24529542,10.021507,4998,0
58154909,-0.066066705,-0.03178013,-0.020644592,4997,0,0.11019379,-0.46379432,9.786179,4997,0
58169900,-0.047483955,0.002543612,0.04195645,4993,0,0.045089602,-0.37611443,9.842109,4993,0
58189888,0.066196956,0.022521274,-0.02463906,4997,0,0.23437785,-0.2052987,10.100654,4997,0
58209876,-0.0017295004,0.020221129,-0.00352629,4997,0,-0.089820184,-0.14527024,9.84316,4997,0
58229864,-0.038115643,0.0048107617,-0.0038430616,4998,0,-0.009812071,-0.1215699,10.138137,4998,0
58249851,-0.04190858,-0.0217733,-0.017076826,4996,0,0.02900477,-0.33772707,9.855029,4996,0
58269839,-0.008426121,0.010251154,-0.0024137956,4995,0,0.0125015415,-0.45466036,9.803848,4995,0
58294826,0.009090055,0.0013559468,-0.006517652,4999,0,0.02620971,-0.3316998,9.875064,4999,0
58309815,0.0065261023,0.0073084766,-0.0071351663,4997,0,-0.0314898,-0.26364213,9.80475,4997,0
58329803,-0.024841094,-0.0099504,-0.009326666,4997,0,0.00888695,-0.18737602,9.87449,4997,0
58349791,-0.046297606,-0.036795612,-0.0039438936,4997,0,0.08784561,-0.27357754,9.772779,4997,0
58369778,-0.04461723,-0.027743096,-0.009179447,4994,0,0.058611818,-0.27606773,9.86668,4994,0
58389767,-0.029523486,-0.007268408,-0.010254383,4998,0,0.06036287,-0.33736712,9.79911,4998,0
58409754,0.0014651623,-0.0021791656,-0.005639844,4997,0,0.02300828,-0.31347233,9.852378,4997,0
58434739,0.0006430179,0.0021755232,-0.009975985,4997,0,0.080218315,-0.30571395,9.865127,4997,0
58449730,0.003614484,0.0129932575,-0.013873436,4997,0,0.017486535,-0.29635742,9.797064,4997,0
58469718,0.044407133,0.01803393,-0.021207787,4996,0,0.028777013,-0.29027346,9.766696,4996,0
58489706,0.05115854,0.043470092,-0.011112259,4997,0,-0.12911698,-0.22218692,9.830462,4997,0
58509696,-0.025237981,-0.019504521,0.012038488,4999,0,-0.024487386,-0.19385338,9.855042,4999,0
58529681,-0.042572007,-0.025920458,-0.023892317,4997,0,0.019833146,-0.2525612,9.866847,4997,0
58549669,-0.012967996,0.01921519,-0.0060021523,4995,0,0.14133747,-0.30349657,9.890913,4995,0
58574654,0.025381114,-0.0067141703,0.003811873,4997,0,-0.035614677,-0.20934515,9.82195,4997,0
58589645,0.013230124,0.023512263,-0.011921757,4997,0,0.08077061,-0.18133385,9.903328,4997,0
58609633,-0.0736249,-0.036885772,-0.005402268,4997,0,0.014274255,-0.15088159,9.83595,4997,0
58629621,-0.078279704,-0.054397523,-0.013554553,4997,0,0.06821116,-0.27052903,9.76359,4997,0
58649608,-0.043214228,-0.0026670245,-0.0039458824,4997,0,0.07020112,-0.28562853,9.860122,4997,0
58669599,0.042577438,0.031038493,-0.018218895,5000,0,0.027961947,-0.33527607,9.774562,5000,0
58689584,0.06468166,0.044793867,-0.0008562546,4997,0,0.010041142,-0.2625458,9.808894,4997,0
58714570,-0.009035767,0.0021177446,-0.003556091,4998,0,0.051532425,-0.21846451,9.900331,4998,0
58729560,-0.06254899,-0.030653393,-0.014063583,4997,0,-0.033130504,-0.23783424,9.796928,4997,0
58749548,-0.09263201,-0.05181165,-0.0054705413,4997,0,0.06749777,-0.3033976,9.804666,4997,0
58769536,-0.029544547,-0.031380307,-0.0102855265,4997,0,0.05254708,-0.3296197,9.80857,4997,0
58789523,0.004554352,0.012968887,-0.0017321269,4997,0,0.03384406,-0.29458556,9.863887,4997,0
58809512,0.034583226,0.021362862,-0.013000031,4998,0,0.050751194,-0.30029142,9.834035,4998,0
58829502,-0.0022770306,-0.002077041,-0.00392081,5000,0,0.0066921837,-0.21712516,9.814445,5000,0
58854483,-0.05705914,-0.022428311,-0.010127712,4997,0,0.043974113,-0.26560512,9.841563,4997,0
58869477,-0.036817793,-0.021099497,-0.015840745,4996,0,0.03588937,-0.291956,9.806822,4996,0
58889464,0.023309935,0.022144057,-0.0021910504,4996,0,0.17786142,-0.22122623,9.633772,4996,0
58909450,0.07471127,0.038142074,-0.01707515,4996,0,0.035378017,-0.23879665,9.641808,4996,0
58929438,0.005239374,0.0242836,0.011548411,4997,0,-0.019152151,-0.22453184,9.741713,4997,0
58949426,-0.0263279,-0.008681226,-0.013813314,4997,0,0.14642152,-0.24543414,9.916393,4997,0
58969414,-0.011037995,-0.011324709,-0.015984533,4996,0,-0.15523477,-0.20710202,9.67053,4996,0
58989401,-0.017735092,0.0064908336,0.009991612,4996,0,0.039310165,-0.11913954,9.918742,4996,0
59009389,-0.016292697,-0.03406065,-0.021984896,4997,0,0.16746444,-0.19795306,9.839681,4997,0
59029377,-0.08238925,-0.028380545,-0.0035491076,4996,0,0.016543288,-0.20564188,9.815881,4996,0
59054363,-0.047642753,-0.019318782,-0.008174306,4998,0,0.07670918,-0.3362258,9.813394,4998,0
59069353,-0.005645915,-0.00044077248,-0.009179433,4997,0,0.03324638,-0.29189333,9.819351,4997,0
59089341,0.03351722,0.03787765,-0.00870665,4997,0,0.15339391,-0.19457339,9.766016,4997,0
59109329,0.040498223,0.034931827,-0.012985676,4997,0,0.034959335,-0.24659064,9.8752775,4997,0
59134313,-0.014973053,-0.0082908,-0.009776557,4996,0,0.008961462,-0.25314662,9.800993,4996,0
59149304,-0.050736953,-0.03158397,-0.008617853,4997,0,0.026604421,-0.18560106,9.820271,4997,0
59169292,-0.06983274,-0.039613523,-0.008861152,4997,0,0.021720827,-0.33320644,9.858103,4997,0
59194278,-0.030831799,-0.014887454,-0.007193116,4998,0,0.05102496,-0.329725,9.793924,4998,0
59209267,0.004449263,0.0011977239,-0.00894919,4996,0,0.06484647,-0.3186679,9.801845,4996,0
59229256,0.035164587,0.020010091,-0.0070648813,4997,0,0.042742964,-0.28815815,9.808378,4997,0
59249244,0.014067547,0.008789982,-0.006138899,4997,0,-0.008307571,-0.2432955,9.806337,4997,0
59274229,-0.0389965,-0.020359855,-0.010001186,4998,0,0.024669476,-0.25433832,9.825289,4998,0
59289219,-0.03346211,-0.023844028,-0.024914555,4997,0,-0.118665524,-0.23531082,9.74795,4997,0
59309206,-0.0148624685,0.0023741722,-0.010325025,4996,0,0.07277372,-0.25668174,9.87557,4996,0
59334191,0.03165796,0.022334246,-0.008253564,4996,0,0.07321216,-0.41286036,9.910388,4996,0
59349182,0.02687222,0.021958912,-0.0031617447,4996,0,-0.07052692,-0.24237919,9.852055,4996,0
59369170,0.00826584,0.0096885525,-0.012861059,4996,0,0.101569235,-0.30261385,9.860816,4996,0
59394155,0.0008202826,0.0017820103,-0.00898032,4997,0,0.013959613,-0.24493234,9.835279,4997,0
59414143,-0.039846025,-0.013794122,0.011556649,4997,0,-0.20188943,-0.19566832,9.752928,4997,0
59429134,-0.058952793,-0.045709636,-0.011264373,4995,0,0.015197125,-0.32958215,9.816946,4995,0
59449122,-0.08033948,-0.03426768,-0.009164535,4997,0,-0.006733647,-0.26960477,9.822412,4997,0
59474106,-0.027669294,-0.012839506,-0.006323094,4997,0,0.004020186,-0.33947915,9.743744,4997,0
59489097,0.023126403,0.013683187,-0.010450065,4996,0,0.06351111,-0.32237938,9.849101,4996,0
59509085,0.03595071,0.030436365,-0.004827457,4996,0,0.057405673,-0.28532422,9.841974,4996,0
59529074,0.03366328,0.02809218,-0.012299805,4997,0,0.023996256,-0.25051832,9.850857,4997,0
59554057,-0.01988001,-0.005650046,-0.0068733026,4996,0,-0.0015084564,-0.2534547,9.828475,4996,0
59569049,-0.036439482,-0.021294149,-0.009510468,4995,0,0.031714316,-0.26138872,9.817902,4995,0
59589037,-0.05081947,-0.02779837,-0.008965794,4997,0,0.033709712,-0.26001376,9.845383,4997,0
59614025,-0.03529155,-0.013686269,-0.007331926,5001,0,0.06701962,-0.28932148,9.819467,5001,0
59629012,-0.010587847,-0.005106316,-0.0111285485,4997,0,0.033608165,-0.31568846,9.798979,4997,0
59649000,0.008895164,0.008964348,-0.00664603,4993,0,0.061840355,-0.28635016,9.828636,4993,0
59668988,0.016830744,0.011532883,-0.010949152,4997,0,0.037838973,-0.2760247,9.826095,4997,0
59693973,-0.004193037,-0.010734559,-0.008965302,4997,0,-0.0017590099,-0.27449748,9.748725,4997,0
59708966,-0.03068274,-0.0120001035,-0.0047452208,4999,0,0.02746014,-0.26477835,9.8389225,4999,0
59733948,-0.016276997,0.0098326625,-0.011365309,4996,0,0.16269843,-0.2298737,9.848927,4996,0
59753936,0.0024069448,-0.007174225,-0.004321186,4995,0,0.21297006,-0.2559995,9.915303,4995,0
59768927,0.011112053,0.0013538857,-0.008550436,4997,0,0.054525755,-0.25831464,9.91491,4997,0
59788917,-0.0141738,0.0069604586,-0.0037564551,4999,0,0.056011904,-0.22287843,9.925958,4999,0
59813900,0.013760928,0.017110635,-0.011964126,4997,0,0.07452668,-0.25189388,9.852656,4997,0
59828891,-0.00073114963,0.0032956833,0.0018265932,4997,0,0.025141729,-0.3451267,9.823288,4997,0
59848879,-0.015412158,-0.0063157952,-0.0046017333,4998,0,0.04270875,-0.31755066,9.852914,4998,0
59868868,-0.040558934,-0.022722261,-0.013572882,4999,0,0.007866186,-0.26278633,9.825644,4999,0
59893851,-0.05212261,-0.027692594,-0.0077833286,4997,0,0.028524783,-0.25697222,9.791817,4997,0
59908843,-0.027353413,-0.017120678,-0.009131191,4998,0,0.054851696,-0.2904046,9.848781,4998,0
59928829,-0.00230505,0.0020741816,-0.0076135,4996,0,0.06142661,-0.31030542,9.809279,4996,0
59953814,0.022763336,0.023102235,-0.00931607,4996,0,0.02844805,-0.28258142,9.826628,4996,0
59973802,0.018817667,0.020809196,-0.010002587,4996,0,0.015564386,-0.27660465,9.806968,4996,0
59988793,0.012674686,0.010495184,-0.008124266,4996,0,0.0012578203,-0.26015043,9.805673,4996,0
60008782,-0.025853565,-0.010119009,-0.005402876,4998,0,0.016882883,-0.24271691,9.864792,4998,0
60033766,-0.064041905,-0.035790525,-0.0071379803,4995,0,0.065150194,-0.26658857,9.806837,4995,0
60048757,-0.055511616,-0.03132439,-0.010840755,4997,0,0.08539452,-0.31852087,9.818235,4997,0
60068744,-0.020989852,-0.006848347,-0.008187771,4993,0,0.046495833,-0.33443478,9.839257,4993,0
60093730,0.043015018,0.02812823,-0.0065684402,4997,0,0.05779411,-0.30256975,9.827991,4997,0
60113718,0.029451659,0.019799497,-0.0063657444,4995,0,0.025879731,-0.25986922,9.824704,4995,0
60128708,-0.0092691425,-0.0042531556,-0.007853492,4997,0,0.002580335,-0.23455945,9.830726,4997,0
60148697,-0.04933414,-0.030258274,-0.014506274,4998,0,-0.03898693,-0.38022268,9.73636,4998,0
60173683,-0.025291473,-0.009454114,-0.013722704,4998,0,0.012540361,-0.21710125,10.006304,4998,0
60188672,0.008451916,0.023215441,-0.011828778,4997,0,0.32297617,-0.36321697,9.787629,4997,0
60208661,0.022922503,0.000314836,-0.0021206778,4994,0,-0.11341026,-0.23555112,9.69395,4994,0
60233644,-0.01477819,0.010352902,-0.0018093341,4995,0,-0.00036116678,-0.30187833,9.726207,4995,0
60253632,-0.02592527,-0.0100459615,-0.011039026,4997,0,0.07031499,-0.26796764,9.792192,4997,0
60268624,-0.029068388,8.6111766e-05,-0.0005533409,4998,0,-0.06906257,-0.278178,9.778576,4998,0
60293608,-0.011376111,-0.0007027971,-0.00075370853,4997,0,0.05605404,-0.23628639,9.800465,4997,0
60313596,-0.0201183,-0.013440112,-0.010469226,4998,0,0.028552389,-0.21722627,9.861931,4998,0
60328590,-0.024600212,-0.005931746,-0.007888677,5001,0,0.07214797,-0.27067706,9.83177,5001,0
60348574,-0.017844481,-0.011054551,-0.007753092,4997,0,0.04572574,-0.29189587,9.829537,4997,0
60373560,-0.01086743,-0.0036169821,-0.010625612,4998,0,0.021637898,-0.27717513,9.820331,4998,0
60393547,-0.0025454045,0.0025581452,-0.005711526,4997,0,0.031878147,-0.28294116,9.8295765,4997,0
60408538,0.0021128643,0.0050480445,-0.009542502,4997,0,0.040951665,-0.29160777,9.8203535,4997,0
60428526,0.0056743976,0.010139608,-0.010435181,4998,0,0.03705206,-0.25566885,9.815515,4998,0
60453510,-0.015778776,-0.006809786,-0.0063688094,4997,0,0.008719751,-0.26887512,9.806511,4997,0
60468501,-0.031454295,-0.01739598,-0.0109836655,4996,0,0.023831397,-0.24747781,9.827863,4996,0
60488489,-0.046233036,-0.022825839,-0.0052777524,4997,0,0.03183676,-0.28332987,9.852354,4997,0
60513474,-0.014614787,-0.005375608,-0.010521817,4997,0,0.075967744,-0.29885066,9.815621,4997,0
60533462,0.019386597,0.014343911,-0.0062419884,4997,0,0.054218806,-0.29182824,9.832229,4997,0
60548453,0.021221073,0.013530935,-0.006703396,4997,0,0.057856925,-0.29229975,9.8330555,4997,0
60568441,-0.0011163693,-0.0026226807,-0.009819464,4997,0,0.025808142,-0.24321535,9.809802,4997,0
60593425,-0.016968323,-0.014411649,-0.017619098,4996,0,0.068624154,-0.26298946,9.832525,4996,0
60608416,-0.00674092,0.009145594,-0.013277021,4997,0,0.03501226,-0.34207764,9.863496,4997,0
60633401,0.03531094,0.022807822,-0.008454763,4997,0,0.1274168,-0.31199604,9.776662,4997,0
60653389,0.0065179495,0.0075552636,-0.0049353014,4997,0,0.0647038,-0.25159502,9.850311,4997,0
60673377,-0.024741447,-0.0072233165,-0.011835145,4997,0,0.14173824,-0.27754834,9.844496,4997,0
60688367,-0.038370714,-0.015132409,-0.0047245054,4996,0,0.03619914,-0.26173866,9.794568,4996,0
60713353,-0.02231068,-0.0027222014,-0.0077053383,4997,0,0.10167887,-0.32024696,9.924082,4997,0
60733341,-0.010741981,-0.009906043,-0.0121615,4998,0,0.02997501,-0.31252083,9.833099,4998,0
60748331,-0.016978659,-0.0032639438,-0.005811049,4996,0,-0.0021958423,-0.2602661,9.839118,4996,0
60773316,-0.025370514,-0.015013132,-0.009453492,4997,0,-0.028351726,-0.26652068,9.871035,4997,0
60793304,-0.024668822,-0.0082104225,-0.01023822,4996,0,0.015231294,-0.2675029,9.838206,4996,0
60813292,-0.014420894,-0.004900193,-0.007464357,4997,0,0.084645666,-0.31064853,9.83266,4997,0
60828285,-0.006440519,0.0009601792,-0.008304979,5000,0,0.057499316,-0.2853241,9.815145,5000,0
60853268,0.006275497,0.010625151,-0.009806959,4998,0,0.02978448,-0.27227387,9.827288,4998,0
60873255,-0.0008917821,0.0049624704,-0.008749827,4995,0,0.04874615,-0.27086467,9.840367,4995,0
60888246,-0.011269823,-0.0028701667,-0.008260629,4997,0,0.032954507,-0.274515,9.830028,4997,0
60913231,-0.026994042,-0.017035693,-0.008574721,4997,0,0.022559468,-0.25046715,9.841118,4997,0
60933219,-0.033411194,-0.015469068,-0.009019032,4997,0,0.036673818,-0.28129396,9.824636,4997,0
60953207,-0.008865652,-0.00034819427,-0.011064933,4997,0,0.05999438,-0.317417,9.8320265,4997,0
60968198,0.0076889866,0.008611858,-0.007990904,4997,0,0.04201553,-0.29618454,9.835286,4997,0
60993182,0.004950263,0.0032079278,-0.0067227497,4997,0,0.014291198,-0.2567357,9.813774,4997,0
61013170,-0.015183625,-0.0081722345,-0.007894155,4997,0,-0.013804667,-0.25170475,9.852439,4997,0
61028161,-0.027844442,-0.015449852,-0.009878704,4997,0,0.041508023,-0.2540976,9.803593,4997,0
61053145,-0.00785184,0.010700734,-0.010647032,4991,0,0.18427438,-0.36195824,9.844533,4991,0
61073134,0.013166161,0.019488929,-0.008714493,4998,0,0.17275949,-0.29863304,9.741022,4998,0
61093121,-0.006115815,-0.0060745124,-0.0007513984,4996,0,-0.14724058,-0.2225754,9.816819,4996,0
61108112,-0.032196395,-0.012884578,-0.0030182607,4996,0,-0.038947392,-0.26898283,9.819254,4996,0
61133097,-0.033391263,-0.017544271,-0.012914982,4996,0,0.060138147,-0.33481425,9.855534,4996,0
61153085,-0.006285391,-0.0016799376,-0.0047989455,4997,0,-0.008282356,-0.2703695,9.8147,4997,0
61168076,0.002925692,0.0013470005,-0.008142177,4997,0,0.044424795,-0.27936,9.800232,4997,0
61193061,-0.009743699,-0.006421084,-0.010090174,4997,0,0.022519536,-0.28119314,9.817062,4997,0
61213050,-0.025065172,-0.008967209,-0.008428093,4999,0,0.020056158,-0.23847319,9.816901,4999,0
61233036,-0.022580061,-0.006580124,-0.010334011,4996,0,0.06365011,-0.32839808,9.821732,4996,0
61248027,-0.013632841,-0.003292286,-0.007655507,4997,0,0.040767197,-0.29795906,9.827766,4997,0
61273012,7.73314e-05,0.0030639688,-0.009141863,4997,0,0.028464863,-0.287501,9.865465,4997,0
61293000,-0.0020661517,0.0048436425,-0.009665454,4997,0,0.02501427,-0.27463,9.836324,4997,0
61307991,-0.0046488997,0.004799435,-0.010162411,4997,0,0.04584574,-0.24060406,9.804284,4997,0
61332976,-0.01794904,-0.0071373098,-0.007682406,4997,0,0.030988859,-0.24130239,9.845057,4997,0
61352964,-0.022948211,-0.009885916,-0.009812677,4998,0,0.031234547,-0.27164158,9.837778,4998,0
61367954,-0.024030931,-0.011028303,-0.008312119,4996,0,0.032195155,-0.28338027,9.852919,4996,0
61387942,-0.0075220363,-0.0034980383,-0.009755288,4997,0,0.05567342,-0.28071424,9.798986,4997,0
61412927,0.0023553658,0.005556433,-0.0074472316,4997,0,0.041435074,-0.26978,9.823157,4997,0
61432915,-0.0076226797,-0.0011092898,-0.009194737,4997,0,0.020532282,-0.25854084,9.816502,4997,0
61447906,-0.020638848,-0.009012132,-0.008799934,4998,0,0.030902328,-0.27248538,9.831875,4998,0
61472890,-0.019964054,-0.01063552,-0.008403396,4997,0,0.032897454,-0.2933589,9.81691,4997,0
61492880,0.009060904,0.010321692,-0.016591633,4998,0,0.13254707,-0.30203342,9.980864,4998,0
61507869,0.004848483,0.018447272,-0.007983122,4997,0,0.042995363,-0.25898522,9.865752,4997,0
61527858,0.012371938,0.022160288,-0.0066290996,4998,0,0.18834533,-0.34325522,10.006966,4998,0
61552842,-0.030343542,-0.02238266,-0.011772892,4997,0,0.07868218,-0.2551676,9.957902,4997,0
61572830,-0.030721154,-0.015089505,-0.009438334,4996,0,0.030341556,-0.28956115,9.670717,4996,0
61587820,-0.02191633,-0.011051736,-0.0072780047,4997,0,0.075018935,-0.22539213,9.850878,4997,0
61612809,0.0075260173,0.0031873425,-0.008904085,5001,0,-0.06341054,-0.2819157,9.754694,5001,0
61632793,-0.0037180253,0.0012176333,-0.0054961066,4997,0,0.07966721,-0.27782747,9.821116,4997,0
61647784,-0.016141206,-0.009835439,-0.011768309,4997,0,0.04807403,-0.25232056,9.882741,4997,0
61667772,-0.027456691,-0.009271467,-0.009318745,4996,0,0.06074528,-0.31242725,9.783052,4996,0
61692758,-0.013986966,-0.0034138982,-0.0077499454,4998,0,0.056530528,-0.26972482,9.819593,4998,0
61712744,-0.0040797447,0.0017977253,-0.008091207,4996,0,0.021101942,-0.27305356,9.842965,4996,0
61727736,0.0036840395,0.0046030697,-0.009544583,4998,0,0.050850403,-0.2641205,9.855941,4998,0
61752721,-0.009146832,0.0010405214,-0.008888273,4998,0,0.017845042,-0.28741086,9.832077,4998,0
61772711,-0.012982596,-0.0043754596,-0.008868474,5000,0,0.040318098,-0.2612491,9.831327,5000,0
61787699,-0.020806612,-0.007374338,-0.0071497364,4998,0,0.044377465,-0.273324,9.810601,4998,0
61807687,-0.01898502,-0.009715215,-0.008684453,4996,0,0.020903645,-0.2648069,9.804289,4996,0
61832672,-0.0077421963,-0.0043927906,-0.00849867,4997,0,0.05553163,-0.29417378,9.80226,4997,0
61852659,0.0014253639,0.0036505337,-0.0064931586,4997,0,0.05490523,-0.29079607,9.824461,4997,0
61867652,-0.0042257044,-0.00017651203,-0.008562619,4994,0,0.039865326,-0.27381238,9.82689,4994,0
