timestamp,q[0],q[1],q[2],q[3],delta_q_reset[0],delta_q_reset[1],delta_q_reset[2],delta_q_reset[3],quat_reset_counter
49670076,0.7153008,-0.00063107687,0.0026634624,0.69881135,0.9795472,1.9577409e-10,3.1333455e-10,0.20121479,3
49675074,0.7152988,-0.0006359637,0.0026610151,0.69881344,0.9795472,1.9577409e-10,3.1333455e-10,0.20121479,3
49690063,0.71527874,-0.0006215332,0.002657841,0.698834,0.9795472,1.9577409e-10,3.1333455e-10,0.20121479,3
49710052,0.71537703,-0.0006255398,0.002660611,0.6987333,0.9795472,1.9577409e-10,3.1333455e-10,0.20121479,3
49730040,0.71523476,-0.00062110537,0.0026403505,0.6988791,0.9795472,1.9577409e-10,3.1333455e-10,0.20121479,3
49750029,0.715319,-0.0006359401,0.0026642887,0.6987928,0.9795472,1.9577409e-10,3.1333455e-10,0.20121479,3
49770014,0.7153106,-0.00063073257,0.0026370003,0.6988015,0.9795472,1.9577409e-10,3.1333455e-10,0.20121479,3
49790003,0.7152544,-0.0006375482,0.0026808172,0.69885874,0.9795472,1.9577409e-10,3.1333455e-10,0.20121479,3
49809991,0.7153413,-0.00062481395,0.0026520349,0.69876987,0.9795472,1.9577409e-10,3.1333455e-10,0.20121479,3
49829978,0.7152471,-0.0006059033,0.0026655272,0.69886637,0.9795472,1.9577409e-10,3.1333455e-10,0.20121479,3
49849966,0.7153234,-0.00062082463,0.002711234,0.6987881,0.9795472,1.9577409e-10,3.1333455e-10,0.20121479,3
49869954,0.71527874,-0.0006025352,0.0026297455,0.69883406,0.9795472,1.9577409e-10,3.1333455e-10,0.20121479,3
49889943,0.7153044,-0.0006282522,0.0026630114,0.6988077,0.9795472,1.9577409e-10,3.1333455e-10,0.20121479,3
49909931,0.7153092,-0.0006174708,0.0026654913,0.6988028,0.9795472,1.9577409e-10,3.1333455e-10,0.20121479,3
49929918,0.71529037,-0.00062083517,0.002647637,0.6988221,0.9795472,1.9577409e-10,3.1333455e-10,0.20121479,3
49949906,0.7153189,-0.00062407425,0.0026399745,0.69879293,0.9795472,1.9577409e-10,3.1333455e-10,0.20121479,3
49969896,0.71528906,-0.00064134144,0.0026312347,0.69882345,0.9795472,1.9577409e-10,3.1333455e-10,0.20121479,3
49989881,0.71529454,-0.00064028497,0.002625888,0.69881797,0.9795472,1.9577409e-10,3.1333455e-10,0.20121479,3
50009871,0.71532977,-0.000636387,0.0026494018,0.6987817,0.9795472,1.9577409e-10,3.1333455e-10,0.20121479,3
50034853,0.7152665,-0.0006279205,0.0026399465,0.6988466,0.9795472,1.9577409e-10,3.1333455e-10,0.20121479,3
50049847,0.715344,-0.00065230334,0.0026370143,0.69876724,0.9795472,1.9577409e-10,3.1333455e-10,0.20121479,3
50069833,0.71530926,-0.00063493225,0.0026533592,0.6988028,0.9795472,1.9577409e-10,3.1333455e-10,0.20121479,3
50094818,0.71530735,-0.00062359334,0.0026329001,0.6988048,0.9795472,1.9577409e-10,3.1333455e-10,0.20121479,3
50109810,0.7153168,-0.00064590794,0.0026375914,0.698795,0.9795472,1.9577409e-10,3.1333455e-10,0.20121479,3
50129798,0.71528816,-0.00063218595,0.002630727,0.6988244,0.9795472,1.9577409e-10,3.1333455e-10,0.20121479,3
50149784,0.7153139,-0.0006216461,0.002622057,0.6987981,0.9795472,1.9577409e-10,3.1333455e-10,0.20121479,3
50174770,0.71531886,-0.00064068014,0.0025779696,0.6987932,0.9795472,1.9577409e-10,3.1333455e-10,0.20121479,3
50189759,0.7153184,-0.00065843976,0.0025681064,0.6987937,0.9795472,1.9577409e-10,3.1333455e-10,0.20121479,3
50209747,0.7153411,-0.0006168919,0.002511905,0.6987707,0.9795472,1.9577409e-10,3.1333455e-10,0.20121479,3
50234731,0.7153282,-0.00063928624,0.0025237903,0.6987839,0.9795472,1.9577409e-10,3.1333455e-10,0.20121479,3
50249722,0.7152631,-0.0006276713,0.002527349,0.6988504,0.9795472,1.9577409e-10,3.1333455e-10,0.20121479,3
50269712,0.71535796,-0.00068472023,0.002587419,0.69875306,0.9795472,1.9577409e-10,3.1333455e-10,0.20121479,3
50289699,0.71532553,-0.0006252985,0.0025802164,0.6987864,0.9795472,1.9577409e-10,3.1333455e-10,0.20121479,3
50314684,0.71530014,-0.0006614104,0.0025704484,0.6988124,0.9795472,1.9577409e-10,3.1333455e-10,0.20121479,3
50329677,0.71544784,-0.00073377584,0.002575118,0.6986611,0.9795472,1.9577409e-10,3.1333455e-10,0.20121479,3
50349662,0.7152598,-0.0005978622,0.0025634337,0.69885385,0.9795472,1.9577409e-10,3.1333455e-10,0.20121479,3
50374647,0.71526235,-0.0006601347,0.0025564735,0.69885105,0.9795472,1.9577409e-10,3.1333455e-10,0.20121479,3
50389642,0.71548915,-0.0006421892,0.0024933738,0.6986191,0.9795472,1.9577409e-10,3.1333455e-10,0.20121479,3
50409626,0.71516407,-0.0005772842,0.0025916004,0.69895166,0.9795472,1.9577409e-10,3.1333455e-10,0.20121479,3
50434610,0.71519655,-0.0005842701,0.0025831093,0.6989184,0.9795472,1.9577409e-10,3.1333455e-10,0.20121479,3
50449601,0.7154029,-0.0006465062,0.0026189692,0.698707,0.9795472,1.9577409e-10,3.1333455e-10,0.20121479,3
50469588,0.71519595,-0.0006606595,0.002506693,0.69891924,0.9795472,1.9577409e-10,3.1333455e-10,0.20121479,3
50489576,0.7155853,-0.00072249334,0.002462369,0.69852066,0.9795472,1.9577409e-10,3.1333455e-10,0.20121479,3
50514561,0.715556,-0.0007001351,0.002472531,0.6985507,0.9795472,1.9577409e-10,3.1333455e-10,0.20121479,3
50529553,0.715366,-0.00064412615,0.00251582,0.69874513,0.9795472,1.9577409e-10,3.1333455e-10,0.20121479,3
50549541,0.71561927,-0.0006475417,0.0026267453,0.6984854,0.9795472,1.9577409e-10,3.1333455e-10,0.20121479,3
50569528,0.7150805,-0.0005827363,0.002588458,0.69903713,0.9795472,1.9577409e-10,3.1333455e-10,0.20121479,3
50589517,0.7156976,-0.00075142336,0.002481767,0.69840556,0.9795472,1.9577409e-10,3.1333455e-10,0.20121479,3
50609506,0.71532655,-0.00061666244,0.002507903,0.6987856,0.9795472,1.9577409e-10,3.1333455e-10,0.20121479,3
50629491,0.71531,-0.000697101,0.0024179642,0.6988028,0.9795472,1.9577409e-10,3.1333455e-10,0.20121479,3
50654476,0.7157193,-0.00068684516,0.00244612,0.6983835,0.9795472,1.9577409e-10,3.1333455e-10,0.20121479,3
50669468,0.71500236,-0.0005290307,0.002643293,0.6991169,0.9795472,1.9577409e-10,3.1333455e-10,0.20121479,3
50689454,0.71571344,-0.0007317943,0.0026067884,0.6983888,0.9795472,1.9577409e-10,3.1333455e-10,0.20121479,3
50709442,0.7152478,-0.0005948064,0.00255706,0.698866,0.9795472,1.9577409e-10,3.1333455e-10,0.20121479,3
50729432,0.7153356,-0.0007020277,0.002378957,0.6987767,0.9795472,1.9577409e-10,3.1333455e-10,0.20121479,3
50749419,0.7157788,-0.00070462923,0.002408817,0.6983226,0.9795472,1.9577409e-10,3.1333455e-10,0.20121479,3
50769407,0.7149527,-0.00051441864,0.0025734494,0.69916797,0.9795472,1.9577409e-10,3.1333455e-10,0.20121479,3
50794393,0.71542364,-0.00056367554,0.0025691332,0.69868606,0.9795472,1.9577409e-10,3.1333455e-10,0.20121479,3
50809381,0.71512854,-0.0005420827,0.0026436287,0.69898784,0.9795472,1.9577409e-10,3.1333455e-10,0.20121479,3
50829370,0.7154449,-0.00069107144,0.0024212834,0.6986647,0.9795472,1.9577409e-10,3.1333455e-10,0.20121479,3
50849358,0.7157519,-0.0007002782,0.0024690137,0.69835,0.9795472,1.9577409e-10,3.1333455e-10,0.20121479,3
50869346,0.7150162,-0.0005455147,0.0025342938,0.6991032,0.9795472,1.9577409e-10,3.1333455e-10,0.20121479,3
50889332,0.71601,-0.0006947349,0.0025288644,0.6980852,0.9795472,1.9577409e-10,3.1333455e-10,0.20121479,3
50909320,0.7149855,-0.00048513312,0.0026475363,0.6991342,0.9795472,1.9577409e-10,3.1333455e-10,0.20121479,3
50934305,0.71518296,-0.00059164775,0.0025721793,0.6989324,0.9795472,1.9577409e-10,3.1333455e-10,0.20121479,3
50949297,0.71546924,-0.0006549709,0.00250624,0.69863945,0.9795472,1.9577409e-10,3.1333455e-10,0.20121479,3
50969284,0.71519625,-0.00064466306,0.002451092,0.6989192,0.9795472,1.9577409e-10,3.1333455e-10,0.20121479,3
50989272,0.715959,-0.0007718226,0.002355946,0.69813794,0.9795472,1.9577409e-10,3.1333455e-10,0.20121479,3
51009259,0.71489435,-0.00051418535,0.0025690503,0.69922763,0.9795472,1.9577409e-10,3.1333455e-10,0.20121479,3
51029248,0.71597296,-0.0007180931,0.0025730822,0.6981229,0.9795472,1.9577409e-10,3.1333455e-10,0.20121479,3
51049236,0.7151243,-0.00053060404,0.0025471942,0.6989925,0.9795472,1.9577409e-10,3.1333455e-10,0.20121479,3
51074220,0.715052,-0.0005933782,0.0025549107,0.69906634,0.9795472,1.9577409e-10,3.1333455e-10,0.20121479,3
51089211,0.7156913,-0.0006856006,0.0024144459,0.6984123,0.9795472,1.9577409e-10,3.1333455e-10,0.20121479,3
51109199,0.7150744,-0.00061179436,0.0024381143,0.69904387,0.9795472,1.9577409e-10,3.1333455e-10,0.20121479,3
51129187,0.7159954,-0.0007421005,0.0024464047,0.6981004,0.9795472,1.9577409e-10,3.1333455e-10,0.20121479,3
51149174,0.714877,-0.00048540768,0.0025395749,0.69924545,0.9795472,1.9577409e-10,3.1333455e-10,0.20121479,3
51169165,0.7159231,-0.0006877103,0.0025285692,0.69817436,0.9795472,1.9577409e-10,3.1333455e-10,0.20121479,3
51189150,0.7152799,-0.00062656816,0.0024549689,0.6988336,0.9795472,1.9577409e-10,3.1333455e-10,0.20121479,3
51214136,0.71498257,-0.0006406561,0.0024873482,0.6991376,0.9795472,1.9577409e-10,3.1333455e-10,0.20121479,3
51229127,0.71579903,-0.0006510241,0.002375402,0.69830203,0.9795472,1.9577409e-10,3.1333455e-10,0.20121479,3
51249114,0.7150312,-0.0005790708,0.0024519009,0.6990881,0.9795472,1.9577409e-10,3.1333455e-10,0.20121479,3
51274098,0.7158086,-0.0006754704,0.002446567,0.69829196,0.9795472,1.9577409e-10,3.1333455e-10,0.20121479,3
51289091,0.7149254,-0.0005705497,0.0025016738,0.69919604,0.9795472,1.9577409e-10,3.1333455e-10,0.20121479,3
51309082,0.7158077,-0.00072997285,0.0024226988,0.698293,0.9795472,1.9577409e-10,3.1333455e-10,0.20121479,3
51329066,0.71541214,-0.00061721896,0.0024338786,0.6986982,0.9795472,1.9577409e-10,3.1333455e-10,0.20121479,3
51354050,0.7148561,-0.00058732193,0.0023910706,0.6992673,0.9795472,1.9577409e-10,3.1333455e-10,0.20121479,3
51369040,0.7159637,-0.00069727737,0.0024021955,0.69813305,0.9795472,1.9577409e-10,3.1333455e-10,0.20121479,3
51389029,0.7148981,-0.00055623124,0.0024674658,0.6992241,0.9795472,1.9577409e-10,3.1333455e-10,0.20121479,3
51414014,0.71581113,-0.0006479157,0.0025494527,0.698289,0.9795472,1.9577409e-10,3.1333455e-10,0.20121479,3
51429006,0.7149517,-0.0005763549,0.002480624,0.69916934,0.9795472,1.9577409e-10,3.1333455e-10,0.20121479,3
51448992,0.7158593,-0.000742667,0.0023112465,0.69824034,0.9795472,1.9577409e-10,3.1333455e-10,0.20121479,3
51468980,0.715523,-0.0005778911,0.0023907374,0.69858485,0.9795472,1.9577409e-10,3.1333455e-10,0.20121479,3
51493967,0.7148874,-0.0005682388,0.0023364897,0.69923556,0.9795472,1.9577409e-10,3.1333455e-10,0.20121479,3
51508955,0.71598786,-0.00063417875,0.002494061,0.698108,0.9795472,1.9577409e-10,3.1333455e-10,0.20121479,3
51528944,0.7149463,-0.00058818207,0.0024551884,0.69917476,0.9795472,1.9577409e-10,3.1333455e-10,0.20121479,3
51553927,0.7159705,-0.0006746908,0.0025195275,0.6981256,0.9795472,1.9577409e-10,3.1333455e-10,0.20121479,3
51568919,0.714957,-0.00056563737,0.0023939044,0.6991642,0.9795472,1.9577409e-10,3.1333455e-10,0.20121479,3
51588906,0.71587586,-0.00069138495,0.002381268,0.69822323,0.9795472,1.9577409e-10,3.1333455e-10,0.20121479,3
51608894,0.71534824,-0.00056509586,0.0024187414,0.6987637,0.9795472,1.9577409e-10,3.1333455e-10,0.20121479,3
51633882,0.7148044,-0.0004715137,0.0024973056,0.69931984,0.9795472,1.9577409e-10,3.1333455e-10,0.20121479,3
51648870,0.7160409,-0.0006972647,0.0024584574,0.6980537,0.9795472,1.9577409e-10,3.1333455e-10,0.20121479,3
51668859,0.7149257,-0.0006384053,0.0023088898,0.69919634,0.9795472,1.9577409e-10,3.1333455e-10,0.20121479,3
51693844,0.7160596,-0.0007939901,0.0023423326,0.69803476,0.9795472,1.9577409e-10,3.1333455e-10,0.20121479,3
51708833,0.7148481,-0.0005637257,0.0023670152,0.6992757,0.9795472,1.9577409e-10,3.1333455e-10,0.20121479,3
51728823,0.71607924,-0.0006418178,0.002535889,0.6980142,0.9795472,1.9577409e-10,3.1333455e-10,0.20121479,3
51748809,0.7152877,-0.0006177455,0.0023955642,0.69882584,0.9795472,1.9577409e-10,3.1333455e-10,0.20121479,3
51773795,0.71501845,-0.00054212246,0.0025190103,0.6991009,0.9795472,1.9577409e-10,3.1333455e-10,0.20121479,3
51788786,0.71588796,-0.00070314883,0.0024047198,0.6982107,0.9795472,1.9577409e-10,3.1333455e-10,0.20121479,3
51808774,0.7149627,-0.00056427036,0.0022296289,0.6991589,0.9795472,1.9577409e-10,3.1333455e-10,0.20121479,3
51833760,0.7161903,-0.0007937689,0.0022567117,0.69790107,0.9795472,1.9577409e-10,3.1333455e-10,0.20121479,3
51848750,0.71471506,-0.0005756187,0.0023898103,0.69941145,0.9795472,1.9577409e-10,3.1333455e-10,0.20121479,3
51868737,0.71628845,-0.0007411054,0.0024947298,0.6977995,0.9795472,1.9577409e-10,3.1333455e-10,0.20121479,3
51888724,0.7150109,-0.0006356732,0.0023355735,0.69910914,0.9795472,1.9577409e-10,3.1333455e-10,0.20121479,3
51908712,0.7158967,-0.0006913831,0.002303143,0.6982021,0.9795472,1.9577409e-10,3.1333455e-10,0.20121479,3
51928702,0.7156534,-0.0006408289,0.0023678537,0.69845134,0.9795472,1.9577409e-10,3.1333455e-10,0.20121479,3
51948689,0.71524376,-0.0004983895,0.0025531324,0.6988703,0.9795472,1.9577409e-10,3.1333455e-10,0.20121479,3
51973673,0.71632195,-0.0006597243,0.0024881181,0.6977653,0.9795472,1.9577409e-10,3.1333455e-10,0.20121479,3
51988663,0.7147988,-0.00053548405,0.002398871,0.6993259,0.9795472,1.9577409e-10,3.1333455e-10,0.20121479,3
52008653,0.71645826,-0.0007947651,0.002311509,0.6976257,0.9795472,1.9577409e-10,3.1333455e-10,0.20121479,3
52028641,0.71470535,-0.00048378314,0.0023237313,0.6994217,0.9795472,1.9577409e-10,3.1333455e-10,0.20121479,3
52053623,0.7156846,-0.0006988935,0.0023197387,0.6984195,0.9795472,1.9577409e-10,3.1333455e-10,0.20121479,3
52068614,0.7149834,-0.00055637275,0.0024066065,0.6991371,0.9795472,1.9577409e-10,3.1333455e-10,0.20121479,3
52088602,0.7158697,-0.00066632294,0.0023684385,0.69822955,0.9795472,1.9577409e-10,3.1333455e-10,0.20121479,3
52113590,0.71625686,-0.0006777471,0.0024860469,0.69783205,0.9795472,1.9577409e-10,3.1333455e-10,0.20121479,3
52128579,0.7152356,-0.00062486145,0.0023597411,0.6988793,0.9795472,1.9577409e-10,3.1333455e-10,0.20121479,3
52148566,0.7162048,-0.000763897,0.0023476193,0.6978858,0.9795472,1.9577409e-10,3.1333455e-10,0.20121479,3
52168553,0.7146898,-0.0004457763,0.002495038,0.6994371,0.9795472,1.9577409e-10,3.1333455e-10,0.20121479,3
52193538,0.71632344,-0.00066419673,0.002507583,0.6977636,0.9795472,1.9577409e-10,3.1333455e-10,0.20121479,3
52208530,0.71455157,-0.0005294618,0.0022560076,0.69957906,0.9795472,1.9577409e-10,3.1333455e-10,0.20121479,3
52228518,0.7165064,-0.00076436065,0.0022183731,0.6975765,0.9795472,1.9577409e-10,3.1333455e-10,0.20121479,3
52253502,0.71555686,-0.0006302965,0.00228965,0.6985505,0.9795472,1.9577409e-10,3.1333455e-10,0.20121479,3
52268492,0.71593994,-0.00066421914,0.002471238,0.6981573,0.9795472,1.9577409e-10,3.1333455e-10,0.20121479,3
52288488,0.7154557,-0.0005845223,0.0024045138,0.69865376,0.9795472,1.9577409e-10,3.1333455e-10,0.20121479,3
52308476,0.7152659,-0.00071998953,0.002157459,0.6988487,0.9795472,1.9577409e-10,3.1333455e-10,0.20121479,3
52333453,0.71617424,-0.0007763082,0.0022048843,0.6979176,0.9795472,1.9577409e-10,3.1333455e-10,0.20121479,3
52348444,0.71493423,-0.0004844155,0.0024531686,0.6991873,0.9795472,1.9577409e-10,3.1333455e-10,0.20121479,3
52368432,0.71606433,-0.0007240209,0.0024619736,0.69802964,0.9795472,1.9577409e-10,3.1333455e-10,0.20121479,3
52393417,0.71561736,-0.00069576496,0.0023955212,0.6984882,0.9795472,1.9577409e-10,3.1333455e-10,0.20121479,3
52408408,0.7156672,-0.0007628491,0.0021865976,0.6984377,0.9795472,1.9577409e-10,3.1333455e-10,0.20121479,3
52428396,0.71569586,-0.0005985687,0.0023525176,0.6984079,0.9795472,1.9577409e-10,3.1333455e-10,0.20121479,3
52453380,0.71508956,-0.0005394629,0.0024021375,0.6990286,0.9795472,1.9577409e-10,3.1333455e-10,0.20121479,3
52468371,0.7159715,-0.0006948116,0.002303697,0.69812536,0.9795472,1.9577409e-10,3.1333455e-10,0.20121479,3
52488360,0.71516544,-0.0006777669,0.0021455246,0.6989516,0.9795472,1.9577409e-10,3.1333455e-10,0.20121479,3
52508347,0.7158097,-0.00064057636,0.0023682793,0.6982911,0.9795472,1.9577409e-10,3.1333455e-10,0.20121479,3
52533331,0.71590275,-0.0006499402,0.002376813,0.69819576,0.9795472,1.9577409e-10,3.1333455e-10,0.20121479,3
52553319,0.71507293,-0.00042472017,0.0024338178,0.69904554,0.9795472,1.9577409e-10,3.1333455e-10,0.20121479,3
52568311,0.7158914,-0.0007731728,0.0021639112,0.6982079,0.9795472,1.9577409e-10,3.1333455e-10,0.20121479,3
52593295,0.715269,-0.00060742977,0.0022475524,0.69884545,0.9795472,1.9577409e-10,3.1333455e-10,0.20121479,3
52608289,0.7158349,-0.00051377114,0.002499835,0.69826496,0.9795472,1.9577409e-10,3.1333455e-10,0.20121479,3
52628275,0.7153515,-0.0006841239,0.0022403342,0.6987609,0.9795472,1.9577409e-10,3.1333455e-10,0.20121479,3
52653258,0.7151601,-0.0006364705,0.0022055353,0.69895697,0.9795472,1.9577409e-10,3.1333455e-10,0.20121479,3
52673246,0.7158999,-0.0007998211,0.0021943925,0.6981991,0.9795472,1.9577409e-10,3.1333455e-10,0.20121479,3
52693234,0.715203,-0.00053710275,0.0023818684,0.6989126,0.9795472,1.9577409e-10,3.1333455e-10,0.20121479,3
52708225,0.7157222,-0.000674007,0.002113092,0.6983816,0.9795472,1.9577409e-10,3.1333455e-10,0.20121479,3
52733209,0.7153555,-0.0005617005,0.0018070337,0.6987581,0.9795472,1.9577409e-10,3.1333455e-10,0.20121479,3
52753197,0.71554863,-0.0012222534,0.0012891921,0.6985607,0.9795472,1.9577409e-10,3.1333455e-10,0.20121479,3
52768189,0.7152612,-0.0010730694,0.000897516,0.6988559,0.9795472,1.9577409e-10,3.1333455e-10,0.20121479,3
52788176,0.7159157,-0.0021516006,1.752695e-05,0.6981835,0.9795472,1.9577409e-10,3.1333455e-10,0.20121479,3
52813162,0.7156993,-0.0025167393,-0.0019551301,0.69840133,0.9795472,1.9577409e-10,3.1333455e-10,0.20121479,3
52833148,0.715566,-0.0023733203,-0.003311624,0.69853336,0.9795472,1.9577409e-10,3.1333455e-10,0.20121479,3
52848140,0.71537936,-0.0031015151,-0.0046979967,0.6987137,0.9795472,1.9577409e-10,3.1333455e-10,0.20121479,3
52873124,0.71547854,-0.0034803636,-0.006353033,0.6985972,0.9795472,1.9577409e-10,3.1333455e-10,0.20121479,3
52893112,0.7151684,-0.0026777596,-0.007288731,0.69890916,0.9795472,1.9577409e-10,3.1333455e-10,0.20121479,3
52908103,0.71507156,-0.0019180198,-0.008054462,0.6990023,0.9795472,1.9577409e-10,3.1333455e-10,0.20121479,3
52928092,0.71478456,-0.0014353318,-0.008487392,0.69929177,0.9795472,1.9577409e-10,3.1333455e-10,0.20121479,3
52953076,0.7145638,4.981339e-05,-0.008595867,0.69951755,0.9795472,1.9577409e-10,3.1333455e-10,0.20121479,3
52973063,0.7143453,0.0011378502,-0.009367199,0.69972986,0.9795472,1.9577409e-10,3.1333455e-10,0.20121479,3
52988054,0.7146668,0.0016407652,-0.009968671,0.6993922,0.9795472,1.9577409e-10,3.1333455e-10,0.20121479,3
53013040,0.714725,0.0017306578,-0.011033357,0.69931644,0.9795472,1.9577409e-10,3.1333455e-10,0.20121479,3
53033027,0.7150989,0.001795973,-0.011740215,0.69892246,0.9795472,1.9577409e-10,3.1333455e-10,0.20121479,3
53048021,0.71522516,0.0013305373,-0.012850407,0.6987747,0.9795472,1.9577409e-10,3.1333455e-10,0.20121479,3
53068005,0.7157857,0.00046971207,-0.014912182,0.69816065,0.9795472,1.9577409e-10,3.1333455e-10,0.20121479,3
53092992,0.71594834,2.2753834e-06,-0.017962867,0.69792217,0.9795472,1.9577409e-10,3.1333455e-10,0.20121479,3
53112981,0.71629983,-0.00016922457,-0.01923689,0.69752747,0.9795472,1.9577409e-10,3.1333455e-10,0.20121479,3
53127969,0.71656424,-0.00067685865,-0.02075098,0.6972121,0.9795472,1.9577409e-10,3.1333455e-10,0.20121479,3
53152954,0.7169004,-0.0025776317,-0.023591986,0.69677156,0.9795472,1.9577409e-10,3.1333455e-10,0.20121479,3
53172943,0.7170291,-0.001727987,-0.025111498,0.6965887,0.9795472,1.9577409e-10,3.1333455e-10,0.20121479,3
53187932,0.7172231,-0.0007891323,-0.026181854,0.69635123,0.9795472,1.9577409e-10,3.1333455e-10,0.20121479,3
53212917,0.7174656,0.0011569469,-0.028314846,0.6960174,0.9795472,1.9577409e-10,3.1333455e-10,0.20121479,3
53232907,0.71727115,0.0041092644,-0.030804336,0.6961009,0.9795472,1.9577409e-10,3.1333455e-10,0.20121479,3
53247895,0.7171888,0.006304681,-0.03308352,0.6960647,0.9795472,1.9577409e-10,3.1333455e-10,0.20121479,3
53267883,0.7169038,0.007557716,-0.035767846,0.69621295,0.9795472,1.9577409e-10,3.1333455e-10,0.20121479,3
53292868,0.71675676,0.006199895,-0.038184065,0.6962494,0.9795472,1.9577409e-10,3.1333455e-10,0.20121479,3
53312858,0.7165666,0.004368585,-0.04081155,0.69631004,0.9795472,1.9577409e-10,3.1333455e-10,0.20121479,3
53327847,0.7162742,0.0041924473,-0.04351232,0.6964485,0.9795472,1.9577409e-10,3.1333455e-10,0.20121479,3
53352832,0.7158974,0.0053771026,-0.04878623,0.69647825,0.9795472,1.9577409e-10,3.1333455e-10,0.20121479,3
53372821,0.7156008,0.006803557,-0.05228828,0.69651645,0.9795472,1.9577409e-10,3.1333455e-10,0.20121479,3
53392809,0.715333,0.0074415957,-0.054502275,0.6966153,0.9795472,1.9577409e-10,3.1333455e-10,0.20121479,3
53407798,0.7153047,0.0072331955,-0.055417076,0.69657445,0.9795472,1.9577409e-10,3.1333455e-10,0.20121479,3
53432784,0.71528095,0.006003889,-0.056900732,0.6964908,0.9795472,1.9577409e-10,3.1333455e-10,0.20121479,3
53452771,0.7151,0.0054588807,-0.057560805,0.69662696,0.9795472,1.9577409e-10,3.1333455e-10,0.20121479,3
53467762,0.71509284,0.005359005,-0.058236197,0.6965789,0.9795472,1.9577409e-10,3.1333455e-10,0.20121479,3
53492747,0.71511555,0.0074038347,-0.057900995,0.69656473,0.9795472,1.9577409e-10,3.1333455e-10,0.20121479,3
53512736,0.71513814,0.0096482225,-0.05687971,0.6965983,0.9795472,1.9577409e-10,3.1333455e-10,0.20121479,3
53532723,0.7149461,0.010442697,-0.05563275,0.6968845,0.9795472,1.9577409e-10,3.1333455e-10,0.20121479,3
53547713,0.7151029,0.010612494,-0.054432612,0.69681585,0.9795472,1.9577409e-10,3.1333455e-10,0.20121479,3
53572698,0.71545,0.010312555,-0.05237582,0.6966217,0.9795472,1.9577409e-10,3.1333455e-10,0.20121479,3
53587690,0.7155145,0.009530837,-0.0509941,0.69666916,0.9795472,1.9577409e-10,3.1333455e-10,0.20121479,3
53607677,0.71592623,0.009001443,-0.048576664,0.69642586,0.9795472,1.9577409e-10,3.1333455e-10,0.20121479,3
53632662,0.71631724,0.008399628,-0.04701479,0.69613844,0.9795472,1.9577409e-10,3.1333455e-10,0.20121479,3
53652651,0.71635044,0.009607312,-0.045658763,0.6961789,0.9795472,1.9577409e-10,3.1333455e-10,0.20121479,3
53672637,0.7165275,0.008470252,-0.044584274,0.69608104,0.9795472,1.9577409e-10,3.1333455e-10,0.20121479,3
53687628,0.7166658,0.008541005,-0.044149917,0.6959655,0.9795472,1.9577409e-10,3.1333455e-10,0.20121479,3
53712613,0.7167198,0.0066386675,-0.04177689,0.69607717,0.9795472,1.9577409e-10,3.1333455e-10,0.20121479,3
53732601,0.7168497,0.0058723474,-0.037736688,0.69618106,0.9795472,1.9577409e-10,3.1333455e-10,0.20121479,3
53747592,0.71699816,0.0052522114,-0.034441277,0.69620395,0.9795472,1.9577409e-10,3.1333455e-10,0.20121479,3
53772576,0.7169028,0.0035076991,-0.030612955,0.6964919,0.9795472,1.9577409e-10,3.1333455e-10,0.20121479,3
53792565,0.7169036,0.0033697756,-0.027824836,0.69660866,0.9795472,1.9577409e-10,3.1333455e-10,0.20121479,3
53812552,0.7169962,0.0022453852,-0.025346985,0.69661254,0.9795472,1.9577409e-10,3.1333455e-10,0.20121479,3
53827543,0.7170385,0.00240499,-0.022843877,0.69665504,0.9795472,1.9577409e-10,3.1333455e-10,0.20121479,3
53852528,0.71679235,0.0027152784,-0.019069782,0.69702065,0.9795472,1.9577409e-10,3.1333455e-10,0.20121479,3
53872516,0.71652776,0.0016565239,-0.016029434,0.6973725,0.9795472,1.9577409e-10,3.1333455e-10,0.20121479,3
53887506,0.716487,0.00092735986,-0.014330758,0.6974527,0.9795472,1.9577409e-10,3.1333455e-10,0.20121479,3
53912492,0.71628636,-0.00019004142,-0.01423513,0.6976613,0.9795472,1.9577409e-10,3.1333455e-10,0.20121479,3
53932479,0.71589386,-0.001951934,-0.014891331,0.6980476,0.9795472,1.9577409e-10,3.1333455e-10,0.20121479,3
53952467,0.7158777,-0.0038747594,-0.0153260445,0.6980468,0.9795472,1.9577409e-10,3.1333455e-10,0.20121479,3
53972455,0.7157419,-0.004402909,-0.0154932225,0.6981793,0.9795472,1.9577409e-10,3.1333455e-10,0.20121479,3
53992443,0.71551925,-0.0033830176,-0.015367046,0.6984158,0.9795472,1.9577409e-10,3.1333455e-10,0.20121479,3
54012431,0.7153412,-0.004267318,-0.01640775,0.6985696,0.9795472,1.9577409e-10,3.1333455e-10,0.20121479,3
54027422,0.7154706,-0.006066969,-0.017382981,0.69840026,0.9795472,1.9577409e-10,3.1333455e-10,0.20121479,3
54052406,0.71517646,-0.0065433946,-0.0197481,0.6986343,0.9795472,1.9577409e-10,3.1333455e-10,0.20121479,3
54072394,0.71503735,-0.0069852676,-0.020486103,0.6987512,0.9795472,1.9577409e-10,3.1333455e-10,0.20121479,3
54092382,0.7151506,-0.0077977204,-0.02122738,0.6986046,0.9795472,1.9577409e-10,3.1333455e-10,0.20121479,3
54112370,0.7150259,-0.008089462,-0.022459827,0.69869035,0.9795472,1.9577409e-10,3.1333455e-10,0.20121479,3
54132358,0.7148597,-0.009678475,-0.026280008,0.6987069,0.9795472,1.9577409e-10,3.1333455e-10,0.20121479,3
54152349,0.7145418,-0.00864147,-0.02940747,0.6989211,0.9795472,1.9577409e-10,3.1333455e-10,0.20121479,3
54172334,0.7144695,-0.008048044,-0.031719506,0.69890094,0.9795472,1.9577409e-10,3.1333455e-10,0.20121479,3
54192321,0.71457094,-0.006424934,-0.032955915,0.69875675,0.9795472,1.9577409e-10,3.1333455e-10,0.20121479,3
54212309,0.71425647,-0.0053765867,-0.035003785,0.69898754,0.9795472,1.9577409e-10,3.1333455e-10,0.20121479,3
54232297,0.7141456,-0.0062348517,-0.03717949,0.6989814,0.9795472,1.9577409e-10,3.1333455e-10,0.20121479,3
54252284,0.7140198,-0.0065382305,-0.041000634,0.6988935,0.9795472,1.9577409e-10,3.1333455e-10,0.20121479,3
54272272,0.7141039,-0.0068400344,-0.042870957,0.6986924,0.9795472,1.9577409e-10,3.1333455e-10,0.20121479,3
54292261,0.71398634,-0.0051671476,-0.043438114,0.6987918,0.9795472,1.9577409e-10,3.1333455e-10,0.20121479,3
54312248,0.71397805,-0.0033141135,-0.043644037,0.6987988,0.9795472,1.9577409e-10,3.1333455e-10,0.20121479,3
54332236,0.7139204,-0.0026042722,-0.04587469,0.6987177,0.9795472,1.9577409e-10,3.1333455e-10,0.20121479,3
54352224,0.713892,-0.0017253533,-0.048086107,0.6986008,0.9795472,1.9577409e-10,3.1333455e-10,0.20121479,3
54372212,0.7137347,-0.0015232282,-0.049699213,0.6986491,0.9795472,1.9577409e-10,3.1333455e-10,0.20121479,3
54392199,0.7136733,0.001323096,-0.049479473,0.69872785,0.9795472,1.9577409e-10,3.1333455e-10,0.20121479,3
54412187,0.7138032,0.0020994814,-0.049233664,0.69861054,0.9795472,1.9577409e-10,3.1333455e-10,0.20121479,3
54432175,0.7138929,0.0041365363,-0.049331233,0.6985029,0.9795472,1.9577409e-10,3.1333455e-10,0.20121479,3
54452163,0.71368873,0.0040184744,-0.05045424,0.69863206,0.9795472,1.9577409e-10,3.1333455e-10,0.20121479,3
54472151,0.71355575,0.0053151823,-0.050755616,0.6987373,0.9795472,1.9577409e-10,3.1333455e-10,0.20121479,3
54492139,0.7137524,0.004660694,-0.04966559,0.6986196,0.9795472,1.9577409e-10,3.1333455e-10,0.20121479,3
54512126,0.7136858,0.0051420424,-0.048187684,0.69878757,0.9795472,1.9577409e-10,3.1333455e-10,0.20121479,3
54532114,0.7135395,0.0061454037,-0.04647039,0.6990452,0.9795472,1.9577409e-10,3.1333455e-10,0.20121479,3
54552102,0.7135819,0.007278242,-0.045531422,0.69905275,0.9795472,1.9577409e-10,3.1333455e-10,0.20121479,3
54572090,0.7135697,0.009167249,-0.045062095,0.6990735,0.9795472,1.9577409e-10,3.1333455e-10,0.20121479,3
54592083,0.7134024,0.009193765,-0.044139348,0.6993028,0.9795472,1.9577409e-10,3.1333455e-10,0.20121479,3
54612067,0.71336454,0.0081100045,-0.04306829,0.6994216,0.9795472,1.9577409e-10,3.1333455e-10,0.20121479,3
54632053,0.71346647,0.007261905,-0.04159618,0.699416,0.9795472,1.9577409e-10,3.1333455e-10,0.20121479,3
54652041,0.71353304,0.006343949,-0.040401686,0.699427,0.9795472,1.9577409e-10,3.1333455e-10,0.20121479,3
54672029,0.7134072,0.008618537,-0.038735714,0.69962525,0.9795472,1.9577409e-10,3.1333455e-10,0.20121479,3
54692019,0.7133572,0.008692137,-0.038452566,0.6996909,0.9795472,1.9577409e-10,3.1333455e-10,0.20121479,3
54712007,0.71332455,0.00898036,-0.038282145,0.6997299,0.9795472,1.9577409e-10,3.1333455e-10,0.20121479,3
54731994,0.7131074,0.0071302145,-0.037899926,0.6999933,0.9795472,1.9577409e-10,3.1333455e-10,0.20121479,3
54751981,0.7131298,0.0071011917,-0.0366654,0.7000366,0.9795472,1.9577409e-10,3.1333455e-10,0.20121479,3
54771968,0.7130538,0.0071338904,-0.036430903,0.7001259,0.9795472,1.9577409e-10,3.1333455e-10,0.20121479,3
54791958,0.71313745,0.0064689266,-0.03640063,0.70004874,0.9795472,1.9577409e-10,3.1333455e-10,0.20121479,3
54811944,0.7128662,0.00531935,-0.036828805,0.7003122,0.9795472,1.9577409e-10,3.1333455e-10,0.20121479,3
54831932,0.71287686,0.0033064832,-0.03695086,0.70030737,0.9795472,1.9577409e-10,3.1333455e-10,0.20121479,3
54851920,0.71271586,0.002753944,-0.0375091,0.7004439,0.9795472,1.9577409e-10,3.1333455e-10,0.20121479,3
54871907,0.71284646,0.0020934222,-0.03746549,0.7003156,0.9795472,1.9577409e-10,3.1333455e-10,0.20121479,3
54891897,0.7125482,0.0020236599,-0.038442284,0.70056635,0.9795472,1.9577409e-10,3.1333455e-10,0.20121479,3
54911883,0.7123822,0.0025507605,-0.04021261,0.70063406,0.9795472,1.9577409e-10,3.1333455e-10,0.20121479,3
54931871,0.7124411,3.971641e-06,-0.043383084,0.7003897,0.9795472,1.9577409e-10,3.1333455e-10,0.20121479,3
54951859,0.7121407,-0.0007312959,-0.04578003,0.7005422,0.9795472,1.9577409e-10,3.1333455e-10,0.20121479,3
54971847,0.71209925,-0.0014644515,-0.047556866,0.70046484,0.9795472,1.9577409e-10,3.1333455e-10,0.20121479,3
54991836,0.712107,-0.00057013193,-0.04861264,0.70038575,0.9795472,1.9577409e-10,3.1333455e-10,0.20121479,3
55011822,0.71204424,0.0005482969,-0.051222023,0.70026356,0.9795472,1.9577409e-10,3.1333455e-10,0.20121479,3
55031810,0.7117103,-0.0011873922,-0.05400934,0.70039284,0.9795472,1.9577409e-10,3.1333455e-10,0.20121479,3
55051799,0.7117331,-0.0018900721,-0.05650268,0.7001714,0.9795472,1.9577409e-10,3.1333455e-10,0.20121479,3
55071786,0.7118377,-0.0031958963,-0.058314044,0.6999118,0.9795472,1.9577409e-10,3.1333455e-10,0.20121479,3
55091777,0.7117085,-0.002031211,-0.06095217,0.6998228,0.9795472,1.9577409e-10,3.1333455e-10,0.20121479,3
55111766,0.7114894,-0.0010655742,-0.06384943,0.69978935,0.9795472,1.9577409e-10,3.1333455e-10,0.20121479,3
55131751,0.7115244,-0.0014626203,-0.0677158,0.6993894,0.9795472,1.9577409e-10,3.1333455e-10,0.20121479,3
55151737,0.71142983,-0.002619483,-0.07056746,0.69920033,0.9795472,1.9577409e-10,3.1333455e-10,0.20121479,3
55171728,0.7112537,-0.002576947,-0.07245664,0.69918644,0.9795472,1.9577409e-10,3.1333455e-10,0.20121479,3
55191713,0.7112478,-0.0013343495,-0.073415175,0.6990959,0.9795472,1.9577409e-10,3.1333455e-10,0.20121479,3
55211701,0.71126646,-0.0006666251,-0.075570635,0.6988481,0.9795472,1.9577409e-10,3.1333455e-10,0.20121479,3
55231689,0.7108919,0.00036159315,-0.07838352,0.69891965,0.9795472,1.9577409e-10,3.1333455e-10,0.20121479,3
55251686,0.7108973,-0.0004390222,-0.0810854,0.6986057,0.9795472,1.9577409e-10,3.1333455e-10,0.20121479,3
55271664,0.71084386,0.0009141056,-0.08217338,0.6985326,0.9795472,1.9577409e-10,3.1333455e-10,0.20121479,3
55291655,0.7109426,0.0005565192,-0.08273813,0.6983658,0.9795472,1.9577409e-10,3.1333455e-10,0.20121479,3
55311640,0.71456176,0.0111093735,-0.075574435,0.69538957,0.9795472,1.9577409e-10,3.1333455e-10,0.20121479,3
55331628,0.71875757,0.046694778,-0.045351803,0.6922069,0.9795472,1.9577409e-10,3.1333455e-10,0.20121479,3
55351616,0.7198609,0.09309325,-0.00498449,0.6878293,0.9795472,1.9577409e-10,3.1333455e-10,0.20121479,3
55371603,0.7216468,0.12120687,0.017425934,0.6813451,0.9795472,1.9577409e-10,3.1333455e-10,0.20121479,3
55391591,0.7250281,0.13142678,0.027017105,0.6755231,0.9795472,1.9577409e-10,3.1333455e-10,0.20121479,3
55411579,0.7254138,0.15180422,0.052880604,0.66927874,0.9795472,1.9577409e-10,3.1333455e-10,0.20121479,3
55431567,0.7195074,0.18996881,0.09316455,0.6614691,0.9795472,1.9577409e-10,3.1333455e-10,0.20121479,3
55451555,0.7140867,0.22305314,0.11994696,0.65264094,0.9795472,1.9577409e-10,3.1333455e-10,0.20121479,3
55471542,0.7126215,0.238512,0.12932393,0.6469606,0.9795472,1.9577409e-10,3.1333455e-10,0.20121479,3
55491530,0.7084444,0.25464755,0.1464628,0.64172417,0.9795472,1.9577409e-10,3.1333455e-10,0.20121479,3
55511520,0.6979022,0.28524235,0.18072784,0.6315907,0.9795472,1.9577409e-10,3.1333455e-10,0.20121479,3
55531506,0.687029,0.3186419,0.20932968,0.6185788,0.9795472,1.9577409e-10,3.1333455e-10,0.20121479,3
55551494,0.68227106,0.34108943,0.21976347,0.60816795,0.9795472,1.9577409e-10,3.1333455e-10,0.20121479,3
55571482,0.67711866,0.35807458,0.23063657,0.6000831,0.9795472,1.9577409e-10,3.1333455e-10,0.20121479,3
55591469,0.6653976,0.3809611,0.25541848,0.588962,0.9795472,1.9577409e-10,3.1333455e-10,0.20121479,3
55611458,0.65261054,0.40937254,0.27962023,0.57299757,0.9795472,1.9577409e-10,3.1333455e-10,0.20121479,3
55631445,0.6453758,0.43445036,0.29111487,0.55677205,0.9795472,1.9577409e-10,3.1333455e-10,0.20121479,3
55651433,0.6400651,0.452766,0.29945567,0.54373336,0.9795472,1.9577409e-10,3.1333455e-10,0.20121479,3
55671421,0.6301278,0.4713974,0.31557053,0.53022516,0.9795472,1.9577409e-10,3.1333455e-10,0.20121479,3
55691408,0.6181188,0.49588588,0.3328314,0.5111258,0.9795472,1.9577409e-10,3.1333455e-10,0.20121479,3
55711396,0.6100336,0.5210796,0.34221292,0.48910695,0.9795472,1.9577409e-10,3.1333455e-10,0.20121479,3
55731384,0.6050823,0.5400548,0.34803194,0.47020224,0.9795472,1.9577409e-10,3.1333455e-10,0.20121479,3
55751372,0.599568,0.5572718,0.35521704,0.45142803,0.9795472,1.9577409e-10,3.1333455e-10,0.20121479,3
55771360,0.5933095,0.58057886,0.36071184,0.4252048,0.9795472,1.9577409e-10,3.1333455e-10,0.20121479,3
55791348,0.58839554,0.60533255,0.3631285,0.39433613,0.9795472,1.9577409e-10,3.1333455e-10,0.20121479,3
55811337,0.5868487,0.6247201,0.3632953,0.36517137,0.9795472,1.9577409e-10,3.1333455e-10,0.20121479,3
55831323,0.58538574,0.64103055,0.36461294,0.33683965,0.9795472,1.9577409e-10,3.1333455e-10,0.20121479,3
55851311,0.5817568,0.65966594,0.36657554,0.3033519,0.9795472,1.9577409e-10,3.1333455e-10,0.20121479,3
55871299,0.5788883,0.67952526,0.36607483,0.26291275,0.9795472,1.9577409e-10,3.1333455e-10,0.20121479,3
55891287,0.5835791,0.69282925,0.36066586,0.22213316,0.9795472,1.9577409e-10,3.1333455e-10,0.20121479,3
55911278,0.6064207,0.6890487,0.34763306,0.19135576,0.9795472,1.9577409e-10,3.1333455e-10,0.20121479,3
55931264,0.6534324,0.65924907,0.32671872,0.17796531,0.9795472,1.9577409e-10,3.1333455e-10,0.20121479,3
55951250,0.71646655,0.6035564,0.29994136,0.18008515,0.9795472,1.9577409e-10,3.1333455e-10,0.20121479,3
55971238,0.7823248,0.52641,0.27145934,0.19279651,0.9795472,1.9577409e-10,3.1333455e-10,0.20121479,3
55991226,0.8388059,0.43585476,0.24879138,0.21104091,0.9795472,1.9577409e-10,3.1333455e-10,0.20121479,3
56011215,0.877941,0.34613156,0.23882179,0.22885974,0.9795472,1.9577409e-10,3.1333455e-10,0.20121479,3
56031201,0.89792144,0.27357367,0.24642022,0.24118769,0.9795472,1.9577409e-10,3.1333455e-10,0.20121479,3
56051190,0.9011172,0.22980873,0.2748482,0.24420129,0.9795472,1.9577409e-10,3.1333455e-10,0.20121479,3
56071177,0.8893402,0.2216909,0.3241834,0.23416288,0.9795472,1.9577409e-10,3.1333455e-10,0.20121479,3
56091166,0.8624615,0.24882708,0.38881811,0.20752291,0.9795472,1.9577409e-10,3.1333455e-10,0.20121479,3
56111156,0.8201605,0.30248916,0.45782012,0.1619807,0.9795472,1.9577409e-10,3.1333455e-10,0.20121479,3
56131141,0.7636631,0.3680556,0.5207313,0.100959815,0.9795472,1.9577409e-10,3.1333455e-10,0.20121479,3
56151129,0.6935192,0.4330517,0.5747367,0.03428192,0.9795472,1.9577409e-10,3.1333455e-10,0.20121479,3
56171117,0.5269295,0.50277764,0.6824789,-0.061503522,0.9795472,1.9577409e-10,3.1333455e-10,0.20121479,3
56191104,0.28941065,0.467925,0.82880056,-0.101869486,0.9795472,1.9577409e-10,3.1333455e-10,0.20121479,3
56211093,0.36593184,0.38885912,0.84114754,0.085751876,0.9795472,1.9577409e-10,3.1333455e-10,0.20121479,3
56231080,0.36663657,0.37350085,0.8507141,0.048583213,0.9795472,1.9577409e-10,3.1333455e-10,0.20121479,3
56251069,0.40391946,0.35743427,0.84206754,0.0035005524,0.9795472,1.9577409e-10,3.1333455e-10,0.20121479,3
56271056,0.4394205,0.35821953,0.823678,-0.011965343,0.9795472,1.9577409e-10,3.1333455e-10,0.20121479,3
56291043,0.508393,0.3404908,0.79022473,-0.033876594,0.9795472,1.9577409e-10,3.1333455e-10,0.20121479,3
56311031,0.60671437,0.30073488,0.7346366,-0.04201558,0.9795472,1.9577409e-10,3.1333455e-10,0.20121479,3
56331019,0.7016854,0.24612316,0.6668421,-0.048812337,0.9795472,1.9577409e-10,3.1333455e-10,0.20121479,3
56351007,0.8044304,0.17039609,0.5668188,-0.05072885,0.9795472,1.9577409e-10,3.1333455e-10,0.20121479,3
56370995,0.8884145,0.080169626,0.44920087,-0.050110318,0.9795472,1.9577409e-10,3.1333455e-10,0.20121479,3
56390983,0.9487205,-0.020230113,0.31156415,-0.04947714,0.9795472,1.9577409e-10,3.1333455e-10,0.20121479,3
56410971,0.9770928,-0.10627578,0.17801319,-0.04802624,0.9795472,1.9577409e-10,3.1333455e-10,0.20121479,3
56430959,0.98266715,-0.16596588,0.06735112,-0.04779628,0.9795472,1.9577409e-10,3.1333455e-10,0.20121479,3
56450946,0.9763102,-0.20876363,-0.036770385,-0.04340722,0.9795472,1.9577409e-10,3.1333455e-10,0.20121479,3
56470935,0.96618366,-0.22935991,-0.105467595,-0.052535217,0.9795472,1.9577409e-10,3.1333455e-10,0.20121479,3
56490922,0.96129775,-0.23011737,-0.13218443,-0.074026264,0.9795472,1.9577409e-10,3.1333455e-10,0.20121479,3
56510910,0.96366817,-0.21623199,-0.11419178,-0.107460305,0.9795472,1.9577409e-10,3.1333455e-10,0.20121479,3
56530898,0.96866834,-0.18959278,-0.0521043,-0.15172803,0.9795472,1.9577409e-10,3.1333455e-10,0.20121479,3
56550885,0.9664043,-0.1492458,0.049168196,-0.20339829,0.9795472,1.9577409e-10,3.1333455e-10,0.20121479,3
56570874,0.9443264,-0.09413201,0.18063517,-0.2583753,0.9795472,1.9577409e-10,3.1333455e-10,0.20121479,3
56590861,0.89186746,-0.02605332,0.32712945,-0.31125534,0.9795472,1.9577409e-10,3.1333455e-10,0.20121479,3
56610849,0.8049431,0.048335873,0.4722593,-0.3559516,0.9795472,1.9577409e-10,3.1333455e-10,0.20121479,3
56630837,0.6878083,0.120581396,0.6005429,-0.38952297,0.9795472,1.9577409e-10,3.1333455e-10,0.20121479,3
56650826,0.5536631,0.18202531,0.700742,-0.41144237,0.9795472,1.9577409e-10,3.1333455e-10,0.20121479,3
56670812,0.41856825,0.22650689,0.77074015,-0.4236212,0.9795472,1.9577409e-10,3.1333455e-10,0.20121479,3
56690800,0.29468203,0.25207654,0.81608593,-0.4285136,0.9795472,1.9577409e-10,3.1333455e-10,0.20121479,3
56710789,0.18842785,0.26006454,0.8450709,-0.4274537,0.9795472,1.9577409e-10,3.1333455e-10,0.20121479,3
56730776,0.10187958,0.25341886,0.86456144,-0.42182124,0.9795472,1.9577409e-10,3.1333455e-10,0.20121479,3
56750765,0.035382185,0.23525283,0.8791661,-0.4128817,0.9795472,1.9577409e-10,3.1333455e-10,0.20121479,3
56770752,-0.013829847,0.20914446,0.8916983,-0.40117535,0.9795472,1.9577409e-10,3.1333455e-10,0.20121479,3
56790740,-0.050831303,0.18054363,0.9035274,-0.3853032,0.9795472,1.9577409e-10,3.1333455e-10,0.20121479,3
56810728,-0.045298915,0.19854857,0.94157064,-0.26827452,0.9795472,1.9577409e-10,3.1333455e-10,0.20121479,3
56830715,-0.018796721,0.20213208,0.9610452,-0.18756717,0.9795472,1.9577409e-10,3.1333455e-10,0.20121479,3
56850704,-0.05350395,0.19112685,0.9134391,-0.35529855,0.9795472,1.9577409e-10,3.1333455e-10,0.20121479,3
56870691,-0.07809839,0.17819108,0.8557886,-0.479348,0.9795472,1.9577409e-10,3.1333455e-10,0.20121479,3
56890679,-0.08618933,0.17397404,0.83564126,-0.51381725,0.9795472,1.9577409e-10,3.1333455e-10,0.20121479,3
56910671,-0.09574272,0.18546635,0.8494477,-0.4846382,0.9795472,1.9577409e-10,3.1333455e-10,0.20121479,3
56930654,-0.13634638,0.21578571,0.86101085,-0.43989375,0.9795472,1.9577409e-10,3.1333455e-10,0.20121479,3
56950642,-0.17018676,0.24425945,0.87262064,-0.3871785,0.9795472,1.9577409e-10,3.1333455e-10,0.20121479,3
56970630,-0.19524878,0.27063438,0.8841575,-0.3269564,0.9795472,1.9577409e-10,3.1333455e-10,0.20121479,3
56990618,-0.20165662,0.2903373,0.89604914,-0.26857924,0.9795472,1.9577409e-10,3.1333455e-10,0.20121479,3
57010606,-0.18523702,0.30233386,0.9093628,-0.21757989,0.9795472,1.9577409e-10,3.1333455e-10,0.20121479,3
57035592,-0.15038095,0.3133942,0.9246202,-0.15571535,0.9795472,1.9577409e-10,3.1333455e-10,0.20121479,3
57050582,-0.12351696,0.31846088,0.9322009,-0.11969876,0.9795472,1.9577409e-10,3.1333455e-10,0.20121479,3
57070571,-0.076549724,0.37149125,0.9216783,-0.08150793,0.9795472,1.9577409e-10,3.1333455e-10,0.20121479,3
57090558,-0.019973429,0.4367821,0.8979455,-0.05016364,0.9795472,1.9577409e-10,3.1333455e-10,0.20121479,3
57110545,0.045528352,0.49187756,0.8691094,-0.025150724,0.9795472,1.9577409e-10,3.1333455e-10,0.20121479,3
57130534,0.117032126,0.5386447,0.8343393,-0.006591743,0.9795472,1.9577409e-10,3.1333455e-10,0.20121479,3
57150522,0.18988475,0.5803052,0.79193896,0.004718062,0.9795472,1.9577409e-10,3.1333455e-10,0.20121479,3
57170511,0.2623707,0.61616987,0.74256045,0.010019902,0.9795472,1.9577409e-10,3.1333455e-10,0.20121479,3
57190498,0.33141452,0.6453782,0.688111,0.012440949,0.9795472,1.9577409e-10,3.1333455e-10,0.20121479,3
57210485,0.39650998,0.6686141,0.62896335,0.011842625,0.9795472,1.9577409e-10,3.1333455e-10,0.20121479,3
57230474,0.45661235,0.68688613,0.56535774,0.00795964,0.9795472,1.9577409e-10,3.1333455e-10,0.20121479,3
57250462,0.51097,0.7012003,0.49722016,0.00020783681,0.9795472,1.9577409e-10,3.1333455e-10,0.20121479,3
57270450,0.5582485,0.71241844,0.42507777,-0.011291702,0.9795472,1.9577409e-10,3.1333455e-10,0.20121479,3
57290435,0.59852135,0.7200602,0.35023242,-0.024954917,0.9795472,1.9577409e-10,3.1333455e-10,0.20121479,3
57310423,0.6319221,0.7240765,0.27344963,-0.04016243,0.9795472,1.9577409e-10,3.1333455e-10,0.20121479,3
57330411,0.6592318,0.7240224,0.19494298,-0.056589328,0.9795472,1.9577409e-10,3.1333455e-10,0.20121479,3
57350402,0.68071204,0.7194953,0.116415255,-0.07351989,0.9795472,1.9577409e-10,3.1333455e-10,0.20121479,3
57370387,0.6967656,0.710468,0.04023634,-0.09018849,0.9795472,1.9577409e-10,3.1333455e-10,0.20121479,3
57390375,0.7144659,0.6915927,-0.028246403,-0.10217688,0.9795472,1.9577409e-10,3.1333455e-10,0.20121479,3
57410365,0.7480782,0.6499148,-0.07734452,-0.109579526,0.9795472,1.9577409e-10,3.1333455e-10,0.20121479,3
57430350,0.5982545,0.7723195,-0.087231115,-0.19494861,0.9795472,1.9577409e-10,3.1333455e-10,0.20121479,3
57450338,0.441955,0.8787539,-0.06571338,-0.16777755,0.9795472,1.9577409e-10,3.1333455e-10,0.20121479,3
57470326,0.50967294,0.8435593,-0.03679121,-0.16518985,0.9795472,1.9577409e-10,3.1333455e-10,0.20121479,3
57490314,0.61715865,0.7727836,-0.05520153,-0.13738127,0.9795472,1.9577409e-10,3.1333455e-10,0.20121479,3
57510302,0.61041206,0.75763017,-0.14073431,-0.18326883,0.9795472,1.9577409e-10,3.1333455e-10,0.20121479,3
57530289,0.5882883,0.7443437,-0.22990303,-0.21682696,0.9795472,1.9577409e-10,3.1333455e-10,0.20121479,3
57550277,0.5492743,0.7574705,-0.29450914,-0.19442375,0.9795472,1.9577409e-10,3.1333455e-10,0.20121479,3
57570265,0.53870016,0.7669903,-0.32376876,-0.1292353,0.9795472,1.9577409e-10,3.1333455e-10,0.20121479,3
57590253,0.53860337,0.76672924,-0.34413674,-0.060022518,0.9795472,1.9577409e-10,3.1333455e-10,0.20121479,3
57610241,0.53934354,0.76022977,-0.36204433,0.009127597,0.9795472,1.9577409e-10,3.1333455e-10,0.20121479,3
57630229,0.5449785,0.7452881,-0.37816566,0.067341626,0.9795472,1.9577409e-10,3.1333455e-10,0.20121479,3
57650217,0.5675865,0.6861738,-0.45318416,0.040439136,0.9795472,1.9577409e-10,3.1333455e-10,0.20121479,3
57670204,0.57663274,0.6618333,-0.47770056,0.035689197,0.9795472,1.9577409e-10,3.1333455e-10,0.20121479,3
57690192,0.5691377,0.67716205,-0.46155083,0.0671175,0.9795472,1.9577409e-10,3.1333455e-10,0.20121479,3
57710180,0.5485485,0.7051665,-0.43825004,0.09885169,0.9795472,1.9577409e-10,3.1333455e-10,0.20121479,3
57730168,0.5583044,0.6916296,-0.45245045,0.07234226,0.9795472,1.9577409e-10,3.1333455e-10,0.20121479,3
57750155,0.5768695,0.6671824,-0.47033095,0.02963233,0.9795472,1.9577409e-10,3.1333455e-10,0.20121479,3
57770145,0.5693074,0.66947895,-0.47659522,0.023325358,0.9795472,1.9577409e-10,3.1333455e-10,0.20121479,3
57790131,0.5723684,0.6665014,-0.4773045,0.018731797,0.9795472,1.9577409e-10,3.1333455e-10,0.20121479,3
57810119,0.5762898,0.66813153,-0.46989724,0.026209766,0.9795472,1.9577409e-10,3.1333455e-10,0.20121479,3
57830107,0.5778783,0.67507136,-0.45656672,0.04338485,0.9795472,1.9577409e-10,3.1333455e-10,0.20121479,3
57850095,0.56796473,0.6875453,-0.4492788,0.053349163,0.9795472,1.9577409e-10,3.1333455e-10,0.20121479,3
57870083,0.5710352,0.68719864,-0.4456771,0.055215817,0.9795472,1.9577409e-10,3.1333455e-10,0.20121479,3
57890070,0.5724279,0.68622196,-0.44585365,0.051383913,0.9795472,1.9577409e-10,3.1333455e-10,0.20121479,3
57910058,0.57220995,0.6857322,-0.44715542,0.048982926,0.9795472,1.9577409e-10,3.1333455e-10,0.20121479,3
57930048,0.57204926,0.6858711,-0.44711825,0.04925126,0.9795472,1.9577409e-10,3.1333455e-10,0.20121479,3
57950034,0.5722187,0.6857697,-0.44704857,0.04932933,0.9795472,1.9577409e-10,3.1333455e-10,0.20121479,3
57970022,0.5719496,0.68588626,-0.44722536,0.049226113,0.9795472,1.9577409e-10,3.1333455e-10,0.20121479,3
57990010,0.57209253,0.68573976,-0.4472704,0.049198408,0.9795472,1.9577409e-10,3.1333455e-10,0.20121479,3
58009998,0.5724187,0.6852813,-0.44763514,0.04846998,0.9795472,1.9577409e-10,3.1333455e-10,0.20121479,3
58029987,0.5726142,0.685035,-0.44780856,0.048038136,0.9795472,1.9577409e-10,3.1333455e-10,0.20121479,3
58049973,0.57224005,0.68555295,-0.44750226,0.047961216,0.9795472,1.9577409e-10,3.1333455e-10,0.20121479,3
58069961,0.5721399,0.6858985,-0.44698912,0.048988353,0.9795472,1.9577409e-10,3.1333455e-10,0.20121479,3
58089949,0.57128745,0.6869027,-0.44643658,0.04989689,0.9795472,1.9577409e-10,3.1333455e-10,0.20121479,3
58109937,0.5713294,0.6866532,-0.44670847,0.050415926,0.9795472,1.9577409e-10,3.1333455e-10,0.20121479,3
58129925,0.5714576,0.6862933,-0.44718766,0.04960803,0.9795472,1.9577409e-10,3.1333455e-10,0.20121479,3
58154909,0.5720013,0.6858558,-0.44726598,0.048678275,0.9795472,1.9577409e-10,3.1333455e-10,0.20121479,3
58169900,0.5722151,0.6855212,-0.44751602,0.048580017,0.9795472,1.9577409e-10,3.1333455e-10,0.20121479,3
58189888,0.5719144,0.6857498,-0.44753185,0.04874753,0.9795472,1.9577409e-10,3.1333455e-10,0.20121479,3
58209876,0.57189626,0.68586767,-0.4473309,0.04914647,0.9795472,1.9577409e-10,3.1333455e-10,0.20121479,3
58229864,0.5719413,0.68580467,-0.44737905,0.04906286,0.9795472,1.9577409e-10,3.1333455e-10,0.20121479,3
58249851,0.5720915,0.685692,-0.447376,0.04891328,0.9795472,1.9577409e-10,3.1333455e-10,0.20121479,3
58269839,0.57214785,0.68560356,-0.4474487,0.048831116,0.9795472,1.9577409e-10,3.1333455e-10,0.20121479,3
58294826,0.57202435,0.6856966,-0.44744813,0.048973903,0.9795472,1.9577409e-10,3.1333455e-10,0.20121479,3
58309815,0.57198125,0.6857433,-0.447419,0.04909219,0.9795472,1.9577409e-10,3.1333455e-10,0.20121479,3
58329803,0.5720208,0.6856972,-0.447441,0.049073238,0.9795472,1.9577409e-10,3.1333455e-10,0.20121479,3
58349791,0.57207423,0.6855156,-0.44768873,0.048726797,0.9795472,1.9577409e-10,3.1333455e-10,0.20121479,3
58369778,0.5721697,0.68532,-0.4478998,0.048415665,0.9795472,1.9577409e-10,3.1333455e-10,0.20121479,3
58389767,0.5723107,0.6851568,-0.4479936,0.048190873,0.9795472,1.9577409e-10,3.1333455e-10,0.20121479,3
58409754,0.57228994,0.68515396,-0.44802287,0.04820546,0.9795472,1.9577409e-10,3.1333455e-10,0.20121479,3
58434739,0.57218915,0.6851983,-0.44807646,0.048273373,0.9795472,1.9577409e-10,3.1333455e-10,0.20121479,3
58449730,0.57219094,0.68523204,-0.44801214,0.048369754,0.9795472,1.9577409e-10,3.1333455e-10,0.20121479,3
58469718,0.5719778,0.6855143,-0.44783068,0.04857302,0.9795472,1.9577409e-10,3.1333455e-10,0.20121479,3
58489706,0.57180864,0.68583876,-0.4474844,0.049172543,0.9795472,1.9577409e-10,3.1333455e-10,0.20121479,3
58509696,0.57170117,0.68584687,-0.44759372,0.049311798,0.9795472,1.9577409e-10,3.1333455e-10,0.20121479,3
58529681,0.5718638,0.68560946,-0.4477834,0.04900671,0.9795472,1.9577409e-10,3.1333455e-10,0.20121479,3
58549669,0.57195824,0.68556595,-0.4477428,0.048883833,0.9795472,1.9577409e-10,3.1333455e-10,0.20121479,3
58574654,0.57175124,0.68568295,-0.44779494,0.04918533,0.9795472,1.9577409e-10,3.1333455e-10,0.20121479,3
58589645,0.5716839,0.685787,-0.44769666,0.049411103,0.9795472,1.9577409e-10,3.1333455e-10,0.20121479,3
58609633,0.57181007,0.685642,-0.4477852,0.049160544,0.9795472,1.9577409e-10,3.1333455e-10,0.20121479,3
58629621,0.57214123,0.6851937,-0.44811884,0.048514247,0.9795472,1.9577409e-10,3.1333455e-10,0.20121479,3
58649608,0.5723202,0.6849679,-0.4482741,0.048155677,0.9795472,1.9577409e-10,3.1333455e-10,0.20121479,3
58669599,0.5723123,0.68504167,-0.4481512,0.048343655,0.9795472,1.9577409e-10,3.1333455e-10,0.20121479,3
58689584,0.57203436,0.6854198,-0.44784987,0.04906061,0.9795472,1.9577409e-10,3.1333455e-10,0.20121479,3
58714570,0.571785,0.6856354,-0.44779894,0.049419366,0.9795472,1.9577409e-10,3.1333455e-10,0.20121479,3
58729560,0.571925,0.6854811,-0.4478792,0.049212832,0.9795472,1.9577409e-10,3.1333455e-10,0.20121479,3
58749548,0.5722365,0.6850569,-0.4482061,0.048515037,0.9795472,1.9577409e-10,3.1333455e-10,0.20121479,3
58769536,0.5723895,0.6847883,-0.44846922,0.048069354,0.9795472,1.9577409e-10,3.1333455e-10,0.20121479,3
58789523,0.5723488,0.6847903,-0.44851205,0.04812734,0.9795472,1.9577409e-10,3.1333455e-10,0.20121479,3
58809512,0.5721952,0.6849798,-0.4483862,0.048428964,0.9795472,1.9577409e-10,3.1333455e-10,0.20121479,3
58829502,0.5720878,0.6850875,-0.4483331,0.04866349,0.9795472,1.9577409e-10,3.1333455e-10,0.20121479,3
58854483,0.5722111,0.6848768,-0.44853285,0.048338484,0.9795472,1.9577409e-10,3.1333455e-10,0.20121479,3
58869477,0.5723427,0.6847326,-0.4486114,0.04809342,0.9795472,1.9577409e-10,3.1333455e-10,0.20121479,3
58889464,0.572217,0.68489224,-0.44851804,0.048187293,0.9795472,1.9577409e-10,3.1333455e-10,0.20121479,3
58909450,0.57198805,0.68521976,-0.44824833,0.048755538,0.9795472,1.9577409e-10,3.1333455e-10,0.20121479,3
58929438,0.5717844,0.68545943,-0.44807854,0.049333204,0.9795472,1.9577409e-10,3.1333455e-10,0.20121479,3
58949426,0.5717431,0.6854309,-0.44818604,0.049231376,0.9795472,1.9577409e-10,3.1333455e-10,0.20121479,3
58969414,0.57186764,0.68533736,-0.4481757,0.049179975,0.9795472,1.9577409e-10,3.1333455e-10,0.20121479,3
58989401,0.5717999,0.6853711,-0.4482026,0.049252406,0.9795472,1.9577409e-10,3.1333455e-10,0.20121479,3
59009389,0.5718149,0.6852893,-0.44831583,0.04918502,0.9795472,1.9577409e-10,3.1333455e-10,0.20121479,3
59029377,0.5720551,0.684999,-0.44849283,0.048821583,0.9795472,1.9577409e-10,3.1333455e-10,0.20121479,3
59054363,0.5723192,0.6846279,-0.44879338,0.04816559,0.9795472,1.9577409e-10,3.1333455e-10,0.20121479,3
59069353,0.57237417,0.6845584,-0.44883215,0.04813976,0.9795472,1.9577409e-10,3.1333455e-10,0.20121479,3
59089341,0.5722412,0.68473524,-0.44869697,0.048464008,0.9795472,1.9577409e-10,3.1333455e-10,0.20121479,3
59109329,0.5720572,0.685026,-0.44842973,0.04899958,0.9795472,1.9577409e-10,3.1333455e-10,0.20121479,3
59134313,0.5719748,0.6851128,-0.4483789,0.049211655,0.9795472,1.9577409e-10,3.1333455e-10,0.20121479,3
59149304,0.57205105,0.6849898,-0.44849303,0.048997115,0.9795472,1.9577409e-10,3.1333455e-10,0.20121479,3
59169292,0.57226926,0.68467295,-0.4487508,0.048514068,0.9795472,1.9577409e-10,3.1333455e-10,0.20121479,3
59194278,0.57246184,0.684394,-0.44897658,0.04808713,0.9795472,1.9577409e-10,3.1333455e-10,0.20121479,3
59209267,0.5724473,0.68439186,-0.44899786,0.048091892,0.9795472,1.9577409e-10,3.1333455e-10,0.20121479,3
59229256,0.57227695,0.6845719,-0.44890967,0.048380192,0.9795472,1.9577409e-10,3.1333455e-10,0.20121479,3
59249244,0.5721119,0.6847415,-0.44882816,0.048686225,0.9795472,1.9577409e-10,3.1333455e-10,0.20121479,3
59274229,0.5721762,0.6846434,-0.44890866,0.048568413,0.9795472,1.9577409e-10,3.1333455e-10,0.20121479,3
59289219,0.57226264,0.68453866,-0.44898525,0.04831746,0.9795472,1.9577409e-10,3.1333455e-10,0.20121479,3
59309206,0.57228965,0.6845254,-0.44897756,0.048257865,0.9795472,1.9577409e-10,3.1333455e-10,0.20121479,3
59334191,0.572147,0.6846744,-0.44890293,0.048529446,0.9795472,1.9577409e-10,3.1333455e-10,0.20121479,3
59349182,0.5720279,0.68480855,-0.44881555,0.04884582,0.9795472,1.9577409e-10,3.1333455e-10,0.20121479,3
59369170,0.571895,0.68494314,-0.44876233,0.04900471,0.9795472,1.9577409e-10,3.1333455e-10,0.20121479,3
59394155,0.5718871,0.6850072,-0.448652,0.049210258,0.9795472,1.9577409e-10,3.1333455e-10,0.20121479,3
59414143,0.57189137,0.6849374,-0.44875103,0.049229212,0.9795472,1.9577409e-10,3.1333455e-10,0.20121479,3
59429134,0.57198626,0.68474823,-0.44895047,0.048941437,0.9795472,1.9577409e-10,3.1333455e-10,0.20121479,3
59449122,0.5722634,0.6844122,-0.44916683,0.04841202,0.9795472,1.9577409e-10,3.1333455e-10,0.20121479,3
59474106,0.57248753,0.6840867,-0.44942838,0.04793308,0.9795472,1.9577409e-10,3.1333455e-10,0.20121479,3
59489097,0.5724375,0.68414867,-0.44938517,0.048052292,0.9795472,1.9577409e-10,3.1333455e-10,0.20121479,3
59509085,0.5722575,0.6843601,-0.44924963,0.04844946,0.9795472,1.9577409e-10,3.1333455e-10,0.20121479,3
59529074,0.5720975,0.6846141,-0.4490166,0.048909277,0.9795472,1.9577409e-10,3.1333455e-10,0.20121479,3
59554057,0.57208425,0.6846391,-0.4489804,0.049046807,0.9795472,1.9577409e-10,3.1333455e-10,0.20121479,3
59569049,0.5721344,0.68455666,-0.4490579,0.048902676,0.9795472,1.9577409e-10,3.1333455e-10,0.20121479,3
59589037,0.5722944,0.6843256,-0.44924286,0.04856415,0.9795472,1.9577409e-10,3.1333455e-10,0.20121479,3
59614025,0.5724638,0.6840771,-0.44944265,0.048218753,0.9795472,1.9577409e-10,3.1333455e-10,0.20121479,3
59629012,0.572494,0.6840376,-0.44947127,0.04815488,0.9795472,1.9577409e-10,3.1333455e-10,0.20121479,3
59649000,0.5724411,0.6840826,-0.4494592,0.04825686,0.9795472,1.9577409e-10,3.1333455e-10,0.20121479,3
59668988,0.57233536,0.68421406,-0.44936988,0.04847879,0.9795472,1.9577409e-10,3.1333455e-10,0.20121479,3
59693973,0.5722343,0.6842782,-0.4493904,0.04857577,0.9795472,1.9577409e-10,3.1333455e-10,0.20121479,3
59708966,0.57224786,0.68423325,-0.44944775,0.0485183,0.9795472,1.9577409e-10,3.1333455e-10,0.20121479,3
59733948,0.5722955,0.68422174,-0.4494183,0.048391435,0.9795472,1.9577409e-10,3.1333455e-10,0.20121479,3
59753936,0.57231724,0.6841791,-0.44944665,0.04847424,0.9795472,1.9577409e-10,3.1333455e-10,0.20121479,3
59768927,0.572217,0.6842433,-0.44947118,0.048522778,0.9795472,1.9577409e-10,3.1333455e-10,0.20121479,3
59788917,0.5722102,0.6842759,-0.44941473,0.048665848,0.9795472,1.9577409e-10,3.1333455e-10,0.20121479,3
59813900,0.5721569,0.68436813,-0.44933218,0.04875964,0.9795472,1.9577409e-10,3.1333455e-10,0.20121479,3
59828891,0.572134,0.684375,-0.44933337,0.048920665,0.9795472,1.9577409e-10,3.1333455e-10,0.20121479,3
59848879,0.57209694,0.68434197,-0.44943142,0.048914034,0.9795472,1.9577409e-10,3.1333455e-10,0.20121479,3
59868868,0.57219833,0.6842171,-0.44951323,0.048724104,0.9795472,1.9577409e-10,3.1333455e-10,0.20121479,3
59893851,0.5724466,0.68389016,-0.4497426,0.04827861,0.9795472,1.9577409e-10,3.1333455e-10,0.20121479,3
59908843,0.5725118,0.68378025,-0.4498466,0.048092525,0.9795472,1.9577409e-10,3.1333455e-10,0.20121479,3
59928829,0.5725127,0.68375516,-0.44988334,0.04809471,0.9795472,1.9577409e-10,3.1333455e-10,0.20121479,3
59953814,0.5723927,0.6839269,-0.44974044,0.048417024,0.9795472,1.9577409e-10,3.1333455e-10,0.20121479,3
59973802,0.5722872,0.68408275,-0.44960672,0.048703413,0.9795472,1.9577409e-10,3.1333455e-10,0.20121479,3
59988793,0.572214,0.6841838,-0.44952607,0.048888862,0.9795472,1.9577409e-10,3.1333455e-10,0.20121479,3
60008782,0.57221895,0.6841414,-0.44958538,0.048877675,0.9795472,1.9577409e-10,3.1333455e-10,0.20121479,3
60033766,0.57240796,0.6838667,-0.44980896,0.048450924,0.9795472,1.9577409e-10,3.1333455e-10,0.20121479,3
60048757,0.57256895,0.6836465,-0.4499748,0.048115093,0.9795472,1.9577409e-10,3.1333455e-10,0.20121479,3
60068744,0.57267183,0.6835044,-0.4500821,0.047905054,0.9795472,1.9577409e-10,3.1333455e-10,0.20121479,3
60093730,0.5725097,0.6836987,-0.44995588,0.0482546,0.9795472,1.9577409e-10,3.1333455e-10,0.20121479,3
60113718,0.5723097,0.6839307,-0.44981357,0.04866495,0.9795472,1.9577409e-10,3.1333455e-10,0.20121479,3
60128708,0.57226115,0.68397725,-0.44979396,0.048762444,0.9795472,1.9577409e-10,3.1333455e-10,0.20121479,3
60148697,0.57236826,0.6838063,-0.44994897,0.048470788,0.9795472,1.9577409e-10,3.1333455e-10,0.20121479,3
60173683,0.57252413,0.6836445,-0.4500232,0.048224006,0.9795472,1.9577409e-10,3.1333455e-10,0.20121479,3
60188672,0.5724385,0.68374354,-0.44998038,0.048235513,0.9795472,1.9577409e-10,3.1333455e-10,0.20121479,3
60208661,0.5723618,0.68382,-0.44992575,0.04857079,0.9795472,1.9577409e-10,3.1333455e-10,0.20121479,3
60233644,0.5722731,0.6838957,-0.4499009,0.048778795,0.9795472,1.9577409e-10,3.1333455e-10,0.20121479,3
60253632,0.57226664,0.68388104,-0.44994813,0.048624463,0.9795472,1.9577409e-10,3.1333455e-10,0.20121479,3
60268624,0.57238996,0.68375915,-0.4499792,0.048600055,0.9795472,1.9577409e-10,3.1333455e-10,0.20121479,3
60293608,0.5723463,0.683729,-0.45008707,0.048538297,0.9795472,1.9577409e-10,3.1333455e-10,0.20121479,3
60313596,0.5723801,0.68367743,-0.4501261,0.048503872,0.9795472,1.9577409e-10,3.1333455e-10,0.20121479,3
60328590,0.5724401,0.683603,-0.45017073,0.04843291,0.9795472,1.9577409e-10,3.1333455e-10,0.20121479,3
60348574,0.57247454,0.6835342,-0.45024028,0.048349664,0.9795472,1.9577409e-10,3.1333455e-10,0.20121479,3
60373560,0.5725263,0.6834644,-0.4502857,0.0483009,0.9795472,1.9577409e-10,3.1333455e-10,0.20121479,3
60393547,0.5724948,0.68348116,-0.45029482,0.04835154,0.9795472,1.9577409e-10,3.1333455e-10,0.20121479,3
60408538,0.5724648,0.6835119,-0.4502778,0.048430115,0.9795472,1.9577409e-10,3.1333455e-10,0.20121479,3
60428526,0.57242817,0.68358094,-0.45020476,0.048568323,0.9795472,1.9577409e-10,3.1333455e-10,0.20121479,3
60453510,0.5723913,0.6835949,-0.45022297,0.048637252,0.9795472,1.9577409e-10,3.1333455e-10,0.20121479,3
60468501,0.5724465,0.68351465,-0.45028573,0.0485342,0.9795472,1.9577409e-10,3.1333455e-10,0.20121479,3
60488489,0.5725693,0.6833325,-0.45043617,0.048254233,0.9795472,1.9577409e-10,3.1333455e-10,0.20121479,3
60513474,0.5726785,0.68317384,-0.4505615,0.048032805,0.9795472,1.9577409e-10,3.1333455e-10,0.20121479,3
60533462,0.57260907,0.6832533,-0.45051187,0.04819643,0.9795472,1.9577409e-10,3.1333455e-10,0.20121479,3
60548453,0.57250047,0.68336576,-0.45045862,0.04839023,0.9795472,1.9577409e-10,3.1333455e-10,0.20121479,3
60568441,0.5724094,0.68345463,-0.45042282,0.048544087,0.9795472,1.9577409e-10,3.1333455e-10,0.20121479,3
60593425,0.5724401,0.68337387,-0.45052364,0.048384752,0.9795472,1.9577409e-10,3.1333455e-10,0.20121479,3
60608416,0.57247037,0.6833644,-0.45050126,0.048367724,0.9795472,1.9577409e-10,3.1333455e-10,0.20121479,3
60633401,0.57233447,0.6835429,-0.45036757,0.04869847,0.9795472,1.9577409e-10,3.1333455e-10,0.20121479,3
60653389,0.57218987,0.6836842,-0.4503013,0.049025256,0.9795472,1.9577409e-10,3.1333455e-10,0.20121479,3
60673377,0.57219017,0.6836619,-0.45034164,0.048961774,0.9795472,1.9577409e-10,3.1333455e-10,0.20121479,3
60688367,0.5722997,0.6835443,-0.4503921,0.048858974,0.9795472,1.9577409e-10,3.1333455e-10,0.20121479,3
60713353,0.5723999,0.68336874,-0.45055902,0.048600864,0.9795472,1.9577409e-10,3.1333455e-10,0.20121479,3
60733341,0.5724147,0.6833419,-0.45058554,0.048559964,0.9795472,1.9577409e-10,3.1333455e-10,0.20121479,3
60748331,0.5724364,0.68330383,-0.45061827,0.048536267,0.9795472,1.9577409e-10,3.1333455e-10,0.20121479,3
60773316,0.57249784,0.6831938,-0.45072156,0.048400566,0.9795472,1.9577409e-10,3.1333455e-10,0.20121479,3
60793304,0.57259303,0.6830848,-0.4507786,0.048282217,0.9795472,1.9577409e-10,3.1333455e-10,0.20121479,3
60813292,0.5726258,0.68302894,-0.45082825,0.04821952,0.9795472,1.9577409e-10,3.1333455e-10,0.20121479,3
60828285,0.57262313,0.68302065,-0.45084274,0.048233453,0.9795472,1.9577409e-10,3.1333455e-10,0.20121479,3
60853268,0.5725626,0.68310285,-0.45077795,0.04839324,0.9795472,1.9577409e-10,3.1333455e-10,0.20121479,3
60873255,0.57252467,0.68315226,-0.4507363,0.048532333,0.9795472,1.9577409e-10,3.1333455e-10,0.20121479,3
60888246,0.5725185,0.6831494,-0.4507459,0.04855631,0.9795472,1.9577409e-10,3.1333455e-10,0.20121479,3
60913231,0.5725732,0.68304855,-0.45084405,0.04841889,0.9795472,1.9577409e-10,3.1333455e-10,0.20121479,3
60933219,0.5726613,0.6829103,-0.4509609,0.048236907,0.9795472,1.9577409e-10,3.1333455e-10,0.20121479,3
60953207,0.5727041,0.68285954,-0.45099065,0.048170637,0.9795472,1.9577409e-10,3.1333455e-10,0.20121479,3
60968198,0.57266766,0.68289745,-0.45096996,0.04825881,0.9795472,1.9577409e-10,3.1333455e-10,0.20121479,3
