timestamp,ref_timestamp,ref_lat,ref_lon,x,y,z,delta_xy[0],delta_xy[1],delta_z,vx,vy,vz,z_deriv,delta_vxy[0],delta_vxy[1],delta_vz,ax,ay,az,heading,delta_heading,ref_alt,dist_bottom,eph,epv,evh,evv,vxy_max,vz_max,hagl_min,hagl_max,xy_valid,z_valid,v_xy_valid,v_z_valid,xy_reset_counter,z_reset_counter,vxy_reset_counter,vz_reset_counter,heading_reset_counter,xy_global,z_global,dist_bottom_valid
49670076,0,0.0,0.0,1.0044831,0.99411017,-0.072549194,0.9933792,0.99219555,0.34394917,0.0030410974,-0.00038744655,-0.00026889134,-0.00012348212,0.000111558584,1.8380251e-05,0.011425939,-0.013781553,0.0012935777,0.017241724,1.5474827,0.40519583,0.0,0.10046319,0.034333874,0.016546266,0.060111884,0.031943772,inf,inf,inf,inf,1,1,1,1,2,1,1,1,3,0,0,1
49680070,0,0.0,0.0,1.0044951,0.9941069,-0.072537825,0.9933792,0.99219555,0.34394917,0.0032451388,-0.00036190753,-0.00032885594,-0.00017406956,0.000111558584,1.8380251e-05,0.011425939,0.034439277,0.0175859,-0.030794898,1.5474938,0.40519583,0.0,0.10045935,0.033788577,0.016546054,0.05998779,0.031942945,inf,inf,inf,inf,1,1,1,1,2,1,1,1,3,0,0,1
49690063,0,0.0,0.0,1.0045078,0.99410456,-0.07252671,0.9933792,0.99219555,0.34394917,0.0031753434,-0.00026412582,-6.356947e-05,0.00010031613,0.000111558584,1.8380251e-05,0.011425939,-0.011761945,0.015672145,0.050000254,1.5475459,0.40519583,0.0,0.10045404,0.033281915,0.016545841,0.06005317,0.031942118,inf,inf,inf,inf,1,1,1,1,2,1,1,1,3,0,0,1
49710052,0,0.0,0.0,1.0045278,0.9941056,-0.072506115,0.9933792,0.99219555,0.34394917,0.0023176223,-7.857771e-05,-0.00021145433,-3.019584e-05,0.000111558584,1.8380251e-05,0.011425939,-0.052547853,-0.110421285,0.089946665,1.5472646,0.40519583,0.0,0.10044521,0.03322907,0.016545419,0.061530583,0.031940475,inf,inf,inf,inf,1,1,1,1,2,1,1,1,3,0,0,1
49730040,0,0.0,0.0,1.0045496,0.99410623,-0.072480366,0.9933792,0.99219555,0.34394917,0.0032710275,8.505049e-07,-8.36969e-05,0.00011390472,0.000111558584,1.8380251e-05,0.011425939,0.16685098,0.0610473,-0.01908872,1.5476719,0.40519583,0.0,0.10043188,0.03318335,0.016544996,0.063466,0.031938825,inf,inf,inf,inf,1,1,1,1,2,1,1,1,3,0,0,1
49750029,0,0.0,0.0,1.0045735,0.99410826,-0.07245777,0.9933792,0.99219555,0.34394917,0.0030156213,0.0008627719,-0.0003145502,-0.00010156372,0.000111558584,1.8380251e-05,0.011425939,-0.013185961,0.11400782,-0.08137074,1.5474309,0.40519583,0.0,0.10042377,0.03314752,0.016544573,0.06580907,0.03193723,inf,inf,inf,inf,1,1,1,1,2,1,1,1,3,0,0,1
49770014,0,0.0,0.0,1.0045921,0.9941144,-0.072442465,0.9933792,0.99219555,0.34394917,0.0029501168,-0.00015234065,-0.0011396733,-0.00091236364,0.000111558584,1.8380251e-05,0.011425939,0.041736368,0.09003476,-0.21648602,1.5474548,0.40519583,0.0,0.10041738,0.03312477,0.016544154,0.0685046,0.031935677,inf,inf,inf,inf,1,1,1,1,2,1,1,1,3,0,0,1
49790003,0,0.0,0.0,1.0046152,0.9941135,-0.07242424,0.9933792,0.99219555,0.34394917,0.002594481,-0.0004602537,-0.0004043543,-0.0001636922,0.000111558584,1.8380251e-05,0.011425939,-0.26773718,-0.16840845,-0.06806757,1.5476154,0.40519583,0.0,0.100405484,0.03311855,0.016543735,0.0714968,0.031934105,inf,inf,inf,inf,1,1,1,1,2,1,1,1,3,0,0,1
49809991,0,0.0,0.0,1.0046358,0.9941084,-0.072404705,0.9933792,0.99219555,0.34394917,0.0031205872,0.0003925066,-3.6212296e-05,0.00021673233,0.000111558584,1.8380251e-05,0.011425939,-0.12075115,0.15987922,-0.0124684675,1.5473666,0.40519583,0.0,0.10039014,0.03313245,0.01654332,0.07473432,0.03193257,inf,inf,inf,inf,1,1,1,1,2,1,1,1,3,0,0,1
49829978,0,0.0,0.0,1.0046489,0.9941141,-0.072384484,0.9933792,0.99219555,0.34394917,0.0028847808,-0.0003276043,0.00054495723,0.0008093715,0.000111558584,1.8380251e-05,0.011425939,0.08588726,-0.10018902,0.09556405,1.5476365,0.40519583,0.0,0.100376084,0.034121916,0.016542904,0.07908464,0.031931035,inf,inf,inf,inf,1,1,1,1,2,1,1,1,3,0,0,1
49849966,0,0.0,0.0,1.0046675,0.9941101,-0.07234785,0.9933792,0.99219555,0.34394917,0.0026549608,-0.00086112646,0.00027865893,0.00055379845,0.000111558584,1.8380251e-05,0.011425939,0.05017453,0.051851023,-0.013885081,1.5474181,0.40519583,0.0,0.10034821,0.034162905,0.01654249,0.08263093,0.03192952,inf,inf,inf,inf,1,1,1,1,2,1,1,1,3,0,0,1
49869954,0,0.0,0.0,1.0046889,0.9941072,-0.072337165,0.9933792,0.99219555,0.34394917,0.0025517032,-0.0007433555,-0.00095600664,-0.0006710222,0.000111558584,1.8380251e-05,0.011425939,-0.15364712,-0.10870014,-0.0023595686,1.5475459,0.40519583,0.0,0.10034258,0.033275105,0.016542079,0.08532185,0.031928077,inf,inf,inf,inf,1,1,1,1,2,1,1,1,3,0,0,1
49889943,0,0.0,0.0,1.0046985,0.99410284,-0.07230966,0.9933792,0.99219555,0.34394917,0.0027002606,-0.00017137534,0.00040901444,0.00070290605,0.000111558584,1.8380251e-05,0.011425939,-0.09458452,-0.10041802,0.08981749,1.5474725,0.40519583,0.0,0.10031878,0.03340444,0.01654167,0.08909538,0.03192655,inf,inf,inf,inf,1,1,1,1,2,1,1,1,3,0,0,1
49909931,0,0.0,0.0,1.0047101,0.9940956,-0.07228327,0.9933792,0.99219555,0.34394917,0.0024716733,-0.000998005,0.00033020353,0.0006322243,0.000111558584,1.8380251e-05,0.011425939,-0.020337472,0.08568805,0.05703881,1.5474589,0.40519583,0.0,0.10029674,0.033569537,0.016541261,0.092907675,0.03192513,inf,inf,inf,inf,1,1,1,1,2,1,1,1,3,0,0,1
49929918,0,0.0,0.0,1.0047172,0.9940877,-0.07225684,0.9933792,0.99219555,0.34394917,0.0023606005,-0.00025152648,0.00020207366,0.0005112518,0.000111558584,1.8380251e-05,0.011425939,-0.039484713,0.03208569,-0.027700566,1.5475128,0.40519583,0.0,0.100270316,0.03377218,0.016540857,0.09672469,0.031923734,inf,inf,inf,inf,1,1,1,1,2,1,1,1,3,0,0,1
49949906,0,0.0,0.0,1.0047314,0.9940959,-0.07223578,0.9933792,0.99219555,0.34394917,0.0031681028,-8.674005e-05,0.00043373436,0.0007493278,0.000111558584,1.8380251e-05,0.011425939,0.08019305,-0.030084454,0.07671191,1.547431,0.40519583,0.0,0.10024925,0.03401339,0.016540455,0.1005134,0.031922184,inf,inf,inf,inf,1,1,1,1,2,1,1,1,3,0,0,1
49969896,0,0.0,0.0,1.0047415,0.9940848,-0.07221436,0.9933792,0.99219555,0.34394917,0.0025820949,-0.00023720755,1.3035766e-05,0.00033439414,0.000111558584,1.8380251e-05,0.011425939,0.017836904,0.10352966,0.121340714,1.5475162,0.40519583,0.0,0.10022783,0.034293316,0.016540054,0.104248025,0.03192072,inf,inf,inf,inf,1,1,1,1,2,1,1,1,3,0,0,1
49989881,0,0.0,0.0,1.0047505,0.9940963,-0.07219808,0.9933792,0.99219555,0.34394917,0.0038259858,0.0003653725,-9.203508e-05,0.00023440405,0.000111558584,1.8380251e-05,0.011425939,0.18967183,-0.014315495,0.0668374,1.5475007,0.40519583,0.0,0.10021155,0.03461129,0.016539654,0.10790087,0.031919356,inf,inf,inf,inf,1,1,1,1,2,1,1,1,3,0,0,1
50009871,0,0.0,0.0,1.0047636,0.9940905,-0.07218308,0.9933792,0.99219555,0.34394917,0.0028295263,-0.00056440657,0.000101043326,0.00043178693,0.000111558584,1.8380251e-05,0.011425939,0.082183,0.06374064,-0.001442413,1.5473998,0.40519583,0.0,0.10021115,0.03496573,0.016539259,0.111442335,0.03191781,inf,inf,inf,inf,1,1,1,1,2,1,1,1,3,0,0,1
50029862,0,0.0,0.0,1.004778,0.99409217,-0.07216631,0.9933792,0.99219555,0.34394917,0.002609205,-1.6931506e-05,0.00015343944,0.00048772397,0.000111558584,1.8380251e-05,0.011425939,-0.073715284,0.0022704175,0.029218007,1.5476086,0.40519583,0.0,0.100206695,0.03535412,0.016538866,0.11485274,0.031916555,inf,inf,inf,inf,1,1,1,1,2,1,1,1,3,0,0,1
50049847,0,0.0,0.0,1.0047945,0.9940944,-0.072143525,0.9933792,0.99219555,0.34394917,0.0033753153,-0.00026507702,6.597875e-05,0.0004032345,0.000111558584,1.8380251e-05,0.011425939,-0.024169957,-0.013797967,-0.09507957,1.5473591,0.40519583,0.0,0.100185275,0.035773147,0.016538475,0.118102185,0.031914975,inf,inf,inf,inf,1,1,1,1,2,1,1,1,3,0,0,1
50069833,0,0.0,0.0,1.0048044,0.99409443,-0.07212049,0.9933792,0.99219555,0.34394917,0.0030112662,-0.00028412195,0.0006348894,0.00097441097,0.000111558584,1.8380251e-05,0.011425939,0.04146073,-0.006596552,-0.010409048,1.5474586,0.40519583,0.0,0.100182526,0.036218617,0.016538085,0.121174276,0.031913616,inf,inf,inf,inf,1,1,1,1,2,1,1,1,3,0,0,1
50089821,0,0.0,0.0,1.004813,0.9940946,-0.07209925,0.9933792,0.99219555,0.34394917,0.0029960822,-4.086063e-05,0.00027530128,0.000616401,0.000111558584,1.8380251e-05,0.011425939,0.0070647793,-0.044953603,0.04064487,1.5474802,0.40519583,0.0,0.10017652,0.036685783,0.016537696,0.12404683,0.031912226,inf,inf,inf,inf,1,1,1,1,2,1,1,1,3,0,0,1
50109810,0,0.0,0.0,1.0048223,0.99409103,-0.07207359,0.9933792,0.99219555,0.34394917,0.002805697,-0.00030988437,0.0007036138,0.001045567,0.000111558584,1.8380251e-05,0.011425939,0.004847535,-0.0034908312,0.068048194,1.5474368,0.40519583,0.0,0.10016049,0.03716935,0.01653731,0.1267028,0.03191087,inf,inf,inf,inf,1,1,1,1,2,1,1,1,3,0,0,1
50129798,0,0.0,0.0,1.004828,0.9940858,-0.07204474,0.9933792,0.99219555,0.34394917,0.0035575465,-0.00045233482,0.00026036354,0.0006024483,0.000111558584,1.8380251e-05,0.011425939,0.22236678,-0.05207231,-0.075837165,1.5475188,0.40519583,0.0,0.10014389,0.037663672,0.016536929,0.12912612,0.031909373,inf,inf,inf,inf,1,1,1,1,2,1,1,1,3,0,0,1
50149784,0,0.0,0.0,1.0048347,0.9940863,-0.07201885,0.9933792,0.99219555,0.34394917,0.0038033791,-0.0004496875,0.0003660354,0.0007073934,0.000111558584,1.8380251e-05,0.011425939,0.2091604,-0.0944106,-0.03554201,1.5474452,0.40519583,0.0,0.1001276,0.03816294,0.016536545,0.13130638,0.031907983,inf,inf,inf,inf,1,1,1,1,2,1,1,1,3,0,0,1
50169771,0,0.0,0.0,1.0048453,0.9940883,-0.071997635,0.9933792,0.99219555,0.34394917,0.0030966427,0.0003598823,-5.808347e-05,0.00028179513,0.000111558584,1.8380251e-05,0.011425939,-0.12136108,0.08354634,-0.11193544,1.5474463,0.40519583,0.0,0.10010994,0.040192407,0.01653617,0.13632785,0.03190671,inf,inf,inf,inf,1,1,1,1,2,1,1,1,3,0,0,1
50189759,0,0.0,0.0,1.0048571,0.9940955,-0.07198501,0.9933792,0.99219555,0.34394917,0.003720309,0.00028428767,-0.00031582243,2.1905567e-05,0.000111558584,1.8380251e-05,0.011425939,-0.01220181,-0.031238575,-0.08449322,1.5474324,0.40519583,0.0,0.100097425,0.040662397,0.016535792,0.1379257,0.031905297,inf,inf,inf,inf,1,1,1,1,2,1,1,1,3,0,0,1
50209747,0,0.0,0.0,1.0048814,0.99411637,-0.072000474,0.9933792,0.99219555,0.34394917,0.004370073,-0.00046353354,-0.0013878733,-0.0010529027,0.000111558584,1.8380251e-05,0.011425939,-0.12516859,-0.20481373,0.061942503,1.5473676,0.40519583,0.0,0.10011421,0.039484948,0.016535409,0.13582699,0.031903714,inf,inf,inf,inf,1,1,1,1,2,1,1,1,3,0,0,1
50229735,0,0.0,0.0,1.0048962,0.99412704,-0.07198829,0.9933792,0.99219555,0.34394917,0.005495027,-0.0011655365,0.001084836,0.001416396,0.000111558584,1.8380251e-05,0.011425939,0.8872835,-0.6433701,0.20332462,1.5473368,0.40519583,0.0,0.10010382,0.03995495,0.016535033,0.13701591,0.031902265,inf,inf,inf,inf,1,1,1,1,2,1,1,1,3,0,0,1
50249722,0,0.0,0.0,1.0048962,0.9941423,-0.071960896,0.9933792,0.99219555,0.34394917,0.0031290415,0.0040947036,0.0010852852,0.0014126633,0.000111558584,1.8380251e-05,0.011425939,0.22553445,1.5123489,-0.097117774,1.5475905,0.40519583,0.0,0.10008166,0.040404677,0.016534656,0.13794756,0.0319008,inf,inf,inf,inf,1,1,1,1,2,1,1,1,3,0,0,1
50269712,0,0.0,0.0,1.0049107,0.9941513,-0.07192195,0.9933792,0.99219555,0.34394917,0.009891606,0.000111306705,0.003234458,0.0035569188,0.000111558584,1.8380251e-05,0.011425939,1.6247456,-0.34158733,0.30079532,1.5473189,0.40519583,0.0,0.10004724,0.040830363,0.016534278,0.138628,0.03189929,inf,inf,inf,inf,1,1,1,1,2,1,1,1,3,0,0,1
50289699,0,0.0,0.0,1.0049107,0.99416417,-0.071883395,0.9933792,0.99219555,0.34394917,0.0015167992,0.004971517,0.0013495535,0.0016665357,0.000111558584,1.8380251e-05,0.011425939,-0.4625381,1.9928979,-0.1284593,1.547412,0.40519583,0.0,0.10002008,0.043101158,0.016533913,0.14322175,0.031897943,inf,inf,inf,inf,1,1,1,1,2,1,1,1,3,0,0,1
50309686,0,0.0,0.0,1.0048928,0.9941819,-0.071849756,0.9933792,0.99219555,0.34394917,0.006396662,-0.00035953417,0.0023733426,0.0026841718,0.000111558584,1.8380251e-05,0.011425939,2.2470455,-0.2798974,0.22898863,1.547549,0.40519583,0.0,0.1,0.04150659,0.016533528,0.13897589,0.0318963,inf,inf,inf,inf,1,1,1,1,2,1,1,1,3,0,0,1
50329677,0,0.0,0.0,1.0049201,0.99417454,-0.07181942,0.9933792,0.99219555,0.34394917,0.0008583568,-0.001747255,0.0007475988,0.0010516689,0.000111558584,1.8380251e-05,0.011425939,-1.3121803,0.48705456,-0.06485174,1.5470616,0.40519583,0.0,0.1,0.04184957,0.016533153,0.13899353,0.031894848,inf,inf,inf,inf,1,1,1,1,2,1,1,1,3,0,0,1
50349662,0,0.0,0.0,1.0049163,0.9942164,-0.071794085,0.9933792,0.99219555,0.34394917,-0.0030832158,0.00082118344,0.00050414354,0.0008006513,0.000111558584,1.8380251e-05,0.011425939,-1.0584617,0.24132796,0.06207371,1.5476004,0.40519583,0.0,0.1,0.044168614,0.016532792,0.14331771,0.031893525,inf,inf,inf,inf,1,1,1,1,2,1,1,1,3,0,0,1
50369655,0,0.0,0.0,1.0049255,0.9942321,-0.07175821,0.9933792,0.99219555,0.34394917,0.010229688,-0.00353455,0.0013005248,0.0015888284,0.000111558584,1.8380251e-05,0.011425939,0.8816631,-1.5574803,0.038992886,1.5473526,0.40519583,0.0,0.1,0.04437757,0.016532417,0.1426905,0.0318922,inf,inf,inf,inf,1,1,1,1,2,1,1,1,3,0,0,1
50389642,0,0.0,0.0,1.0049157,0.994236,-0.07171588,0.9933792,0.99219555,0.34394917,0.0013695536,0.0025842583,0.0006740002,0.0009536951,0.000111558584,1.8380251e-05,0.011425939,-1.8120517,0.7320457,-0.58885974,1.5469435,0.40519583,0.0,0.1,0.04455548,0.016532045,0.14190724,0.031890433,inf,inf,inf,inf,1,1,1,1,2,1,1,1,3,0,0,1
50409626,0,0.0,0.0,1.004878,0.99423283,-0.071696185,0.9933792,0.99219555,0.34394917,0.008647781,0.0024436906,0.0028302402,0.003101003,0.000111558584,1.8380251e-05,0.011425939,2.6467428,0.029575713,0.096175596,1.5478743,0.40519583,0.0,0.1,0.044703115,0.01653167,0.14098375,0.031888917,inf,inf,inf,inf,1,1,1,1,2,1,1,1,3,0,0,1
50429613,0,0.0,0.0,1.0048552,0.9942297,-0.071659274,0.9933792,0.99219555,0.34394917,0.002931396,0.0008629996,0.0032648908,0.0035262962,0.000111558584,1.8380251e-05,0.011425939,0.31364623,0.37808073,0.36251387,1.5471051,0.40519583,0.0,0.1,0.04482159,0.016531294,0.13993584,0.031887304,inf,inf,inf,inf,1,1,1,1,2,1,1,1,3,0,0,1
50449601,0,0.0,0.0,1.0048343,0.9942656,-0.07160565,0.9933792,0.99219555,0.34394917,-0.0047429404,0.0028181458,0.0020787332,0.0023304436,0.000111558584,1.8380251e-05,0.011425939,-0.8829987,1.3442764,-0.112910435,1.5471904,0.40519583,0.0,0.1,0.04491221,0.016530918,0.1387787,0.031885836,inf,inf,inf,inf,1,1,1,1,2,1,1,1,3,0,0,1
50469588,0,0.0,0.0,1.004835,0.9942898,-0.07157308,0.9933792,0.99219555,0.34394917,0.0038984912,-0.005801603,0.0025030095,0.0027447194,0.000111558584,1.8380251e-05,0.011425939,0.44440702,-1.791421,0.3572439,1.5477828,0.40519583,0.0,0.1,0.042861108,0.016530527,0.13288051,0.031884078,inf,inf,inf,inf,1,1,1,1,2,1,1,1,3,0,0,1
50489576,0,0.0,0.0,1.0047956,0.9942753,-0.071539104,0.9933792,0.99219555,0.34394917,-0.0028604744,0.00053066405,-0.0009541176,-0.0007230073,0.000111558584,1.8380251e-05,0.011425939,-2.5605412,0.3841335,-0.3041789,1.546668,0.40519583,0.0,0.1,0.04512692,0.01653017,0.13652323,0.031882867,inf,inf,inf,inf,1,1,1,1,2,1,1,1,3,0,0,1
50509564,0,0.0,0.0,1.0047222,0.99432623,-0.07149999,0.9933792,0.99219555,0.34394917,0.0050195903,0.004057816,0.0012817871,0.0015019597,0.000111558584,1.8380251e-05,0.011425939,1.1863117,-0.28327793,-0.42999038,1.5477347,0.40519583,0.0,0.1,0.045134373,0.016529797,0.13508572,0.03188128,inf,inf,inf,inf,1,1,1,1,2,1,1,1,3,0,0,1
50529553,0,0.0,0.0,1.004675,0.99434704,-0.0714742,0.9933792,0.99219555,0.34394917,0.0075634643,0.00078258745,0.003765922,0.003974737,0.000111558584,1.8380251e-05,0.011425939,1.0505773,-0.39940295,0.31285492,1.547296,0.40519583,0.0,0.1,0.042986058,0.016529405,0.1290014,0.03187951,inf,inf,inf,inf,1,1,1,1,2,1,1,1,3,0,0,1
50549541,0,0.0,0.0,1.0046074,0.99432564,-0.07143412,0.9933792,0.99219555,0.34394917,-0.005799221,0.0020114076,0.0020910867,0.0022881455,0.000111558584,1.8380251e-05,0.011425939,-1.2475392,1.5268947,-0.08837331,1.546571,0.40519583,0.0,0.1,0.04519695,0.01652905,0.13237503,0.031878106,inf,inf,inf,inf,1,1,1,1,2,1,1,1,3,0,0,1
50569528,0,0.0,0.0,1.0045502,0.99437094,-0.07139876,0.9933792,0.99219555,0.34394917,0.0048180493,0.00018326839,0.0026030163,0.0027877025,0.000111558584,1.8380251e-05,0.011425939,2.378131,-0.64856136,0.3350241,1.5481133,0.40519583,0.0,0.1,0.043000586,0.01652866,0.12624745,0.031876545,inf,inf,inf,inf,1,1,1,1,2,1,1,1,3,0,0,1
50589517,0,0.0,0.0,1.0045233,0.99439,-0.07138033,0.9933792,0.99219555,0.34394917,-0.0044765733,7.377423e-05,0.0014255176,0.0015972458,0.000111558584,1.8380251e-05,0.011425939,-2.7495947,0.2849307,0.27868775,1.5463465,0.40519583,0.0,0.1,0.045169733,0.016528305,0.12945284,0.03187521,inf,inf,inf,inf,1,1,1,1,2,1,1,1,3,0,0,1
50609506,0,0.0,0.0,1.0044556,0.9944243,-0.07133816,0.9933792,0.99219555,0.34394917,-0.0004811897,-0.00040811367,0.0005949891,0.00075323496,0.000111558584,1.8380251e-05,0.011425939,0.15391427,-0.33376878,-0.19972119,1.5474092,0.40519583,0.0,0.1,0.045072388,0.016527932,0.12778619,0.031873688,inf,inf,inf,inf,1,1,1,1,2,1,1,1,3,0,0,1
50629491,0,0.0,0.0,1.0043975,0.9944503,-0.07129562,0.9933792,0.99219555,0.34394917,0.009650426,0.00032680828,0.0028918723,0.0030359016,0.000111558584,1.8380251e-05,0.011425939,0.9352529,-1.0904825,-0.13183746,1.5474564,0.40519583,0.0,0.1,0.0449633,0.016527561,0.12611666,0.03187221,inf,inf,inf,inf,1,1,1,1,2,1,1,1,3,0,0,1
50649481,0,0.0,0.0,1.0043278,0.9944466,-0.07127041,0.9933792,0.99219555,0.34394917,-0.0017272149,0.0067717005,0.0022884288,0.002417618,0.000111558584,1.8380251e-05,0.011425939,-1.3198282,1.9773906,-0.22659001,1.5463305,0.40519583,0.0,0.1,0.042746227,0.016527176,0.12017284,0.031870585,inf,inf,inf,inf,1,1,1,1,2,1,1,1,3,0,0,1
50669468,0,0.0,0.0,1.0042657,0.9944943,-0.07126064,0.9933792,0.99219555,0.34394917,0.008732755,0.0006716368,0.0033432771,0.003457092,0.000111558584,1.8380251e-05,0.011425939,3.677281,-0.78033704,0.4894451,1.5483369,0.40519583,0.0,0.1,0.04481529,0.016526828,0.12306514,0.031869017,inf,inf,inf,inf,1,1,1,1,2,1,1,1,3,0,0,1
50689454,0,0.0,0.0,1.004208,0.9944878,-0.07123037,0.9933792,0.99219555,0.34394917,-0.007728568,0.0020435492,0.002077308,0.0021752587,0.000111558584,1.8380251e-05,0.011425939,-2.26333,1.3165921,0.15461436,1.5463011,0.40519583,0.0,0.1,0.04467007,0.016526459,0.12138818,0.031867802,inf,inf,inf,inf,1,1,1,1,2,1,1,1,3,0,0,1
50709442,0,0.0,0.0,1.0041199,0.99452823,-0.07119181,0.9933792,0.99219555,0.34394917,-0.0066197617,-0.0025352552,0.00092187594,0.0010033277,0.000111558584,1.8380251e-05,0.011425939,-0.5159976,-0.611446,-0.31608388,1.5476345,0.40519583,0.0,0.1,0.04451848,0.016526092,0.119733095,0.031866293,inf,inf,inf,inf,1,1,1,1,2,1,1,1,3,0,0,1
50729432,0,0.0,0.0,1.0040808,0.9945625,-0.07116515,0.9933792,0.99219555,0.34394917,0.007183028,0.00038719748,0.0016567116,0.0017212195,0.000111558584,1.8380251e-05,0.011425939,0.30742392,-1.0094889,0.026633136,1.5473831,0.40519583,0.0,0.1,0.044361427,0.016525727,0.118100725,0.031864822,inf,inf,inf,inf,1,1,1,1,2,1,1,1,3,0,0,1
50749419,0,0.0,0.0,1.0040181,0.9945937,-0.071146436,0.9933792,0.99219555,0.34394917,-0.0039479514,0.004827044,0.0005508697,0.0005978788,0.000111558584,1.8380251e-05,0.011425939,-2.7136483,0.77193123,-0.377748,1.546114,0.40519583,0.0,0.1,0.044199754,0.016525364,0.1164919,0.03186353,inf,inf,inf,inf,1,1,1,1,2,1,1,1,3,0,0,1
50769407,0,0.0,0.0,1.0039206,0.99462414,-0.071130894,0.9933792,0.99219555,0.34394917,0.012487668,0.0013940069,0.003612094,0.0036412396,0.000111558584,1.8380251e-05,0.011425939,4.5606403,-0.60244864,0.09800161,1.5484791,0.40519583,0.0,0.1,0.044034217,0.016525,0.114912994,0.031861823,inf,inf,inf,inf,1,1,1,1,2,1,1,1,3,0,0,1
50789393,0,0.0,0.0,1.0038528,0.9945864,-0.07111902,0.9933792,0.99219555,0.34394917,-0.004533159,0.003931372,0.003674582,0.0036853207,0.000111558584,1.8380251e-05,0.011425939,-1.68949,1.7388707,0.2771627,1.5460616,0.40519583,0.0,0.1,0.043865506,0.016524639,0.11335988,0.031860355,inf,inf,inf,inf,1,1,1,1,2,1,1,1,3,0,0,1
50809381,0,0.0,0.0,1.0037497,0.99463075,-0.07108855,0.9933792,0.99219555,0.34394917,-0.0064377584,-5.1927163e-06,0.0017102837,0.0017019407,0.000111558584,1.8380251e-05,0.011425939,0.8772242,0.09657931,0.18327062,1.547976,0.40519583,0.0,0.1,0.043694247,0.01652428,0.11183577,0.03185912,inf,inf,inf,inf,1,1,1,1,2,1,1,1,3,0,0,1
50829370,0,0.0,0.0,1.00372,0.9946842,-0.071080334,0.9933792,0.99219555,0.34394917,0.0018010916,-8.17566e-05,0.0007155494,0.0006874993,0.000111558584,1.8380251e-05,0.011425939,-0.42688203,-1.1509714,0.13007644,1.5470701,0.40519583,0.0,0.1,0.043520987,0.016523922,0.110343575,0.03185773,inf,inf,inf,inf,1,1,1,1,2,1,1,1,3,0,0,1
50849358,0,0.0,0.0,1.0036504,0.9946854,-0.07107359,0.9933792,0.99219555,0.34394917,-0.009954182,0.0022032373,0.00069737306,0.00064899866,0.000111558584,1.8380251e-05,0.011425939,-3.5480926,1.2641039,-0.20979257,1.5461911,0.40519583,0.0,0.1,0.04334624,0.016523564,0.10888315,0.03185631,inf,inf,inf,inf,1,1,1,1,2,1,1,1,3,0,0,1
50869346,0,0.0,0.0,1.0035592,0.99471945,-0.07104082,0.9933792,0.99219555,0.34394917,0.012613628,0.00088520546,0.003183358,0.0031142589,0.000111558584,1.8380251e-05,0.011425939,3.610507,-1.7529789,-0.0039601685,1.5482974,0.40519583,0.0,0.1,0.043170456,0.016523208,0.10745602,0.031854823,inf,inf,inf,inf,1,1,1,1,2,1,1,1,3,0,0,1
50889332,0,0.0,0.0,1.0034919,0.99471563,-0.07102918,0.9933792,0.99219555,0.34394917,-0.00033647352,0.006363423,0.0023009528,0.002210824,0.000111558584,1.8380251e-05,0.011425939,-1.3942381,1.9880933,-0.08020272,1.5454519,0.40519583,0.0,0.1,0.04299404,0.016522855,0.10605905,0.03185348,inf,inf,inf,inf,1,1,1,1,2,1,1,1,3,0,0,1
50909320,0,0.0,0.0,1.0034198,0.9947755,-0.07103582,0.9933792,0.99219555,0.34394917,-0.0012895316,0.001117081,0.0011654181,0.0010540691,0.000111558584,1.8380251e-05,0.011425939,2.048995,-0.2867277,0.12063689,1.5483854,0.40519583,0.0,0.1,0.042817358,0.0165225,0.10469494,0.031852067,inf,inf,inf,inf,1,1,1,1,2,1,1,1,3,0,0,1
50929310,0,0.0,0.0,1.0033969,0.99477106,-0.071039945,0.9933792,0.99219555,0.34394917,0.0012345737,0.0003363044,0.0031046772,0.002971799,0.000111558584,1.8380251e-05,0.011425939,0.47574916,0.17181325,0.48505905,1.5462295,0.40519583,0.0,0.1,0.042640727,0.01652215,0.103362836,0.03185073,inf,inf,inf,inf,1,1,1,1,2,1,1,1,3,0,0,1
50949297,0,0.0,0.0,1.0033507,0.99478114,-0.07103038,0.9933792,0.99219555,0.34394917,-0.013740197,-0.00019740639,0.00029370585,0.00013904454,0.000111558584,1.8380251e-05,0.011425939,-3.5935516,0.92281157,-0.11769722,1.5470005,0.40519583,0.0,0.1,0.042464443,0.016521802,0.1020627,0.03184946,inf,inf,inf,inf,1,1,1,1,2,1,1,1,3,0,0,1
50969284,0,0.0,0.0,1.0033078,0.9948159,-0.07102169,0.9933792,0.99219555,0.34394917,0.0089140115,-0.001393639,0.0009290963,0.000752553,0.000111558584,1.8380251e-05,0.011425939,2.4231663,-1.8288254,-0.005490363,1.5477821,0.40519583,0.0,0.1,0.042288754,0.016521452,0.10079775,0.031847995,inf,inf,inf,inf,1,1,1,1,2,1,1,1,3,0,0,1
50989272,0,0.0,0.0,1.0032558,0.99481934,-0.07102778,0.9933792,0.99219555,0.34394917,-0.0050764005,0.003917442,-0.00021189458,-0.00041075048,0.000111558584,1.8380251e-05,0.011425939,-3.2980967,1.4126551,-0.5454878,1.5455977,0.40519583,0.0,0.1,0.042113893,0.016521106,0.099561885,0.031846736,inf,inf,inf,inf,1,1,1,1,2,1,1,1,3,0,0,1
51009259,0,0.0,0.0,1.0031642,0.99486804,-0.07104414,0.9933792,0.99219555,0.34394917,0.005486067,-1.5778614e-05,0.0027315924,0.0025102803,0.000111558584,1.8380251e-05,0.011425939,3.0581696,-1.3752126,0.29396465,1.548646,0.40519583,0.0,0.1,0.041940052,0.016520763,0.09835863,0.031845342,inf,inf,inf,inf,1,1,1,1,2,1,1,1,3,0,0,1
51029248,0,0.0,0.0,1.0031102,0.9948364,-0.07105106,0.9933792,0.99219555,0.34394917,-0.0019710825,0.0035640646,0.0021099236,0.0018661162,0.000111558584,1.8380251e-05,0.011425939,-0.5590948,1.4031495,0.3838367,1.5455579,0.40519583,0.0,0.1,0.04176742,0.016520418,0.09718715,0.03184377,inf,inf,inf,inf,1,1,1,1,2,1,1,1,3,0,0,1
51049236,0,0.0,0.0,1.0030415,0.99488854,-0.07104707,0.9933792,0.99219555,0.34394917,-0.0098897135,0.00020466375,-0.0011548382,-0.0014213079,0.000111558584,1.8380251e-05,0.011425939,-0.42727363,-0.23265377,-0.2861299,1.547988,0.40519583,0.0,0.1,0.041596156,0.016520074,0.09604363,0.031842656,inf,inf,inf,inf,1,1,1,1,2,1,1,1,3,0,0,1
51069224,0,0.0,0.0,1.0030104,0.9948844,-0.07106364,0.9933792,0.99219555,0.34394917,-0.00047485088,-0.001057923,0.0024374938,0.0021482077,0.000111558584,1.8380251e-05,0.011425939,0.2998364,-0.9039482,0.29816705,1.5465763,0.40519583,0.0,0.1,0.041426376,0.016519735,0.094931975,0.031841453,inf,inf,inf,inf,1,1,1,1,2,1,1,1,3,0,0,1
51089211,0,0.0,0.0,1.002967,0.99488133,-0.07107653,0.9933792,0.99219555,0.34394917,-0.008288948,0.00037042156,0.00020579991,-0.00010598561,0.000111558584,1.8380251e-05,0.011425939,-3.2699285,0.9633546,-0.056697965,1.5463647,0.40519583,0.0,0.1,0.041258212,0.016519396,0.093849234,0.03184016,inf,inf,inf,inf,1,1,1,1,2,1,1,1,3,0,0,1
51109199,0,0.0,0.0,1.0029174,0.99489075,-0.071077235,0.9933792,0.99219555,0.34394917,0.009179572,-0.0011634271,0.0018663396,0.0015322873,0.000111558584,1.8380251e-05,0.011425939,2.4500966,-1.8213639,0.17045975,1.5481306,0.40519583,0.0,0.1,0.04109177,0.016519057,0.09279737,0.03183879,inf,inf,inf,inf,1,1,1,1,2,1,1,1,3,0,0,1
51129187,0,0.0,0.0,1.002872,0.994851,-0.0710838,0.9933792,0.99219555,0.34394917,-0.0010046645,0.004703271,0.0005726967,0.00021658972,0.000111558584,1.8380251e-05,0.011425939,-1.1446072,1.5582951,-0.27051824,1.5454936,0.40519583,0.0,0.1,0.040863257,0.01651872,0.091630906,0.031837374,inf,inf,inf,inf,1,1,1,1,2,1,1,1,3,0,0,1
51149174,0,0.0,0.0,1.002784,0.994908,-0.0711194,0.9933792,0.99219555,0.34394917,-0.0019519484,0.0019477523,0.0012417191,0.0008638412,0.000111558584,1.8380251e-05,0.011425939,2.235961,-0.5795677,0.17205961,1.5486956,0.40519583,0.0,0.1,0.040642694,0.016518384,0.09050923,0.031836137,inf,inf,inf,inf,1,1,1,1,2,1,1,1,3,0,0,1
51169165,0,0.0,0.0,1.0027323,0.9949015,-0.071148634,0.9933792,0.99219555,0.34394917,-0.0057145697,0.0010079382,0.0007350139,0.00033562255,0.000111558584,1.8380251e-05,0.011425939,-0.5864966,0.27822676,0.25650898,1.5457009,0.40519583,0.0,0.1,0.04042959,0.016518053,0.08943158,0.031834945,inf,inf,inf,inf,1,1,1,1,2,1,1,1,3,0,0,1
51189150,0,0.0,0.0,1.002687,0.9949198,-0.07115173,0.9933792,0.99219555,0.34394917,-0.008456195,0.0005715334,-0.00017270898,-0.0005931869,0.000111558584,1.8380251e-05,0.011425939,-1.2645048,0.5267651,-0.26362342,1.5475427,0.40519583,0.0,0.1,0.04022351,0.016517721,0.08839507,0.03183365,inf,inf,inf,inf,1,1,1,1,2,1,1,1,3,0,0,1
51209138,0,0.0,0.0,1.0026816,0.9949285,-0.071170114,0.9933792,0.99219555,0.34394917,0.0021351166,-0.0007636038,-0.00046757876,-0.00090866245,0.000111558584,1.8380251e-05,0.011425939,-0.6155835,-1.346839,-0.012706236,1.547009,0.40519583,0.0,0.1,0.040024042,0.01651739,0.08739917,0.03183224,inf,inf,inf,inf,1,1,1,1,2,1,1,1,3,0,0,1
51229127,0,0.0,0.0,1.0026383,0.99494904,-0.07119596,0.9933792,0.99219555,0.34394917,-0.0023782603,0.0060470803,-0.0007854448,-0.0012465151,0.000111558584,1.8380251e-05,0.011425939,-0.9219221,1.1211894,-0.4723727,1.5460563,0.40519583,0.0,0.1,0.039830822,0.016517062,0.08643748,0.03183113,inf,inf,inf,inf,1,1,1,1,2,1,1,1,3,0,0,1
51249114,0,0.0,0.0,1.0025678,0.9949874,-0.07122424,0.9933792,0.99219555,0.34394917,0.0058426796,0.0013223058,0.0028630355,0.0023824738,0.000111558584,1.8380251e-05,0.011425939,2.1837027,-1.3133999,0.1915854,1.5482544,0.40519583,0.0,0.1,0.039643522,0.016516734,0.08551164,0.03182986,inf,inf,inf,inf,1,1,1,1,2,1,1,1,3,0,0,1
51269102,0,0.0,0.0,1.0025123,0.9949294,-0.071246795,0.9933792,0.99219555,0.34394917,-0.0064258142,0.005323383,0.0010976127,0.00059825135,0.000111558584,1.8380251e-05,0.011425939,-0.6931316,2.5350208,0.037562244,1.5453236,0.40519583,0.0,0.1,0.03946182,0.016516408,0.08461988,0.031828407,inf,inf,inf,inf,1,1,1,1,2,1,1,1,3,0,0,1
51289091,0,0.0,0.0,1.0024939,0.9949704,-0.07126785,0.9933792,0.99219555,0.34394917,0.0025909739,-0.002224713,0.000846967,0.00032930472,0.000111558584,1.8380251e-05,0.011425939,2.3573294,-0.89414907,0.2405386,1.548557,0.40519583,0.0,0.1,0.03928545,0.016516082,0.083757944,0.031827234,inf,inf,inf,inf,1,1,1,1,2,1,1,1,3,0,0,1
51309082,0,0.0,0.0,1.0025018,0.99497896,-0.07131764,0.9933792,0.99219555,0.34394917,-0.009608959,0.0023837152,-0.0007458836,-0.0012811398,0.000111558584,1.8380251e-05,0.011425939,-2.9980764,0.48488346,0.12776843,1.5460314,0.40519583,0.0,0.1,0.03911413,0.01651576,0.08292628,0.031826165,inf,inf,inf,inf,1,1,1,1,2,1,1,1,3,0,0,1
51329066,0,0.0,0.0,1.002473,0.9949972,-0.07134781,0.9933792,0.99219555,0.34394917,-0.0012878381,-0.0031542268,-0.001758061,-0.0023100034,0.000111558584,1.8380251e-05,0.011425939,0.8642324,-0.8503228,-0.044512074,1.5471641,0.40519583,0.0,0.1,0.038947623,0.01651544,0.08212378,0.031824913,inf,inf,inf,inf,1,1,1,1,2,1,1,1,3,0,0,1
51349053,0,0.0,0.0,1.0024483,0.99501884,-0.071358174,0.9933792,0.99219555,0.34394917,0.0013719217,0.0042093685,0.0008663921,0.00029848842,0.000111558584,1.8380251e-05,0.011425939,-1.1879246,-0.7510093,-0.2714298,1.5475163,0.40519583,0.0,0.1,0.03878572,0.016515119,0.08134988,0.031823486,inf,inf,inf,inf,1,1,1,1,2,1,1,1,3,0,0,1
51369040,0,0.0,0.0,1.0024087,0.99501604,-0.07139805,0.9933792,0.99219555,0.34394917,-0.0014823301,0.0072606895,-0.00046965515,-0.0010526609,0.000111558584,1.8380251e-05,0.011425939,0.17517607,1.4411768,-0.13930571,1.5455844,0.40519583,0.0,0.1,0.038628206,0.016514799,0.08060025,0.031822328,inf,inf,inf,inf,1,1,1,1,2,1,1,1,3,0,0,1
51389029,0,0.0,0.0,1.0024016,0.99504745,-0.07144883,0.9933792,0.99219555,0.34394917,0.008450317,-0.00083143037,0.0007652277,0.00016780157,0.000111558584,1.8380251e-05,0.011425939,2.504454,-1.0060017,0.38796896,1.5486351,0.40519583,0.0,0.1,0.03847489,0.016514482,0.07987572,0.031821128,inf,inf,inf,inf,1,1,1,1,2,1,1,1,3,0,0,1
51409017,0,0.0,0.0,1.0023677,0.9950016,-0.07149098,0.9933792,0.99219555,0.34394917,-0.011372039,0.0068463325,0.0011417012,0.0005308611,0.000111558584,1.8380251e-05,0.011425939,-1.8031363,2.9101474,0.30634302,1.5450846,0.40519583,0.0,0.1,0.038325593,0.016514167,0.0791751,0.031819943,inf,inf,inf,inf,1,1,1,1,2,1,1,1,3,0,0,1
51429006,0,0.0,0.0,1.0023572,0.995057,-0.07150759,0.9933792,0.99219555,0.34394917,0.0031310217,-0.00552812,-0.00033812626,-0.00096134475,0.000111558584,1.8380251e-05,0.011425939,2.6747308,-1.9353317,0.2650448,1.548482,0.40519583,0.0,0.1,0.038180158,0.01651385,0.07849734,0.03181877,inf,inf,inf,inf,1,1,1,1,2,1,1,1,3,0,0,1
51448992,0,0.0,0.0,1.0023495,0.99507314,-0.07155182,0.9933792,0.99219555,0.34394917,-0.00792168,0.0062202467,-0.0024704982,-0.0031050332,0.000111558584,1.8380251e-05,0.011425939,-3.1210108,0.9490771,-0.3757601,1.5458833,0.40519583,0.0,0.1,0.038038418,0.016513538,0.0778425,0.0318175,inf,inf,inf,inf,1,1,1,1,2,1,1,1,3,0,0,1
51468980,0,0.0,0.0,1.0023075,0.9950953,-0.07160406,0.9933792,0.99219555,0.34394917,0.0033690964,-0.0014930826,-0.002978164,-0.0036231694,0.000111558584,1.8380251e-05,0.011425939,2.079817,-1.4247108,-0.40522322,1.5468469,0.40519583,0.0,0.100038394,0.037900243,0.016513225,0.07720725,0.031816546,inf,inf,inf,inf,1,1,1,1,2,1,1,1,3,0,0,1
51488968,0,0.0,0.0,1.0023023,0.99509674,-0.0716383,0.9933792,0.99219555,0.34394917,0.0035354283,0.0060886974,0.0018136908,0.0011591633,0.000111558584,1.8380251e-05,0.011425939,-0.10767491,0.5528517,0.051875897,1.5474272,0.40519583,0.0,0.10007264,0.03776548,0.016512915,0.07659407,0.03181508,inf,inf,inf,inf,1,1,1,1,2,1,1,1,3,0,0,1
51508955,0,0.0,0.0,1.002287,0.9950806,-0.071674705,0.9933792,0.99219555,0.34394917,-0.005151519,0.0055832416,-1.5420765e-05,-0.0006784232,0.000111558584,1.8380251e-05,0.011425939,0.348826,1.4947276,0.006237599,1.5455153,0.40519583,0.0,0.10010904,0.037634023,0.016512606,0.07599925,0.031813826,inf,inf,inf,inf,1,1,1,1,2,1,1,1,3,0,0,1
51528944,0,0.0,0.0,1.0023074,0.9951279,-0.0717276,0.9933792,0.99219555,0.34394917,0.00053949386,-0.0022564577,0.0002742693,-0.00039645153,0.000111558584,1.8380251e-05,0.011425939,0.69784933,-1.1489198,0.45659706,1.5484971,0.40519583,0.0,0.10016194,0.038898643,0.0165123,0.077326,0.031812787,inf,inf,inf,inf,1,1,1,1,2,1,1,1,3,0,0,1
51548932,0,0.0,0.0,1.0022997,0.99510705,-0.07178216,0.9933792,0.99219555,0.34394917,-0.009738648,0.004810666,-0.003842021,-0.00451962,0.000111558584,1.8380251e-05,0.011425939,-2.5184667,1.9016598,-0.3608828,1.5447104,0.40519583,0.0,0.10021649,0.03871299,0.016511993,0.076645754,0.031811707,inf,inf,inf,inf,1,1,1,1,2,1,1,1,3,0,0,1
51568919,0,0.0,0.0,1.0023112,0.9951436,-0.07180606,0.9933792,0.99219555,0.34394917,0.008838297,-0.007245016,-0.00058589195,-0.0012691362,0.000111558584,1.8380251e-05,0.011425939,1.9732481,-2.6350503,-0.23495427,1.5484668,0.40519583,0.0,0.100240394,0.038534395,0.016511686,0.07599403,0.031810537,inf,inf,inf,inf,1,1,1,1,2,1,1,1,3,0,0,1
51588906,0,0.0,0.0,1.0023364,0.99511296,-0.07184108,0.9933792,0.99219555,0.34394917,-0.00025702314,0.0076400046,-8.777596e-05,-0.0007755993,0.000111558584,1.8380251e-05,0.011425939,-1.2637516,1.4563297,-0.31550375,1.5458361,0.40519583,0.0,0.10027542,0.038362447,0.01651138,0.07536982,0.031809192,inf,inf,inf,inf,1,1,1,1,2,1,1,1,3,0,0,1
51608894,0,0.0,0.0,1.0023457,0.9951321,-0.07188266,0.9933792,0.99219555,0.34394917,0.0028832445,-0.0014959283,-0.0001764421,-0.00086791825,0.000111558584,1.8380251e-05,0.011425939,2.5656571,-0.89807343,0.075510845,1.5473471,0.40519583,0.0,0.100316994,0.03819679,0.016511077,0.07476965,0.03180818,inf,inf,inf,inf,1,1,1,1,2,1,1,1,3,0,0,1
51628883,0,0.0,0.0,1.0023389,0.9951525,-0.071937814,0.9933792,0.99219555,0.34394917,-0.008035152,0.00522518,-0.00026370445,-0.0009579371,0.000111558584,1.8380251e-05,0.011425939,-1.0871022,0.6334001,0.4186668,1.5473973,0.40519583,0.0,0.10037215,0.038037065,0.016510775,0.07419398,0.031806882,inf,inf,inf,inf,1,1,1,1,2,1,1,1,3,0,0,1
51648870,0,0.0,0.0,1.0023196,0.99516296,-0.07196856,0.9933792,0.99219555,0.34394917,-0.006223984,0.00020344954,-0.0017944482,-0.0024903954,0.000111558584,1.8380251e-05,0.011425939,0.33210528,0.22582696,-0.057585116,1.5453633,0.40519583,0.0,0.1004029,0.03788297,0.016510475,0.07364047,0.031805806,inf,inf,inf,inf,1,1,1,1,2,1,1,1,3,0,0,1
51668859,0,0.0,0.0,1.0023538,0.9951998,-0.07199424,0.9933792,0.99219555,0.34394917,-0.002782858,-0.0023442095,-0.0003690895,-0.0010656659,0.000111558584,1.8380251e-05,0.011425939,-2.3472743,-1.3736519,-0.11112462,1.548556,0.40519583,0.0,0.100428574,0.03773422,0.016510174,0.07310849,0.031804644,inf,inf,inf,inf,1,1,1,1,2,1,1,1,3,0,0,1
51688847,0,0.0,0.0,1.0023725,0.9951493,-0.07204386,0.9933792,0.99219555,0.34394917,0.002631566,0.004456146,-0.0027480691,-0.0034441696,0.000111558584,1.8380251e-05,0.011425939,0.378434,1.1433054,-0.29119945,1.5447056,0.40519583,0.0,0.100478195,0.037590537,0.016509876,0.07259664,0.031803716,inf,inf,inf,inf,1,1,1,1,2,1,1,1,3,0,0,1
51708833,0,0.0,0.0,1.0023715,0.9951887,-0.072085604,0.9933792,0.99219555,0.34394917,0.0041369577,-0.00023598154,-0.0006173663,-0.0013116648,0.000111558584,1.8380251e-05,0.011425939,0.5935906,-1.0242261,-0.042928472,1.5487783,0.40519583,0.0,0.10051994,0.037451666,0.016509578,0.0721043,0.0318024,inf,inf,inf,inf,1,1,1,1,2,1,1,1,3,0,0,1
51728823,0,0.0,0.0,1.0022984,0.99518466,-0.07210911,0.9933792,0.99219555,0.34394917,-0.005090423,0.009944675,0.0012421154,0.00055074674,0.000111558584,1.8380251e-05,0.011425939,0.7384551,1.5857824,-0.22627999,1.5452536,0.40519583,0.0,0.10054345,0.03731738,0.016509283,0.07163027,0.031801045,inf,inf,inf,inf,1,1,1,1,2,1,1,1,3,0,0,1
51748809,0,0.0,0.0,1.002307,0.9952174,-0.07214425,0.9933792,0.99219555,0.34394917,0.0030224372,-0.0064914525,-0.00078619894,-0.0014735325,0.000111558584,1.8380251e-05,0.011425939,1.7689935,-1.0984758,0.45437205,1.5475204,0.40519583,0.0,0.100578584,0.037187476,0.016508985,0.07117337,0.031800073,inf,inf,inf,inf,1,1,1,1,2,1,1,1,3,0,0,1
51768797,0,0.0,0.0,1.0023314,0.99521494,-0.07220685,0.9933792,0.99219555,0.34394917,-0.010540706,0.0039005845,-0.0034499406,-0.004132164,0.000111558584,1.8380251e-05,0.011425939,-2.2825158,0.4617512,-0.035087634,1.5466592,0.40519583,0.0,0.10064118,0.037061732,0.016508693,0.07073318,0.03179896,inf,inf,inf,inf,1,1,1,1,2,1,1,1,3,0,0,1
51788786,0,0.0,0.0,1.0023513,0.99518734,-0.07224321,0.9933792,0.99219555,0.34394917,0.0058666645,-0.008631994,-0.0006863279,-0.0013625018,0.000111558584,1.8380251e-05,0.011425939,1.984582,-2.105217,0.1417808,1.5458014,0.40519583,0.0,0.10067755,0.03693997,0.016508399,0.07030884,0.03179803,inf,inf,inf,inf,1,1,1,1,2,1,1,1,3,0,0,1
51808774,0,0.0,0.0,1.0023503,0.9952396,-0.07226035,0.9933792,0.99219555,0.34394917,-0.0068872836,0.008956239,-0.0014516629,-0.0021206154,0.000111558584,1.8380251e-05,0.011425939,-2.8360822,0.29178476,-0.5209661,1.5484505,0.40519583,0.0,0.100694686,0.03682201,0.016508108,0.06989941,0.031796657,inf,inf,inf,inf,1,1,1,1,2,1,1,1,3,0,0,1
51828762,0,0.0,0.0,1.0023571,0.9952061,-0.072292656,0.9933792,0.99219555,0.34394917,0.009059607,-0.0007251656,-0.0010666891,-0.0017273658,0.000111558584,1.8380251e-05,0.011425939,3.703075,-1.121227,-0.052513342,1.5448213,0.40519583,0.0,0.10072699,0.036707688,0.016507816,0.069504455,0.031795617,inf,inf,inf,inf,1,1,1,1,2,1,1,1,3,0,0,1
51848750,0,0.0,0.0,1.0023636,0.9952146,-0.07234343,0.9933792,0.99219555,0.34394917,-0.007310051,0.0038998085,-0.0008238191,-0.001475109,0.000111558584,1.8380251e-05,0.011425939,-1.8981662,1.1216198,-0.07967575,1.5491586,0.40519583,0.0,0.10077777,0.036596853,0.016507525,0.0691234,0.0317945,inf,inf,inf,inf,1,1,1,1,2,1,1,1,3,0,0,1
51868737,0,0.0,0.0,1.0023526,0.9951759,-0.07239957,0.9933792,0.99219555,0.34394917,-0.0042179897,0.0028356048,-0.0010552233,-0.0016961788,0.000111558584,1.8380251e-05,0.011425939,1.3230764,-0.026400115,0.3564283,1.5446538,0.40519583,0.0,0.10083391,0.036489356,0.01650724,0.06875531,0.03179337,inf,inf,inf,inf,1,1,1,1,2,1,1,1,3,0,0,1
51888724,0,0.0,0.0,1.0023596,0.9952138,-0.07241701,0.9933792,0.99219555,0.34394917,-0.004712235,-0.0036609434,-0.0016329467,-0.0022624957,0.000111558584,1.8380251e-05,0.011425939,-2.0191612,-0.35886165,-0.073030494,1.5483123,0.40519583,0.0,0.10085135,0.036385063,0.016506951,0.068399854,0.031792186,inf,inf,inf,inf,1,1,1,1,2,1,1,1,3,0,0,1
51908712,0,0.0,0.0,1.0023454,0.99521774,-0.07244898,0.9933792,0.99219555,0.34394917,-0.00089221535,0.0063141654,-0.003738109,-0.0043553757,0.000111558584,1.8380251e-05,0.011425939,-0.33440503,0.11014457,-0.44765738,1.5457764,0.40519583,0.0,0.10088331,0.036283847,0.016506666,0.068056606,0.03179124,inf,inf,inf,inf,1,1,1,1,2,1,1,1,3,0,0,1
51928702,0,0.0,0.0,1.0023646,0.99520224,-0.07249934,0.9933792,0.99219555,0.34394917,0.0092585,-0.005408831,-0.0025977036,-0.0032019624,0.000111558584,1.8380251e-05,0.011425939,1.641047,-1.1221187,-0.036220443,1.5464734,0.40519583,0.0,0.10093368,0.03618558,0.016506381,0.06772489,0.03179022,inf,inf,inf,inf,1,1,1,1,2,1,1,1,3,0,0,1
51948689,0,0.0,0.0,1.0023546,0.9952081,-0.072534695,0.9933792,0.99219555,0.34394917,-0.003047066,0.007947875,0.00057122327,-1.9066101e-05,0.000111558584,1.8380251e-05,0.011425939,0.51365167,0.8407037,0.1360658,1.5476464,0.40519583,0.0,0.10096903,0.036090154,0.016506098,0.067403704,0.031788882,inf,inf,inf,inf,1,1,1,1,2,1,1,1,3,0,0,1
51968675,0,0.0,0.0,1.0023715,0.9951751,-0.072564445,0.9933792,0.99219555,0.34394917,-0.003095798,-0.004354389,-0.00016016579,-0.0007357505,0.000111558584,1.8380251e-05,0.011425939,0.8371659,-0.59312385,0.5609771,1.545229,0.40519583,0.0,0.10099878,0.03599746,0.016505813,0.06709353,0.031787857,inf,inf,inf,inf,1,1,1,1,2,1,1,1,3,0,0,1
51988663,0,0.0,0.0,1.002384,0.9952281,-0.07257672,0.9933792,0.99219555,0.34394917,-0.00982117,0.0043290136,-0.002210857,-0.002771263,0.000111558584,1.8380251e-05,0.011425939,-1.6895726,0.028375356,-0.18342121,1.5489193,0.40519583,0.0,0.10101105,0.035907403,0.016505534,0.06679384,0.031786676,inf,inf,inf,inf,1,1,1,1,2,1,1,1,3,0,0,1
52008653,0,0.0,0.0,1.0024148,0.9951784,-0.07261403,0.9933792,0.99219555,0.34394917,0.001862867,-0.0027612294,-0.002037673,-0.0025824779,0.000111558584,1.8380251e-05,0.011425939,-0.1299386,-0.93346786,0.13822486,1.5441668,0.40519583,0.0,0.101048365,0.035819873,0.016505253,0.06650438,0.03178585,inf,inf,inf,inf,1,1,1,1,2,1,1,1,3,0,0,1
52028641,0,0.0,0.0,1.0024087,0.9952144,-0.0726317,0.9933792,0.99219555,0.34394917,0.00031076552,0.0038265046,-0.0013347141,-0.0018631939,0.000111558584,1.8380251e-05,0.011425939,-0.19947086,0.32465562,-0.5477765,1.5491866,0.40519583,0.0,0.10106604,0.035734788,0.016504973,0.06622364,0.03178469,inf,inf,inf,inf,1,1,1,1,2,1,1,1,3,0,0,1
52048626,0,0.0,0.0,1.0024073,0.99514323,-0.072647266,0.9933792,0.99219555,0.34394917,0.006121792,0.0026933616,0.0011333578,0.0006218604,0.000111558584,1.8380251e-05,0.011425939,2.7047741,0.32893875,0.21613313,1.5446483,0.40519583,0.0,0.1010816,0.03565206,0.016504694,0.06595154,0.031783577,inf,inf,inf,inf,1,1,1,1,2,1,1,1,3,0,0,1
52068614,0,0.0,0.0,1.002448,0.9951552,-0.072677314,0.9933792,0.99219555,0.34394917,-0.01251614,0.000100437595,-0.0018965693,-0.0023903244,0.000111558584,1.8380251e-05,0.011425939,-2.5602517,0.87661165,0.15497378,1.5483911,0.40519583,0.0,0.10111165,0.035571605,0.016504416,0.06568841,0.031782348,inf,inf,inf,inf,1,1,1,1,2,1,1,1,3,0,0,1
52088602,0,0.0,0.0,1.0024763,0.99515194,-0.07271312,0.9933792,0.99219555,0.34394917,0.001661172,0.0040967,-0.0023677591,-0.0028431162,0.000111558584,1.8380251e-05,0.011425939,1.5724432,-0.38285714,0.19608203,1.5458537,0.40519583,0.0,0.10114746,0.035493348,0.016504137,0.06543469,0.031781398,inf,inf,inf,inf,1,1,1,1,2,1,1,1,3,0,0,1
52108591,0,0.0,0.0,1.0024966,0.9951107,-0.07273561,0.9933792,0.99219555,0.34394917,-0.007971,-0.003138031,-0.0022936054,-0.0027497143,0.000111558584,1.8380251e-05,0.011425939,-4.417977,0.9651923,-0.1783557,1.5465903,0.40519583,0.0,0.101169944,0.035417214,0.016503861,0.065188326,0.031780314,inf,inf,inf,inf,1,1,1,1,2,1,1,1,3,0,0,1
52128579,0,0.0,0.0,1.002498,0.99511606,-0.07274228,0.9933792,0.99219555,0.34394917,0.0119750975,0.00611897,-0.0010928527,-0.001528908,0.000111558584,1.8380251e-05,0.011425939,3.0908988,-0.21258505,-0.1253154,1.5476695,0.40519583,0.0,0.10117662,0.03534313,0.016503584,0.064950414,0.031779315,inf,inf,inf,inf,1,1,1,1,2,1,1,1,3,0,0,1
52148566,0,0.0,0.0,1.0025526,0.99507433,-0.07276518,0.9933792,0.99219555,0.34394917,0.004686728,-0.0022244453,-0.00030389486,-0.00071944593,0.000111558584,1.8380251e-05,0.011425939,-0.11485119,0.9244805,-0.09474707,1.5448933,0.40519583,0.0,0.101199515,0.035271034,0.016503308,0.0647183,0.0317782,inf,inf,inf,inf,1,1,1,1,2,1,1,1,3,0,0,1
52168553,0,0.0,0.0,1.0025655,0.99512184,-0.07280142,0.9933792,0.99219555,0.34394917,-0.00488885,0.0016675073,0.0004163459,2.1489263e-05,0.000111558584,1.8380251e-05,0.011425939,1.2684412,-0.99645865,0.52487737,1.5492312,0.40519583,0.0,0.101235755,0.03520086,0.016503034,0.0644952,0.03177709,inf,inf,inf,inf,1,1,1,1,2,1,1,1,3,0,0,1
52188543,0,0.0,0.0,1.002606,0.99504143,-0.07280166,0.9933792,0.99219555,0.34394917,-0.0043601636,-0.0033401703,-0.0009544322,-0.0013284669,0.000111558584,1.8380251e-05,0.011425939,-0.25431913,0.044085845,0.20001721,1.5441021,0.40519583,0.0,0.10123599,0.035132542,0.016502762,0.064278364,0.031776056,inf,inf,inf,inf,1,1,1,1,2,1,1,1,3,0,0,1
52208530,0,0.0,0.0,1.0026355,0.9950808,-0.07277796,0.9933792,0.99219555,0.34394917,-0.0053348504,0.0019959586,-0.002488443,-0.0028412992,0.000111558584,1.8380251e-05,0.011425939,-1.9560643,-0.8587614,-0.79452455,1.5496262,0.40519583,0.0,0.10121229,0.03506603,0.01650249,0.0640689,0.03177493,inf,inf,inf,inf,1,1,1,1,2,1,1,1,3,0,0,1
52228518,0,0.0,0.0,1.0026828,0.9950321,-0.072792485,0.9933792,0.99219555,0.34394917,0.007025764,0.003979093,-0.0015590622,-0.0018905665,0.000111558584,1.8380251e-05,0.011425939,0.7478609,-0.06035002,-0.10762139,1.5440289,0.40519583,0.0,0.10122682,0.035001263,0.016502216,0.06386652,0.031774156,inf,inf,inf,inf,1,1,1,1,2,1,1,1,3,0,0,1
52248506,0,0.0,0.0,1.0026939,0.99504775,-0.072806224,0.9933792,0.99219555,0.34394917,0.00051960937,0.0014688463,0.000600258,0.00029042904,0.000111558584,1.8380251e-05,0.011425939,0.62624216,0.4746807,-0.071024396,1.5490627,0.40519583,0.0,0.10124056,0.034938194,0.016501948,0.063668706,0.031772923,inf,inf,inf,inf,1,1,1,1,2,1,1,1,3,0,0,1
52268492,0,0.0,0.0,1.0027168,0.99498546,-0.07282451,0.9933792,0.99219555,0.34394917,-0.0033784301,0.0018438704,0.0012502993,0.00096236676,0.000111558584,1.8380251e-05,0.011425939,0.2974504,-0.07270096,0.77668047,1.5456527,0.40519583,0.0,0.101258844,0.03487677,0.016501678,0.06347742,0.031771816,inf,inf,inf,inf,1,1,1,1,2,1,1,1,3,0,0,1
52288488,0,0.0,0.0,1.0027423,0.9949772,-0.07280986,0.9933792,0.99219555,0.34394917,-0.010983532,-0.001196362,-0.0008636573,-0.0011294992,0.000111558584,1.8380251e-05,0.011425939,-1.5179152,0.672675,0.19206399,1.5470395,0.40519583,0.0,0.1012442,0.034816943,0.016501408,0.06329197,0.031770702,inf,inf,inf,inf,1,1,1,1,2,1,1,1,3,0,0,1
52308476,0,0.0,0.0,1.0027968,0.9949749,-0.07278458,0.9933792,0.99219555,0.34394917,0.0046764426,0.0019279759,-0.0015732389,-0.0018167678,0.000111558584,1.8380251e-05,0.011425939,-0.47081783,-1.0459677,-0.20651945,1.5475824,0.40519583,0.0,0.10121892,0.03475866,0.016501142,0.063114926,0.03176992,inf,inf,inf,inf,1,1,1,1,2,1,1,1,3,0,0,1
52328461,0,0.0,0.0,1.0027972,0.9949287,-0.072784066,0.9933792,0.99219555,0.34394917,-0.0007655209,0.0043198946,-0.002026601,-0.002247662,0.000111558584,1.8380251e-05,0.011425939,-1.3349057,1.7942785,-0.51818573,1.5452437,0.40519583,0.0,0.1012184,0.034701884,0.016500875,0.062941805,0.031769022,inf,inf,inf,inf,1,1,1,1,2,1,1,1,3,0,0,1
52348444,0,0.0,0.0,1.0028101,0.9949465,-0.072800964,0.9933792,0.99219555,0.34394917,0.012745797,-0.0024194403,0.0028991408,0.0027005605,0.000111558584,1.8380251e-05,0.011425939,4.234822,-1.317342,0.67393905,1.548532,0.40519583,0.0,0.1012353,0.03464657,0.01650061,0.06277219,0.031767745,inf,inf,inf,inf,1,1,1,1,2,1,1,1,3,0,0,1
52368432,0,0.0,0.0,1.0028439,0.9948878,-0.072791584,0.9933792,0.99219555,0.34394917,-0.012864622,0.0027603563,0.0001104929,-6.570956e-05,0.000111558584,1.8380251e-05,0.011425939,-3.023931,2.0864394,0.33464018,1.5452961,0.40519583,0.0,0.10122592,0.03459268,0.016500346,0.062606595,0.031766564,inf,inf,inf,inf,1,1,1,1,2,1,1,1,3,0,0,1
52388420,0,0.0,0.0,1.0028603,0.9948974,-0.072760716,0.9933792,0.99219555,0.34394917,0.0005980701,-0.005995837,-0.0029429833,-0.0030969114,0.000111558584,1.8380251e-05,0.011425939,1.5638278,-2.0389283,-0.1615108,1.5479548,0.40519583,0.0,0.10119505,0.034540165,0.016500082,0.062450487,0.03176563,inf,inf,inf,inf,1,1,1,1,2,1,1,1,3,0,0,1
52408408,0,0.0,0.0,1.002864,0.994873,-0.07273355,0.9933792,0.99219555,0.34394917,0.000725472,0.0055405055,-5.6995223e-06,-0.00013754095,0.000111558584,1.8380251e-05,0.011425939,-2.0653243,0.899187,-0.42546517,1.5464336,0.40519583,0.0,0.10116789,0.034460314,0.01649982,0.062246937,0.031764705,inf,inf,inf,inf,1,1,1,1,2,1,1,1,3,0,0,1
52428396,0,0.0,0.0,1.0028634,0.994873,-0.07273812,0.9933792,0.99219555,0.34394917,0.003435563,0.0006233763,5.171305e-05,-5.84565e-05,0.000111558584,1.8380251e-05,0.011425939,2.0276294,-0.05381056,0.10319516,1.5463519,0.40519583,0.0,0.101172455,0.03438326,0.016499557,0.06205259,0.03176376,inf,inf,inf,inf,1,1,1,1,2,1,1,1,3,0,0,1
52448384,0,0.0,0.0,1.0028933,0.99485666,-0.07275043,0.9933792,0.99219555,0.34394917,-0.0007330187,-0.0037308047,0.00013818785,4.9340473e-05,0.000111558584,1.8380251e-05,0.011425939,0.58487767,-0.7184272,0.6489815,1.5477269,0.40519583,0.0,0.10118476,0.034308907,0.016499292,0.061863363,0.031762674,inf,inf,inf,inf,1,1,1,1,2,1,1,1,3,0,0,1
52468371,0,0.0,0.0,1.0029192,0.99482065,-0.072745994,0.9933792,0.99219555,0.34394917,-0.0109043615,0.0047115134,-0.0037834402,-0.0038514338,0.000111558584,1.8380251e-05,0.011425939,-2.5544891,1.2744759,-0.37153682,1.545562,0.40519583,0.0,0.10118033,0.034237158,0.016499031,0.061683223,0.031761445,inf,inf,inf,inf,1,1,1,1,2,1,1,1,3,0,0,1
52488360,0,0.0,0.0,1.0029544,0.99482757,-0.07272621,0.9933792,0.99219555,0.34394917,0.0092214905,-0.003465461,-0.00077023736,-0.00081789226,0.000111558584,1.8380251e-05,0.011425939,0.9992467,-1.4788488,-0.12051307,1.54787,0.40519583,0.0,0.10116055,0.03416792,0.01649877,0.061513875,0.031760536,inf,inf,inf,inf,1,1,1,1,2,1,1,1,3,0,0,1
52508347,0,0.0,0.0,1.0029424,0.9947863,-0.072724484,0.9933792,0.99219555,0.34394917,0.0012676178,0.0056636645,4.460837e-05,1.6910655e-05,0.000111558584,1.8380251e-05,0.011425939,0.004380696,1.9186274,-0.11995782,1.5460258,0.40519583,0.0,0.10115882,0.034101114,0.01649851,0.061352596,0.03175975,inf,inf,inf,inf,1,1,1,1,2,1,1,1,3,0,0,1
52528334,0,0.0,0.0,1.0029597,0.994773,-0.07271917,0.9933792,0.99219555,0.34394917,0.002058721,-0.007898221,0.0001752202,0.00016692313,0.000111558584,1.8380251e-05,0.011425939,2.527289,-1.804721,0.40723225,1.546783,0.40519583,0.0,0.10115351,0.03403664,0.01649825,0.061195478,0.03175869,inf,inf,inf,inf,1,1,1,1,2,1,1,1,3,0,0,1
52548322,0,0.0,0.0,1.0030196,0.9947777,-0.07269918,0.9933792,0.99219555,0.34394917,-0.010817569,0.00528163,-0.001574577,-0.0015640699,0.000111558584,1.8380251e-05,0.011425939,-3.041567,0.6719523,-0.055522304,1.5475622,0.40519583,0.0,0.10113352,0.033974435,0.016497992,0.061041523,0.03175745,inf,inf,inf,inf,1,1,1,1,2,1,1,1,3,0,0,1
52568311,0,0.0,0.0,1.0030451,0.9947561,-0.07268297,0.9933792,0.99219555,0.34394917,0.0072612865,0.0012744452,-0.001605725,-0.001577238,0.000111558584,1.8380251e-05,0.011425939,1.4397258,-0.47205904,-0.28389594,1.5457914,0.40519583,0.0,0.101117305,0.03391441,0.016497735,0.060899533,0.031756513,inf,inf,inf,inf,1,1,1,1,2,1,1,1,3,0,0,1
52588298,0,0.0,0.0,1.0030372,0.99475193,-0.07267273,0.9933792,0.99219555,0.34394917,7.710674e-05,-0.0009344869,0.00063175766,0.00067725894,0.000111558584,1.8380251e-05,0.011425939,-1.3248036,0.50446296,-0.13524218,1.5478276,0.40519583,0.0,0.10110707,0.033856485,0.016497476,0.060764607,0.031755667,inf,inf,inf,inf,1,1,1,1,2,1,1,1,3,0,0,1
52608289,0,0.0,0.0,1.0030288,0.99471956,-0.07266678,0.9933792,0.99219555,0.34394917,-0.00016444954,0.0012697704,0.00062205683,0.00068381475,0.000111558584,1.8380251e-05,0.011425939,2.6872284,0.10958435,0.30703154,1.5459539,0.40519583,0.0,0.101101115,0.033800606,0.016497223,0.060634956,0.03175489,inf,inf,inf,inf,1,1,1,1,2,1,1,1,3,0,0,1
52628275,0,0.0,0.0,1.0031058,0.9947061,-0.072638944,0.9933792,0.99219555,0.34394917,-0.0028810336,-0.004676132,-0.0013808901,-0.0013034788,0.000111558584,1.8380251e-05,0.011425939,-1.9179502,-0.8377457,-0.039569836,1.5473375,0.40519583,0.0,0.10107328,0.033746693,0.01649697,0.060505416,0.031753626,inf,inf,inf,inf,1,1,1,1,2,1,1,1,3,0,0,1
52648263,0,0.0,0.0,1.0030876,0.9946834,-0.0726169,0.9933792,0.99219555,0.34394917,-0.0029637995,0.0069636824,-0.0011203664,-0.0010278021,0.000111558584,1.8380251e-05,0.011425939,-0.94768,1.1709113,-0.54956245,1.5471843,0.40519583,0.0,0.10105123,0.03369468,0.016496714,0.060382865,0.031752504,inf,inf,inf,inf,1,1,1,1,2,1,1,1,3,0,0,1
52668255,0,0.0,0.0,1.0030718,0.9946569,-0.072616346,0.9933792,0.99219555,0.34394917,0.010872124,-0.00649926,0.0012833255,0.0013906833,0.000111558584,1.8380251e-05,0.011425939,3.3709817,-1.0848575,0.48380935,1.545885,0.40519583,0.0,0.10105068,0.033644482,0.01649646,0.060270935,0.03175171,inf,inf,inf,inf,1,1,1,1,2,1,1,1,3,0,0,1
52688237,0,0.0,0.0,1.0030773,0.9946834,-0.07261149,0.9933792,0.99219555,0.34394917,-0.011686789,0.00169941,-0.00087878946,-0.0007570186,0.000111558584,1.8380251e-05,0.011425939,-2.361036,0.6950453,-0.01780793,1.5480294,0.40519583,0.0,0.101045825,0.033596065,0.016496211,0.06015957,0.031750735,inf,inf,inf,inf,1,1,1,1,2,1,1,1,3,0,0,1
52708225,0,0.0,0.0,1.0031286,0.99466074,-0.07264454,0.9933792,0.99219555,0.34394917,0.0012372411,0.0031108176,-0.006985901,-0.006850336,0.000111558584,1.8380251e-05,0.011425939,1.5887927,-0.82732576,-0.2247386,1.5462763,0.40519583,0.0,0.101078875,0.033549353,0.016495958,0.060052037,0.0317498,inf,inf,inf,inf,1,1,1,1,2,1,1,1,3,0,0,1
52728215,0,0.0,0.0,1.0032426,0.9946922,-0.072762385,0.9933792,0.99219555,0.34394917,-0.00020312582,0.009574572,-0.0074916445,-0.007343011,0.000111558584,1.8380251e-05,0.011425939,-0.122647256,1.199735,-0.3847776,1.548073,0.40519583,0.0,0.10119672,0.033504292,0.016495708,0.059948742,0.03174861,inf,inf,inf,inf,1,1,1,1,2,1,1,1,3,0,0,1
52748203,0,0.0,0.0,1.003409,0.9947307,-0.073024064,0.9933792,0.99219555,0.34394917,0.008527669,-0.0019084365,-0.020506881,-0.020346027,0.000111558584,1.8380251e-05,0.011425939,-0.6214461,-0.7459757,-0.44256815,1.545814,0.40519583,0.0,0.1014584,0.033460822,0.016495457,0.059853055,0.03174781,inf,inf,inf,inf,1,1,1,1,2,1,1,1,3,0,0,1
52768189,0,0.0,0.0,1.0035203,0.9947721,-0.07320289,0.9933792,0.99219555,0.34394917,0.0019201036,0.0032820704,0.0006978732,0.0008700165,0.000111558584,1.8380251e-05,0.011425939,-0.950518,-0.2512711,0.6436915,1.5475948,0.40519583,0.0,0.10163723,0.033418886,0.016495207,0.05975912,0.03174682,inf,inf,inf,inf,1,1,1,1,2,1,1,1,3,0,0,1
52788176,0,0.0,0.0,1.0035657,0.9947804,-0.073161915,0.9933792,0.99219555,0.34394917,0.010361404,0.004232441,-0.00965503,-0.0094730845,0.000111558584,1.8380251e-05,0.011425939,1.5980496,-0.24285349,-2.1366556,1.5457139,0.40519583,0.0,0.10159625,0.033378433,0.016494958,0.059667975,0.031745814,inf,inf,inf,inf,1,1,1,1,2,1,1,1,3,0,0,1
52808164,0,0.0,0.0,1.003911,0.9947485,-0.07363288,0.9933792,0.99219555,0.34394917,0.023460494,-0.0024320423,-0.03141804,-0.031227995,0.000111558584,1.8380251e-05,0.011425939,0.85575914,0.17210701,-0.21047708,1.5467341,0.40519583,0.0,0.10206722,0.03333942,0.01649471,0.059580345,0.031744774,inf,inf,inf,inf,1,1,1,1,2,1,1,1,3,0,0,1
52828153,0,0.0,0.0,1.004271,0.994741,-0.07421291,0.9933792,0.99219555,0.34394917,0.013718648,0.0035483711,-0.023476668,-0.023279844,0.000111558584,1.8380251e-05,0.011425939,0.07345317,0.6469562,0.89727676,1.5462476,0.40519583,0.0,0.102647245,0.03330178,0.016494462,0.05950048,0.031743947,inf,inf,inf,inf,1,1,1,1,2,1,1,1,3,0,0,1
52848140,0,0.0,0.0,1.0045811,0.9948367,-0.074598454,0.9933792,0.99219555,0.34394917,0.012850082,0.0022987535,-0.020815618,-0.0206149,0.000111558584,1.8380251e-05,0.011425939,-0.061742555,-0.7119882,-0.21896458,1.5472398,0.40519583,0.0,0.10303279,0.03326547,0.016494215,0.05942107,0.031743083,inf,inf,inf,inf,1,1,1,1,2,1,1,1,3,0,0,1
52868128,0,0.0,0.0,1.0049908,0.9948496,-0.07511065,0.9933792,0.99219555,0.34394917,0.018947667,-0.0012778426,-0.03020298,-0.0300032,0.000111558584,1.8380251e-05,0.011425939,-0.5062265,-0.6941991,-0.09420314,1.5462981,0.40519583,0.0,0.10354499,0.03323047,0.016493969,0.05934329,0.031742062,inf,inf,inf,inf,1,1,1,1,2,1,1,1,3,0,0,1
52888116,0,0.0,0.0,1.0052887,0.99481356,-0.07552408,0.9933792,0.99219555,0.34394917,0.009800452,0.002924268,-0.010389888,-0.010197057,0.000111558584,1.8380251e-05,0.011425939,-0.9119694,0.077997535,0.97206354,1.5478266,0.40519583,0.0,0.10395841,0.03319673,0.016493728,0.05927775,0.03174153,inf,inf,inf,inf,1,1,1,1,2,1,1,1,3,0,0,1
52908103,0,0.0,0.0,1.0052742,0.9948985,-0.075594746,0.9933792,0.99219555,0.34394917,-0.0013603688,0.009688116,0.00017572922,0.00035486612,0.000111558584,1.8380251e-05,0.011425939,0.27102056,0.061524775,0.0016408131,1.5481316,0.40519583,0.0,0.10402908,0.03316422,0.01649349,0.05921413,0.031741023,inf,inf,inf,inf,1,1,1,1,2,1,1,1,3,0,0,1
52928092,0,0.0,0.0,1.0052202,0.99493796,-0.07570633,0.9933792,0.99219555,0.34394917,-0.00066149863,0.00040534133,-0.008198649,-0.008039878,0.000111558584,1.8380251e-05,0.011425939,0.48964527,-0.4384821,-0.028599465,1.5489554,0.40519583,0.0,0.10414067,0.03313297,0.016493259,0.059142016,0.031739786,inf,inf,inf,inf,1,1,1,1,2,1,1,1,3,0,0,1
52948078,0,0.0,0.0,1.0051663,0.9948798,-0.075837135,0.9933792,0.99219555,0.34394917,-0.0076664505,0.002711181,0.00017998996,0.0003118776,0.000111558584,1.8380251e-05,0.011425939,-0.3543213,0.5733921,0.90895814,1.549253,0.40519583,0.0,0.10427147,0.033102702,0.016493019,0.05905943,0.031737823,inf,inf,inf,inf,1,1,1,1,2,1,1,1,3,0,0,1
52968066,0,0.0,0.0,1.0049515,0.99498826,-0.07574741,0.9933792,0.99219555,0.34394917,-0.010043024,0.011891059,0.006092014,0.0061910474,0.000111558584,1.8380251e-05,0.011425939,0.16675195,0.49485326,-0.24839593,1.5501844,0.40519583,0.0,0.104181744,0.033073485,0.016492775,0.05903539,0.031739067,inf,inf,inf,inf,1,1,1,1,2,1,1,1,3,0,0,1
52988054,0,0.0,0.0,1.0048059,0.99520785,-0.07579475,0.9933792,0.99219555,0.34394917,-0.0015253619,0.014244796,-0.007187788,-0.007125703,0.000111558584,1.8380251e-05,0.011425939,0.3218085,-0.283395,-0.4944811,1.5492892,0.40519583,0.0,0.104229085,0.033045597,0.016492557,0.058980264,0.031738386,inf,inf,inf,inf,1,1,1,1,2,1,1,1,3,0,0,1
53008042,0,0.0,0.0,1.0047655,0.99543965,-0.07603746,0.9933792,0.99219555,0.34394917,-0.0019629311,0.0132282935,-0.013090796,-0.01306697,0.000111558584,1.8380251e-05,0.011425939,-0.556045,-0.53592896,-0.1440056,1.5493377,0.40519583,0.0,0.104471795,0.03301868,0.016492339,0.058906112,0.031736653,inf,inf,inf,inf,1,1,1,1,2,1,1,1,3,0,0,1
53028029,0,0.0,0.0,1.00474,0.99559486,-0.07639248,0.9933792,0.99219555,0.34394917,-0.00020733815,0.0098799495,-0.018623985,-0.0186378,0.000111558584,1.8380251e-05,0.011425939,-0.36141595,-0.46092245,-0.25877583,1.548188,0.40519583,0.0,0.104826815,0.032992635,0.01649211,0.05886058,0.031736206,inf,inf,inf,inf,1,1,1,1,2,1,1,1,3,0,0,1
53048021,0,0.0,0.0,1.0046989,0.9957255,-0.07683472,0.9933792,0.99219555,0.34394917,-0.00048324076,0.010771544,-0.019959923,-0.020008894,0.000111558584,1.8380251e-05,0.011425939,-0.13169958,-0.003542711,0.20842385,1.547692,0.40519583,0.0,0.10526906,0.032967616,0.016491888,0.058799803,0.031734724,inf,inf,inf,inf,1,1,1,1,2,1,1,1,3,0,0,1
53068005,0,0.0,0.0,1.0046988,0.9958494,-0.07731364,0.9933792,0.99219555,0.34394917,0.003310741,0.008036152,-0.025448281,-0.02552946,0.000111558584,1.8380251e-05,0.011425939,0.22058322,-0.11860727,-0.23631093,1.5460892,0.40519583,0.0,0.105747975,0.03294334,0.016491655,0.05872349,0.03173257,inf,inf,inf,inf,1,1,1,1,2,1,1,1,3,0,0,1
53087993,0,0.0,0.0,1.00469,0.9958146,-0.07789042,0.9933792,0.99219555,0.34394917,-0.0027866066,-0.0043247254,-0.029266324,-0.029379578,0.000111558584,1.8380251e-05,0.011425939,-0.44952038,-0.59749323,-0.309367,1.5457776,0.40519583,0.0,0.106324755,0.032919742,0.016491406,0.058678035,0.03173179,inf,inf,inf,inf,1,1,1,1,2,1,1,1,3,0,0,1
53107986,0,0.0,0.0,1.0044873,0.9955086,-0.07861164,0.9933792,0.99219555,0.34394917,-0.011121477,-0.017140875,-0.041704897,-0.041853648,0.000111558584,1.8380251e-05,0.011425939,-0.28961068,-0.27088213,-0.9076215,1.5450405,0.40519583,0.0,0.10704598,0.032897055,0.016491164,0.05863055,0.031730864,inf,inf,inf,inf,1,1,1,1,2,1,1,1,3,0,0,1
53127969,0,0.0,0.0,1.0041556,0.99499035,-0.07971179,0.9933792,0.99219555,0.34394917,-0.010634208,-0.026546042,-0.061211683,-0.06140281,0.000111558584,1.8380251e-05,0.011425939,0.16865778,-0.40387344,-0.5613887,1.5438524,0.40519583,0.0,0.10814612,0.032875117,0.016490918,0.058564212,0.031729165,inf,inf,inf,inf,1,1,1,1,2,1,1,1,3,0,0,1
53147957,0,0.0,0.0,1.0039045,0.99430305,-0.08117495,0.9933792,0.99219555,0.34394917,-0.008554894,-0.03267615,-0.07779122,-0.078036234,0.000111558584,1.8380251e-05,0.011425939,0.298829,0.010853529,-0.51904327,1.5430884,0.40519583,0.0,0.10960928,0.032853823,0.016490662,0.05853081,0.03172875,inf,inf,inf,inf,1,1,1,1,2,1,1,1,3,0,0,1
53167945,0,0.0,0.0,1.0035716,0.9934896,-0.082967825,0.9933792,0.99219555,0.34394917,-0.020841777,-0.038496714,-0.09458226,-0.094896935,0.000111558584,1.8380251e-05,0.011425939,-1.0362297,0.026708702,-0.8618743,1.5425774,0.40519583,0.0,0.11140216,0.03283342,0.016490422,0.058500648,0.031728324,inf,inf,inf,inf,1,1,1,1,2,1,1,1,3,0,0,1
53187932,0,0.0,0.0,1.0030371,0.9924882,-0.08501622,0.9933792,0.99219555,0.34394917,-0.027443092,-0.04875726,-0.09680925,-0.097213455,0.000111558584,1.8380251e-05,0.011425939,-0.65639967,-0.2113134,0.2503713,1.5419542,0.40519583,0.0,0.11345056,0.032813825,0.016490186,0.05846723,0.031727746,inf,inf,inf,inf,1,1,1,1,2,1,1,1,3,0,0,1
53207920,0,0.0,0.0,1.0023891,0.9913262,-0.08711709,0.9933792,0.99219555,0.34394917,-0.032154247,-0.05477155,-0.10180589,-0.10232189,0.000111558584,1.8380251e-05,0.011425939,-0.20900418,-0.38667437,-0.15506347,1.5413283,0.40519583,0.0,0.11555143,0.032795,0.016489953,0.058434702,0.031727202,inf,inf,inf,inf,1,1,1,1,2,1,1,1,3,0,0,1
53227909,0,0.0,0.0,1.0015142,0.99013025,-0.089309216,0.9933792,0.99219555,0.34394917,-0.046228312,-0.0523073,-0.10155374,-0.10220603,0.000111558584,1.8380251e-05,0.011425939,-0.49944326,0.24316014,0.2345806,1.5416937,0.40519583,0.0,0.11774355,0.03277688,0.016489724,0.058397736,0.031726353,inf,inf,inf,inf,1,1,1,1,2,1,1,1,3,0,0,1
