timestamp,ref_timestamp,ref_lat,ref_lon,x,y,z,delta_xy[0],delta_xy[1],delta_z,vx,vy,vz,z_deriv,delta_vxy[0],delta_vxy[1],delta_vz,ax,ay,az,heading,delta_heading,ref_alt,dist_bottom,eph,epv,evh,evv,vxy_max,vz_max,hagl_min,hagl_max,xy_valid,z_valid,v_xy_valid,v_z_valid,xy_reset_counter,z_reset_counter,vxy_reset_counter,vz_reset_counter,heading_reset_counter,xy_global,z_global,dist_bottom_valid
385018862,0,0.0,0.0,0.0190014,-0.04792103,-0.097826615,-0.015287479,-0.030196557,-0.03701567,0.003583204,0.0009338032,0.0010532163,3.14101e-05,0.00018411994,0.00014798452,-0.021482537,0.013863649,0.01433426,0.00081553875,1.5187128,0.5865147,0.0,0.1,0.034672834,0.016824115,0.059341654,0.033182167,inf,inf,inf,inf,1,1,1,1,2,1,1,1,3,0,0,1
385028853,0,0.0,0.0,0.019000968,-0.04791741,-0.09782909,-0.015287479,-0.030196557,-0.03701567,0.0035607796,0.00080631,0.0010402445,1.9487485e-05,0.00018411994,0.00014798452,-0.021482537,-0.0007214768,-0.0056018494,0.0070761833,1.5187097,0.5865147,0.0,0.1,0.034093913,0.016824115,0.058744654,0.03318215,inf,inf,inf,inf,1,1,1,1,2,1,1,1,3,0,0,1
385038847,0,0.0,0.0,0.0189999,-0.047913566,-0.09783059,-0.015287479,-0.030196557,-0.03701567,0.0037419097,0.0009679016,0.0011585342,0.00013887446,0.00018411994,0.00014798452,-0.021482537,0.017593222,0.0013186188,0.0056553595,1.518707,0.5865147,0.0,0.1,0.033556774,0.016824113,0.058205977,0.033182137,inf,inf,inf,inf,1,1,1,1,2,1,1,1,3,0,0,1
385058831,0,0.0,0.0,0.018997625,-0.04790791,-0.097833075,-0.015287479,-0.030196557,-0.03701567,0.0035101732,0.0008640947,0.0012041484,0.0001868021,0.00018411994,0.00014798452,-0.021482537,0.00085756904,0.021537494,0.009271386,1.5187184,0.5865147,0.0,0.1,0.033468492,0.01682411,0.058128994,0.033182107,inf,inf,inf,inf,1,1,1,1,2,1,1,1,3,0,0,1
385078816,0,0.0,0.0,0.01898801,-0.047903173,-0.09783092,-0.015287479,-0.030196557,-0.03701567,0.0037010282,0.00094588456,0.0011235037,0.000108582164,0.00018411994,0.00014798452,-0.021482537,0.07016641,0.025135757,-0.033759665,1.5184734,0.5865147,0.0,0.1,0.033385225,0.016824106,0.058067594,0.033182077,inf,inf,inf,inf,1,1,1,1,2,1,1,1,3,0,0,1
385098802,0,0.0,0.0,0.018981721,-0.047888283,-0.097835116,-0.015287479,-0.030196557,-0.03701567,0.004584129,0.00097176235,0.0011861286,0.0001737822,0.00018411994,0.00014798452,-0.021482537,0.184877,-0.04728925,-0.0306887,1.5188706,0.5865147,0.0,0.1,0.034270786,0.016824102,0.058978077,0.03318205,inf,inf,inf,inf,1,1,1,1,2,1,1,1,3,0,0,1
385118786,0,0.0,0.0,0.018974101,-0.047885846,-0.09783394,-0.015287479,-0.030196557,-0.03701567,0.003965073,0.0005480542,0.0020082132,0.0009985812,0.00018411994,0.00014798452,-0.021482537,0.1370141,-0.06535577,0.0866169,1.5188429,0.5865147,0.0,0.1,0.03416491,0.0168241,0.0588952,0.033182025,inf,inf,inf,inf,1,1,1,1,2,1,1,1,3,0,0,1
385138772,0,0.0,0.0,0.018965885,-0.04787697,-0.097819574,-0.015287479,-0.030196557,-0.03701567,0.0031486214,0.0022370364,0.0023628592,0.0013560841,0.00018411994,0.00014798452,-0.021482537,0.06684909,0.15962365,0.04369338,1.5188258,0.5865147,0.0,0.1,0.03406516,0.016824098,0.058829278,0.03318199,inf,inf,inf,inf,1,1,1,1,2,1,1,1,3,0,0,1
385158757,0,0.0,0.0,0.018953644,-0.04785305,-0.09781295,-0.015287479,-0.030196557,-0.03701567,0.0035645163,0.001914358,0.002218747,0.0012149998,0.00018411994,0.00014798452,-0.021482537,0.009411528,0.009068072,0.18039538,1.5185575,0.5865147,0.0,0.1,0.033971306,0.016824093,0.05878013,0.03318196,inf,inf,inf,inf,1,1,1,1,2,1,1,1,3,0,0,1
385178741,0,0.0,0.0,0.018947335,-0.047837485,-0.09779475,-0.015287479,-0.030196557,-0.03701567,0.0021445437,0.0007621484,0.0018049813,0.00080438773,0.00018411994,0.00014798452,-0.021482537,-0.37236342,-0.035724323,-0.054721124,1.518764,0.5865147,0.0,0.1,0.033883117,0.016824089,0.058745828,0.033181928,inf,inf,inf,inf,1,1,1,1,2,1,1,1,3,0,0,1
385198725,0,0.0,0.0,0.018931843,-0.047818862,-0.0977692,-0.015287479,-0.030196557,-0.03701567,0.0037867904,0.002442493,0.0022941516,0.0012965469,0.00018411994,0.00014798452,-0.021482537,-0.036131367,0.00092428044,0.014402057,1.5186629,0.5865147,0.0,0.1,0.033800382,0.016824085,0.05872582,0.0331819,inf,inf,inf,inf,1,1,1,1,2,1,1,1,3,0,0,1
385218710,0,0.0,0.0,0.018920986,-0.047789764,-0.09775664,-0.015287479,-0.030196557,-0.03701567,0.0032155293,0.0018996857,0.0015165776,0.00052189163,0.00018411994,0.00014798452,-0.021482537,0.08415005,-0.038152657,-0.010359219,1.518636,0.5865147,0.0,0.1,0.033722904,0.016824082,0.05871903,0.03318187,inf,inf,inf,inf,1,1,1,1,2,1,1,1,3,0,0,1
385238695,0,0.0,0.0,0.018910198,-0.047774926,-0.0977431,-0.015287479,-0.030196557,-0.03701567,0.0032023762,0.0007218761,0.0010431202,5.1336483e-05,0.00018411994,0.00014798452,-0.021482537,-0.034207128,-0.12325513,-0.24778584,1.5187337,0.5865147,0.0,0.1,0.033650495,0.016824078,0.058723282,0.03318184,inf,inf,inf,inf,1,1,1,1,2,1,1,1,3,0,0,1
385258681,0,0.0,0.0,0.01889258,-0.047759995,-0.09773353,-0.015287479,-0.030196557,-0.03701567,0.0033172176,0.0022268516,0.0021513836,0.001162469,0.00018411994,0.00014798452,-0.021482537,0.25036845,0.09481346,0.25329432,1.5186442,0.5865147,0.0,0.1,0.033582967,0.016824072,0.05874279,0.033181813,inf,inf,inf,inf,1,1,1,1,2,1,1,1,3,0,0,1
385278665,0,0.0,0.0,0.018887535,-0.047727615,-0.097715236,-0.015287479,-0.030196557,-0.03701567,0.0039484715,0.0020345785,0.0026027518,0.0016167471,0.00018411994,0.00014798452,-0.021482537,0.047848314,-0.07403877,0.029732907,1.5187281,0.5865147,0.0,0.1,0.033520177,0.016824067,0.058768682,0.033181775,inf,inf,inf,inf,1,1,1,1,2,1,1,1,3,0,0,1
385298649,0,0.0,0.0,0.018877652,-0.047716483,-0.09770236,-0.015287479,-0.030196557,-0.03701567,0.0032322544,0.0016501616,0.0021697814,0.0011866844,0.00018411994,0.00014798452,-0.021482537,0.039460525,-0.03295961,0.16877781,1.5186312,0.5865147,0.0,0.1,0.03346192,0.016824061,0.058804587,0.03318175,inf,inf,inf,inf,1,1,1,1,2,1,1,1,3,0,0,1
385318634,0,0.0,0.0,0.018873136,-0.047692254,-0.09768221,-0.015287479,-0.030196557,-0.03701567,0.00404629,0.0021223228,0.0020770915,0.001096701,0.00018411994,0.00014798452,-0.021482537,0.0099495,-0.024810014,0.059448674,1.5187452,0.5865147,0.0,0.1,0.033408057,0.016824057,0.058852874,0.033181723,inf,inf,inf,inf,1,1,1,1,2,1,1,1,3,0,0,1
385338619,0,0.0,0.0,0.018861964,-0.047677513,-0.097670674,-0.015287479,-0.030196557,-0.03701567,0.0037823732,0.002070899,0.002353757,0.0013758043,0.00018411994,0.00014798452,-0.021482537,0.13392203,0.08287175,0.15331346,1.5185992,0.5865147,0.0,0.1,0.033358455,0.016824054,0.05890527,0.03318169,inf,inf,inf,inf,1,1,1,1,2,1,1,1,3,0,0,1
385358613,0,0.0,0.0,0.018857565,-0.04766265,-0.09764972,-0.015287479,-0.030196557,-0.03701567,0.00341063,0.0018178158,0.0025038128,0.0015280652,0.00018411994,0.00014798452,-0.021482537,-0.025782095,0.0710302,0.080366544,1.5187778,0.5865147,0.0,0.1,0.033312954,0.016824046,0.058966804,0.033181664,inf,inf,inf,inf,1,1,1,1,2,1,1,1,3,0,0,1
385378591,0,0.0,0.0,0.018856736,-0.047648847,-0.09762358,-0.015287479,-0.030196557,-0.03701567,0.0039574327,0.0014734166,0.0025217708,0.0015478336,0.00018411994,0.00014798452,-0.021482537,0.008505017,-0.0721551,0.09482371,1.5187081,0.5865147,0.0,0.1,0.0332714,0.01682404,0.05903741,0.033181634,inf,inf,inf,inf,1,1,1,1,2,1,1,1,3,0,0,1
385398575,0,0.0,0.0,0.018858377,-0.047643658,-0.09760603,-0.015287479,-0.030196557,-0.03701567,0.004095793,0.0008030928,0.0019954343,0.0010228696,0.00018411994,0.00014798452,-0.021482537,-0.018609751,0.043200627,0.020140529,1.5186714,0.5865147,0.0,0.1,0.033233684,0.016824035,0.059111305,0.033181604,inf,inf,inf,inf,1,1,1,1,2,1,1,1,3,0,0,1
385418562,0,0.0,0.0,0.018863179,-0.047635958,-0.097585216,-0.015287479,-0.030196557,-0.03701567,0.0033460353,0.0018161539,0.0023017738,0.0013302722,0.00018411994,0.00014798452,-0.021482537,-0.21409677,0.043243065,0.0019211231,1.5187058,0.5865147,0.0,0.1,0.033199646,0.01682403,0.059190113,0.033181574,inf,inf,inf,inf,1,1,1,1,2,1,1,1,3,0,0,1
385438548,0,0.0,0.0,0.01887512,-0.047624454,-0.09756624,-0.015287479,-0.030196557,-0.03701567,0.004262852,0.0014463612,0.0019084889,0.0009376781,0.00018411994,0.00014798452,-0.021482537,-0.02525456,-0.08800779,0.045324672,1.518643,0.5865147,0.0,0.1,0.033169124,0.016824024,0.059278805,0.033181556,inf,inf,inf,inf,1,1,1,1,2,1,1,1,3,0,0,1
385458532,0,0.0,0.0,0.018881934,-0.047612756,-0.097551435,-0.015287479,-0.030196557,-0.03701567,0.0045077717,0.0007500745,0.0023795993,0.0014090248,0.00018411994,0.00014798452,-0.021482537,0.17200018,-0.29563138,0.04032456,1.5186661,0.5865147,0.0,0.1,0.03314202,0.016824016,0.05936516,0.033181515,inf,inf,inf,inf,1,1,1,1,2,1,1,1,3,0,0,1
385478514,0,0.0,0.0,0.018896988,-0.047612764,-0.09752613,-0.015287479,-0.030196557,-0.03701567,0.0039743027,0.0007795703,0.0018158028,0.0008449081,0.00018411994,0.00014798452,-0.021482537,0.06622797,-0.30569756,-0.12701572,1.5186964,0.5865147,0.0,0.1,0.03311817,0.01682401,0.059455607,0.03318149,inf,inf,inf,inf,1,1,1,1,2,1,1,1,3,0,0,1
385498499,0,0.0,0.0,0.018905204,-0.04761604,-0.09749513,-0.015287479,-0.030196557,-0.03701567,0.0025879634,0.0017949869,0.0046270117,0.0036552113,0.00018411994,0.00014798452,-0.021482537,-0.30273885,0.218027,0.25785023,1.5186967,0.5865147,0.0,0.1,0.03309744,0.016824005,0.05955173,0.03318146,inf,inf,inf,inf,1,1,1,1,2,1,1,1,3,0,0,1
385518484,0,0.0,0.0,0.018882427,-0.04760692,-0.09746986,-0.015287479,-0.030196557,-0.03701567,0.0066456995,0.0019672886,0.001092128,0.00011884683,0.00018411994,0.00014798452,-0.021482537,1.1015823,0.23112006,0.032321643,1.5185466,0.5865147,0.0,0.1,0.033079702,0.016824001,0.059647445,0.033181433,inf,inf,inf,inf,1,1,1,1,2,1,1,1,3,0,0,1
385538469,0,0.0,0.0,0.018914329,-0.047597468,-0.097476654,-0.015287479,-0.030196557,-0.03701567,0.004839618,0.000436588,0.0007540188,-0.00022131107,0.00018411994,0.00014798452,-0.021482537,-0.46712005,-0.61350286,-0.064551875,1.5184869,0.5865147,0.0,0.1,0.033064816,0.016823994,0.05974437,0.033181403,inf,inf,inf,inf,1,1,1,1,2,1,1,1,3,0,0,1
385558456,0,0.0,0.0,0.018934844,-0.04760322,-0.09745799,-0.015287479,-0.030196557,-0.03701567,0.0019810619,0.0010455812,0.0034396972,0.002461636,0.00018411994,0.00014798452,-0.021482537,-0.5572661,0.34573805,0.1125642,1.5187095,0.5865147,0.0,0.1,0.033052642,0.016823987,0.059846483,0.033181377,inf,inf,inf,inf,1,1,1,1,2,1,1,1,3,0,0,1
385578439,0,0.0,0.0,0.018964984,-0.047601324,-0.09743398,-0.015287479,-0.030196557,-0.03701567,0.008828238,-0.00035128908,0.0020873558,0.0011058458,0.00018411994,0.00014798452,-0.021482537,1.992016,-0.5118495,0.00503641,1.5186545,0.5865147,0.0,0.1,0.033043083,0.016823981,0.059945177,0.033181347,inf,inf,inf,inf,1,1,1,1,2,1,1,1,3,0,0,1
385598423,0,0.0,0.0,0.018986726,-0.04761252,-0.09741689,-0.015287479,-0.030196557,-0.03701567,0.005107162,0.0046890844,0.002768147,0.0017824695,0.00018411994,0.00014798452,-0.021482537,-0.15686028,1.7340375,-0.23806134,1.5187021,0.5865147,0.0,0.1,0.03303596,0.016823977,0.06004639,0.033181325,inf,inf,inf,inf,1,1,1,1,2,1,1,1,3,0,0,1
385618410,0,0.0,0.0,0.019007172,-0.04760406,-0.097406305,-0.015287479,-0.030196557,-0.03701567,0.010467916,0.0015295345,0.0037017844,0.0027112463,0.00018411994,0.00014798452,-0.021482537,2.5610352,-0.486827,0.19641677,1.5188653,0.5865147,0.0,0.1,0.033031173,0.01682397,0.060147353,0.033181302,inf,inf,inf,inf,1,1,1,1,2,1,1,1,3,0,0,1
385638395,0,0.0,0.0,0.019043101,-0.047601372,-0.097388566,-0.015287479,-0.030196557,-0.03701567,0.0059260824,0.0070123533,0.003561945,0.0025658216,0.00018411994,0.00014798452,-0.021482537,-0.66872704,2.2060745,-0.15400165,1.518833,0.5865147,0.0,0.1,0.033028573,0.016823964,0.060244966,0.033181276,inf,inf,inf,inf,1,1,1,1,2,1,1,1,3,0,0,1
385658380,0,0.0,0.0,0.019055137,-0.0475999,-0.09736021,-0.015287479,-0.030196557,-0.03701567,0.009247899,0.000672757,0.004279214,0.0032767637,0.00018411994,0.00014798452,-0.021482537,2.3323555,-0.75396824,0.110998996,1.5186877,0.5865147,0.0,0.1,0.033028025,0.016823957,0.0603442,0.03318125,inf,inf,inf,inf,1,1,1,1,2,1,1,1,3,0,0,1
385678364,0,0.0,0.0,0.019100001,-0.047608282,-0.09732462,-0.015287479,-0.030196557,-0.03701567,0.010677139,0.0055677723,0.0037831157,0.0027735226,0.00018411994,0.00014798452,-0.021482537,-0.25151008,1.9197911,-0.3846003,1.5188456,0.5865147,0.0,0.1,0.033029374,0.016823951,0.0604434,0.03318123,inf,inf,inf,inf,1,1,1,1,2,1,1,1,3,0,0,1
385698349,0,0.0,0.0,0.019076332,-0.04758287,-0.09731882,-0.015287479,-0.030196557,-0.03701567,0.003942532,0.0033369865,0.002484782,0.001467204,0.00018411994,0.00014798452,-0.021482537,0.88975585,-0.6430707,-0.097151525,1.5187107,0.5865147,0.0,0.1,0.03303259,0.016823946,0.060544472,0.033181198,inf,inf,inf,inf,1,1,1,1,2,1,1,1,3,0,0,1
385718333,0,0.0,0.0,0.019114789,-0.047585547,-0.09731059,-0.015287479,-0.030196557,-0.03701567,0.016772052,0.0029568244,0.002868251,0.0018420651,0.00018411994,0.00014798452,-0.021482537,1.7755972,1.0259544,-0.042166255,1.5185142,0.5865147,0.0,0.1,0.03301302,0.01682394,0.060590785,0.033181187,inf,inf,inf,inf,1,1,1,1,2,1,1,1,3,0,0,1
385738318,0,0.0,0.0,0.0191495,-0.047575008,-0.09730842,-0.015287479,-0.030196557,-0.03701567,0.00030717222,0.005458871,0.0015849707,0.00054965407,0.00018411994,0.00014798452,-0.021482537,-1.8774841,0.25795218,-0.22176227,1.5189197,0.5865147,0.0,0.1,0.032995764,0.016823933,0.060639925,0.03318115,inf,inf,inf,inf,1,1,1,1,2,1,1,1,3,0,0,1
385758306,0,0.0,0.0,0.01918316,-0.04758711,-0.097298115,-0.015287479,-0.030196557,-0.03701567,0.017789058,0.001342755,0.0034592913,0.0024143541,0.00018411994,0.00014798452,-0.021482537,3.3843365,-0.042548653,0.15242146,1.5183607,0.5865147,0.0,0.1,0.032980766,0.016823927,0.06069435,0.033181157,inf,inf,inf,inf,1,1,1,1,2,1,1,1,3,0,0,1
385778288,0,0.0,0.0,0.019199252,-0.047587138,-0.09730104,-0.015287479,-0.030196557,-0.03701567,-0.0023098728,0.006904021,-0.00032281876,-0.0013777189,0.00018411994,0.00014798452,-0.021482537,-3.536023,1.2611825,-0.79161924,1.5188982,0.5865147,0.0,0.1,0.032967906,0.016823921,0.060743663,0.033181097,inf,inf,inf,inf,1,1,1,1,2,1,1,1,3,0,0,1
385798273,0,0.0,0.0,0.019231245,-0.04759131,-0.097299635,-0.015287479,-0.030196557,-0.03701567,0.017068215,0.00045041292,0.0032097208,0.002144542,0.00018411994,0.00014798452,-0.021482537,3.4250941,-1.0858724,0.12473274,1.5185877,0.5865147,0.0,0.1,0.032957014,0.016823916,0.060795605,0.033181127,inf,inf,inf,inf,1,1,1,1,2,1,1,1,3,0,0,1
385818258,0,0.0,0.0,0.019290512,-0.047591444,-0.09728405,-0.015287479,-0.030196557,-0.03701567,0.004529988,0.0059131775,0.0012949209,0.00021916373,0.00018411994,0.00014798452,-0.021482537,-2.6049798,1.1912549,-0.8172708,1.5184559,0.5865147,0.0,0.1,0.03294801,0.01682391,0.060841795,0.033181045,inf,inf,inf,inf,1,1,1,1,2,1,1,1,3,0,0,1
385838243,0,0.0,0.0,0.019294424,-0.047591355,-0.09728697,-0.015287479,-0.030196557,-0.03701567,0.0053512193,0.00093064224,0.0009029963,-0.00018366457,0.00018411994,0.00014798452,-0.021482537,0.55002993,-1.1518325,-0.263378,1.5190462,0.5865147,0.0,0.1,0.033872403,0.016823905,0.061868615,0.033181127,inf,inf,inf,inf,1,1,1,1,2,1,1,1,3,0,0,1
385858229,0,0.0,0.0,0.019323858,-0.04761975,-0.09730401,-0.015287479,-0.030196557,-0.03701567,0.010406968,0.0015236624,-0.00027668115,-0.001374592,0.00018411994,0.00014798452,-0.021482537,0.09115695,0.2956168,-0.46887815,1.5183327,0.5865147,0.0,0.1,0.03384012,0.016823897,0.061869603,0.033181008,inf,inf,inf,inf,1,1,1,1,2,1,1,1,3,0,0,1
385878213,0,0.0,0.0,0.019354088,-0.04762136,-0.09731593,-0.015287479,-0.030196557,-0.03701567,-0.0030693195,0.004118577,-0.0005850733,-0.00169456,0.00018411994,0.00014798452,-0.021482537,-2.8391132,-0.15098682,-0.60141903,1.5189656,0.5865147,0.0,0.1,0.033810485,0.016823892,0.06187678,0.0331811,inf,inf,inf,inf,1,1,1,1,2,1,1,1,3,0,0,1
385898198,0,0.0,0.0,0.01939221,-0.04764199,-0.09732704,-0.015287479,-0.030196557,-0.03701567,0.017949864,-0.0020193253,0.002394589,0.0012733127,0.00018411994,0.00014798452,-0.021482537,2.5777762,-1.172585,0.029456265,1.5187169,0.5865147,0.0,0.1,0.03378336,0.016823886,0.061879262,0.03318097,inf,inf,inf,inf,1,1,1,1,2,1,1,1,3,0,0,1
385918183,0,0.0,0.0,0.019435856,-0.047662757,-0.0973346,-0.015287479,-0.030196557,-0.03701567,-0.0072488417,0.005042116,-0.0013138765,-0.0024471488,0.00018411994,0.00014798452,-0.021482537,-5.567589,1.0200112,-0.96430653,1.5184838,0.5865147,0.0,0.1,0.033758596,0.016823882,0.061887372,0.033181023,inf,inf,inf,inf,1,1,1,1,2,1,1,1,3,0,0,1
385938168,0,0.0,0.0,0.019472275,-0.047679793,-0.09735013,-0.015287479,-0.030196557,-0.03701567,0.017601201,-0.003975022,0.002214152,0.0010686842,0.00018411994,0.00014798452,-0.021482537,3.5110013,-2.0942028,0.11030682,1.5191754,0.5865147,0.0,0.1,0.03373603,0.016823877,0.061896358,0.033180963,inf,inf,inf,inf,1,1,1,1,2,1,1,1,3,0,0,1
385958154,0,0.0,0.0,0.019520137,-0.04768567,-0.09737049,-0.015287479,-0.030196557,-0.03701567,-0.0029787277,0.0057271705,-0.00044748903,-0.001605229,0.00018411994,0.00014798452,-0.021482537,-4.941112,1.1509383,-0.6132287,1.518257,0.5865147,0.0,0.1,0.033715624,0.016823871,0.06190013,0.033180956,inf,inf,inf,inf,1,1,1,1,2,1,1,1,3,0,0,1
385978138,0,0.0,0.0,0.019530982,-0.04768914,-0.09737656,-0.015287479,-0.030196557,-0.03701567,0.005964333,-0.0032710943,0.0005671772,-0.00060286303,0.00018411994,0.00014798452,-0.021482537,1.4997438,-1.8643575,-0.2295271,1.5190395,0.5865147,0.0,0.1,0.033697095,0.016823864,0.061910454,0.033180982,inf,inf,inf,inf,1,1,1,1,2,1,1,1,3,0,0,1
385998123,0,0.0,0.0,0.019583782,-0.047703147,-0.09740963,-0.015287479,-0.030196557,-0.03701567,0.007205217,0.0017075718,0.0007663496,-0.00041600026,0.00018411994,0.00014798452,-0.021482537,-1.8633715,0.0992334,-0.051989388,1.518551,0.5865147,0.0,0.1,0.033680446,0.01682386,0.061915077,0.033180922,inf,inf,inf,inf,1,1,1,1,2,1,1,1,3,0,0,1
386018108,0,0.0,0.0,0.019633273,-0.04770284,-0.09742826,-0.015287479,-0.030196557,-0.03701567,-0.0030023395,0.0007569042,-0.0024655173,-0.0036601024,0.00018411994,0.00014798452,-0.021482537,-2.4834275,-0.68192345,-0.51150954,1.5182754,0.5865147,0.0,0.1,0.033665497,0.016823854,0.061928924,0.03318096,inf,inf,inf,inf,1,1,1,1,2,1,1,1,3,0,0,1
386038093,0,0.0,0.0,0.019680012,-0.04773648,-0.09744399,-0.015287479,-0.030196557,-0.03701567,0.012253414,-0.005319203,0.0030305116,0.0018238612,0.00018411994,0.00014798452,-0.021482537,1.3034225,-1.6115336,0.3260125,1.5193268,0.5865147,0.0,0.1,0.0336522,0.01682385,0.061929327,0.033180896,inf,inf,inf,inf,1,1,1,1,2,1,1,1,3,0,0,1
386058079,0,0.0,0.0,0.019698875,-0.047764778,-0.09748202,-0.015287479,-0.030196557,-0.03701567,-0.0056288303,0.0056135543,-0.0019206977,-0.0031392057,0.00018411994,0.00014798452,-0.021482537,-4.1143975,0.9869544,-0.1330899,1.5179024,0.5865147,0.0,0.1,0.033614013,0.016823847,0.06189327,0.033180933,inf,inf,inf,inf,1,1,1,1,2,1,1,1,3,0,0,1
386078064,0,0.0,0.0,0.0197493,-0.047746573,-0.09750208,-0.015287479,-0.030196557,-0.03701567,0.011440369,-0.0065940158,0.001198946,-3.1202137e-05,0.00018411994,0.00014798452,-0.021482537,2.968204,-2.572043,0.15303582,1.5193403,0.5865147,0.0,0.1,0.033578236,0.016823841,0.06185104,0.03318088,inf,inf,inf,inf,1,1,1,1,2,1,1,1,3,0,0,1
386098048,0,0.0,0.0,0.01980564,-0.047765013,-0.09754651,-0.015287479,-0.030196557,-0.03701567,-0.0018098012,0.0019415927,0.00054041634,-0.0007010414,0.00018411994,0.00014798452,-0.021482537,-3.537047,0.8769774,0.2422296,1.5184556,0.5865147,0.0,0.1,0.03354478,0.016823838,0.06181451,0.033180896,inf,inf,inf,inf,1,1,1,1,2,1,1,1,3,0,0,1
386118033,0,0.0,0.0,0.019821556,-0.047805388,-0.0975534,-0.015287479,-0.030196557,-0.03701567,0.0026579928,-0.0051488653,0.00038087432,-0.00087154884,0.00018411994,0.00014798452,-0.021482537,1.7140527,-1.1086073,0.06530507,1.5185262,0.5865147,0.0,0.1,0.033513434,0.016823832,0.06178403,0.03318091,inf,inf,inf,inf,1,1,1,1,2,1,1,1,3,0,0,1
386138018,0,0.0,0.0,0.019899923,-0.047812637,-0.097599335,-0.015287479,-0.030196557,-0.03701567,0.009384228,-0.0006069221,0.0027006897,0.0014376715,0.00018411994,0.00014798452,-0.021482537,-0.30823225,-0.06487333,0.67088264,1.5194337,0.5865147,0.0,0.1,0.033484202,0.016823826,0.061741736,0.033180878,inf,inf,inf,inf,1,1,1,1,2,1,1,1,3,0,0,1
386158002,0,0.0,0.0,0.019899514,-0.04782375,-0.097641304,-0.015287479,-0.030196557,-0.03701567,-0.004017129,0.0026196511,-0.00035058364,-0.0016237906,0.00018411994,0.00014798452,-0.021482537,-1.468082,0.81069547,0.38247937,1.5176307,0.5865147,0.0,0.1,0.03345682,0.016823823,0.06172026,0.033180922,inf,inf,inf,inf,1,1,1,1,2,1,1,1,3,0,0,1
386177987,0,0.0,0.0,0.019913996,-0.047834676,-0.09766271,-0.015287479,-0.030196557,-0.03701567,0.01580118,-0.006389282,0.0030606661,0.001777827,0.00018411994,0.00014798452,-0.021482537,4.0683913,-1.3745619,0.5450225,1.5198907,0.5865147,0.0,0.1,0.033431318,0.016823819,0.061678614,0.033180863,inf,inf,inf,inf,1,1,1,1,2,1,1,1,3,0,0,1
386197972,0,0.0,0.0,0.019927632,-0.047896285,-0.09772775,-0.015287479,-0.030196557,-0.03701567,0.00041202042,0.004125883,0.0008640798,-0.0004277313,0.00018411994,0.00014798452,-0.021482537,-1.9961938,2.1674445,0.37800694,1.5178874,0.5865147,0.0,0.1,0.033407487,0.016823815,0.06165374,0.03318088,inf,inf,inf,inf,1,1,1,1,2,1,1,1,3,0,0,1
386217957,0,0.0,0.0,0.019967146,-0.047906626,-0.09775406,-0.015287479,-0.030196557,-0.03701567,0.012328713,-0.0030017493,-0.00067258195,-0.001972652,0.00018411994,0.00014798452,-0.021482537,4.2050886,-1.0200737,0.03789734,1.519227,0.5865147,0.0,0.1,0.033385213,0.016823811,0.061625905,0.03318085,inf,inf,inf,inf,1,1,1,1,2,1,1,1,3,0,0,1
386237942,0,0.0,0.0,0.020022077,-0.04792656,-0.09781852,-0.015287479,-0.030196557,-0.03701567,0.006672295,0.004470351,0.0015116902,0.0002040964,0.00018411994,0.00014798452,-0.021482537,-1.3928038,1.7066616,0.018755471,1.5188171,0.5865147,0.0,0.1,0.03336451,0.01682381,0.06159173,0.03318088,inf,inf,inf,inf,1,1,1,1,2,1,1,1,3,0,0,1
386257927,0,0.0,0.0,0.020030657,-0.047954448,-0.09787698,-0.015287479,-0.030196557,-0.03701567,0.0051062624,-0.000103746665,-0.0020613237,-0.0033756068,0.00018411994,0.00014798452,-0.021482537,1.5900269,-0.009153594,0.020269768,1.5182424,0.5865147,0.0,0.100023165,0.03334512,0.016823806,0.061570324,0.033180885,inf,inf,inf,inf,1,1,1,1,2,1,1,1,3,0,0,1
386277913,0,0.0,0.0,0.020076653,-0.047993906,-0.09792815,-0.015287479,-0.030196557,-0.03701567,0.017202998,0.0020632048,0.0010668339,-0.00025331642,0.00018411994,0.00014798452,-0.021482537,1.5245011,0.56783056,-0.07879567,1.5197629,0.5865147,0.0,0.100074336,0.033327084,0.016823804,0.061530173,0.033180863,inf,inf,inf,inf,1,1,1,1,2,1,1,1,3,0,0,1
386297897,0,0.0,0.0,0.02007504,-0.048026092,-0.09800511,-0.015287479,-0.030196557,-0.03701567,0.0037805822,0.0068418896,-0.0028065208,-0.004131666,0.00018411994,0.00014798452,-0.021482537,-1.067293,1.5748208,-0.4148601,1.5173475,0.5865147,0.0,0.10015129,0.03331018,0.0168238,0.06151394,0.033180896,inf,inf,inf,inf,1,1,1,1,2,1,1,1,3,0,0,1
386317882,0,0.0,0.0,0.020100696,-0.048023663,-0.09809163,-0.015287479,-0.030196557,-0.03701567,0.021381125,-0.002412206,0.00036624708,-0.00096302485,0.00018411994,0.00014798452,-0.021482537,4.396611,-1.0717108,0.2619666,1.5202335,0.5865147,0.0,0.10023782,0.033294447,0.016823798,0.061478294,0.033180844,inf,inf,inf,inf,1,1,1,1,2,1,1,1,3,0,0,1
386337867,0,0.0,0.0,0.020109208,-0.048064563,-0.098177314,-0.015287479,-0.030196557,-0.03701567,0.00035830963,0.0060155555,-0.0037209645,-0.0050533847,0.00018411994,0.00014798452,-0.021482537,-3.324873,1.5542188,-0.33839357,1.5174605,0.5865147,0.0,0.1003235,0.033279743,0.016823795,0.06144995,0.033180874,inf,inf,inf,inf,1,1,1,1,2,1,1,1,3,0,0,1
386357852,0,0.0,0.0,0.020136034,-0.048065934,-0.09823232,-0.015287479,-0.030196557,-0.03701567,0.010581393,-0.0042722584,-0.0030792127,-0.0044137794,0.00018411994,0.00014798452,-0.021482537,2.532693,-2.0215507,-0.42586252,1.5196652,0.5865147,0.0,0.100378506,0.034226313,0.016823793,0.062459283,0.033180863,inf,inf,inf,inf,1,1,1,1,2,1,1,1,3,0,0,1
386377837,0,0.0,0.0,0.02020681,-0.048075132,-0.09833214,-0.015287479,-0.030196557,-0.03701567,0.0054189917,0.002134945,-0.0030134101,-0.0043490296,0.00018411994,0.00014798452,-0.021482537,-3.0152724,-0.088922516,-0.153385,1.5181944,0.5865147,0.0,0.10047832,0.03418504,0.01682379,0.062368974,0.033180848,inf,inf,inf,inf,1,1,1,1,2,1,1,1,3,0,0,1
386397821,0,0.0,0.0,0.020237582,-0.048094198,-0.09840928,-0.015287479,-0.030196557,-0.03701567,-0.0012650348,-0.0022853974,-0.0045032557,-0.0058388896,0.00018411994,0.00014798452,-0.021482537,-0.9724947,-0.689649,-0.088253796,1.5185694,0.5865147,0.0,0.100555465,0.03414574,0.016823787,0.06230257,0.033180907,inf,inf,inf,inf,1,1,1,1,2,1,1,1,3,0,0,1
386417807,0,0.0,0.0,0.020294907,-0.048117448,-0.09850399,-0.015287479,-0.030196557,-0.03701567,0.013942075,-0.0038133361,-0.00068674516,-0.0020211816,0.00018411994,0.00014798452,-0.021482537,0.8958784,-1.322525,0.57354856,1.5194267,0.5865147,0.0,0.10065018,0.034080897,0.016823784,0.062172417,0.03318084,inf,inf,inf,inf,1,1,1,1,2,1,1,1,3,0,0,1
386437791,0,0.0,0.0,0.020304007,-0.04816927,-0.0985752,-0.015287479,-0.030196557,-0.03701567,-0.005600485,0.0025253487,-0.0030519099,-0.004383814,0.00018411994,0.00014798452,-0.021482537,-2.7774189,1.7416205,-0.03561481,1.5174559,0.5865147,0.0,0.10072138,0.034019146,0.01682378,0.062058344,0.0331809,inf,inf,inf,inf,1,1,1,1,2,1,1,1,3,0,0,1
386457778,0,0.0,0.0,0.020348942,-0.04816914,-0.0986293,-0.015287479,-0.030196557,-0.03701567,0.018713856,-0.0039427667,0.00026585525,-0.001062243,0.00018411994,0.00014798452,-0.021482537,4.5211916,-1.2532196,0.26474753,1.5202429,0.5865147,0.0,0.10077549,0.03396032,0.016823778,0.061946716,0.03318085,inf,inf,inf,inf,1,1,1,1,2,1,1,1,3,0,0,1
386477763,0,0.0,0.0,0.020346543,-0.048209857,-0.09872184,-0.015287479,-0.030196557,-0.03701567,0.00028953934,0.0041629984,-0.0020711224,-0.0033938428,0.00018411994,0.00014798452,-0.021482537,-2.1859477,2.3992238,0.07931395,1.5174085,0.5865147,0.0,0.100868024,0.033904362,0.016823776,0.061844904,0.033180885,inf,inf,inf,inf,1,1,1,1,2,1,1,1,3,0,0,1
386497746,0,0.0,0.0,0.020371493,-0.048205454,-0.09878935,-0.015287479,-0.030196557,-0.03701567,0.014968992,-0.003623005,-0.0019058962,-0.0032215216,0.00018411994,0.00014798452,-0.021482537,4.159686,-1.2089417,0.16268817,1.5198436,0.5865147,0.0,0.10093553,0.033851072,0.016823774,0.061743107,0.033180904,inf,inf,inf,inf,1,1,1,1,2,1,1,1,3,0,0,1
386517732,0,0.0,0.0,0.020424424,-0.0482302,-0.09890951,-0.015287479,-0.030196557,-0.03701567,0.013629038,0.0037398434,-0.0053872885,-0.006694061,0.00018411994,0.00014798452,-0.021482537,-0.26554418,1.2535117,-0.3379108,1.5186378,0.5865147,0.0,0.1010557,0.033800386,0.016823774,0.06163743,0.033180892,inf,inf,inf,inf,1,1,1,1,2,1,1,1,3,0,0,1
386537717,0,0.0,0.0,0.02047581,-0.048268795,-0.09904834,-0.015287479,-0.030196557,-0.03701567,0.008043903,-0.0032278204,-0.003833546,-0.005129677,0.00018411994,0.00014798452,-0.021482537,-1.1405559,0.87554973,0.5214243,1.5193177,0.5865147,0.0,0.10119452,0.03375206,0.016823772,0.06155899,0.033180937,inf,inf,inf,inf,1,1,1,1,2,1,1,1,3,0,0,1
386557703,0,0.0,0.0,0.020491468,-0.04827959,-0.099188134,-0.015287479,-0.030196557,-0.03701567,0.018968016,-0.0037129165,-0.011768432,-0.013052276,0.00018411994,0.00014798452,-0.021482537,0.9730031,-0.0022995179,-0.7083077,1.5194113,0.5865147,0.0,0.10133432,0.033706155,0.01682377,0.0614614,0.03318092,inf,inf,inf,inf,1,1,1,1,2,1,1,1,3,0,0,1
386577687,0,0.0,0.0,0.020434644,-0.04838207,-0.09933868,-0.015287479,-0.030196557,-0.03701567,-0.0007548986,0.0021991667,0.0063443542,0.0050743525,0.00018411994,0.00014798452,-0.021482537,0.6878869,0.74834645,1.4705449,1.5194772,0.5865147,0.0,0.101484865,0.03366241,0.016823769,0.061389897,0.033180937,inf,inf,inf,inf,1,1,1,1,2,1,1,1,3,0,0,1
386597671,0,0.0,0.0,0.02042369,-0.04838927,-0.09937409,-0.015287479,-0.030196557,-0.03701567,0.012010325,-0.0035641578,-0.010913563,-0.012168203,0.00018411994,0.00014798452,-0.021482537,1.0702746,-0.033928934,-0.98351467,1.5200348,0.5865147,0.0,0.10152028,0.033620797,0.016823767,0.061303508,0.03318091,inf,inf,inf,inf,1,1,1,1,2,1,1,1,3,0,0,1
386617656,0,0.0,0.0,0.020520326,-0.04845472,-0.09968668,-0.015287479,-0.030196557,-0.03701567,0.0022663882,-0.0014201908,-0.011471047,-0.012709076,0.00018411994,0.00014798452,-0.021482537,-1.0319085,0.013217945,0.918466,1.5186887,0.5865147,0.0,0.10183287,0.033581175,0.016823765,0.061228175,0.033180937,inf,inf,inf,inf,1,1,1,1,2,1,1,1,3,0,0,1
386637641,0,0.0,0.0,0.020463932,-0.048401494,-0.09970913,-0.015287479,-0.030196557,-0.03701567,-0.0011258243,0.0012859884,0.0062564667,0.0050361683,0.00018411994,0.00014798452,-0.021482537,-0.8112705,-0.6882491,0.3694382,1.5200741,0.5865147,0.0,0.101855315,0.03452875,0.016823765,0.062217876,0.033180952,inf,inf,inf,inf,1,1,1,1,2,1,1,1,3,0,0,1
386657626,0,0.0,0.0,0.020454412,-0.048417754,-0.0996199,-0.015287479,-0.030196557,-0.03701567,0.014713858,-0.00044130845,-0.0029779067,-0.0041793603,0.00018411994,0.00014798452,-0.021482537,0.76784855,0.11050297,-1.3262669,1.518841,0.5865147,0.0,0.10176609,0.034461927,0.016823765,0.062085856,0.033180933,inf,inf,inf,inf,1,1,1,1,2,1,1,1,3,0,0,1
386677611,0,0.0,0.0,0.020629497,-0.048485775,-0.09988946,-0.015287479,-0.030196557,-0.03701567,0.017620347,-0.0013346461,-0.016573325,-0.017754903,0.00018411994,0.00014798452,-0.021482537,0.08750016,0.4723964,-0.081571,1.519824,0.5865147,0.0,0.10203564,0.03439822,0.016823765,0.061980784,0.033180993,inf,inf,inf,inf,1,1,1,1,2,1,1,1,3,0,0,1
386697596,0,0.0,0.0,0.020705963,-0.048487555,-0.10016052,-0.015287479,-0.030196557,-0.03701567,0.0041730115,0.004560371,-0.0049789455,-0.0061392407,0.00018411994,0.00014798452,-0.021482537,-0.120892696,0.9459637,1.2080843,1.5190675,0.5865147,0.0,0.1023067,0.03433767,0.016823765,0.061869,0.03318094,inf,inf,inf,inf,1,1,1,1,2,1,1,1,3,0,0,1
386717586,0,0.0,0.0,0.0205962,-0.048394673,-0.100090735,-0.015287479,-0.030196557,-0.03701567,-0.0040119407,0.0019928534,0.010933387,0.009796106,0.00018411994,0.00014798452,-0.021482537,-0.3580842,-0.46108726,0.6630449,1.5197492,0.5865147,0.0,0.10223692,0.034279976,0.016823765,0.06176272,0.03318099,inf,inf,inf,inf,1,1,1,1,2,1,1,1,3,0,0,1
386737566,0,0.0,0.0,0.02058059,-0.0483835,-0.099995315,-0.015287479,-0.030196557,-0.03701567,0.010701514,-0.0029677802,-0.005758587,-0.006870727,0.00018411994,0.00014798452,-0.021482537,-0.17352553,-0.38002244,-1.2469419,1.5191532,0.5865147,0.0,0.1021415,0.034225136,0.016823765,0.061671007,0.03318096,inf,inf,inf,inf,1,1,1,1,2,1,1,1,3,0,0,1
386757551,0,0.0,0.0,0.02075804,-0.048492134,-0.10026485,-0.015287479,-0.030196557,-0.03701567,0.017159654,-0.006154972,-0.016654365,-0.017739102,0.00018411994,0.00014798452,-0.021482537,0.07445861,-0.22294421,0.22061065,1.5192372,0.5865147,0.0,0.10241103,0.03417274,0.016823765,0.061560083,0.033180986,inf,inf,inf,inf,1,1,1,1,2,1,1,1,3,0,0,1
386777535,0,0.0,0.0,0.020913586,-0.048567694,-0.10055405,-0.015287479,-0.030196557,-0.03701567,0.011888952,0.0010990814,-0.010943427,-0.011998731,0.00018411994,0.00014798452,-0.021482537,0.054545764,0.46168023,0.5331349,1.5198865,0.5865147,0.0,0.10270023,0.034122977,0.016823767,0.061502382,0.033180986,inf,inf,inf,inf,1,1,1,1,2,1,1,1,3,0,0,1
386797520,0,0.0,0.0,0.020905636,-0.048524953,-0.10057587,-0.015287479,-0.030196557,-0.03701567,0.0017742555,0.007159855,0.00967466,0.008651581,0.00018411994,0.00014798452,-0.021482537,0.07055814,0.73232865,1.001816,1.5191694,0.5865147,0.0,0.102722056,0.034048732,0.016823767,0.061335053,0.03318104,inf,inf,inf,inf,1,1,1,1,2,1,1,1,3,0,0,1
386817505,0,0.0,0.0,0.020782301,-0.048442144,-0.10039704,-0.015287479,-0.030196557,-0.03701567,0.00079562835,0.0013478935,0.0067480695,0.005759569,0.00018411994,0.00014798452,-0.021482537,0.42931172,-0.1720158,-0.1195091,1.5195059,0.5865147,0.0,0.10254323,0.033977605,0.016823769,0.0611974,0.03318102,inf,inf,inf,inf,1,1,1,1,2,1,1,1,3,0,0,1
386837490,0,0.0,0.0,0.020811103,-0.04847994,-0.10041488,-0.015287479,-0.030196557,-0.03701567,0.012747662,-0.004119511,-0.010626554,-0.01157903,0.00018411994,0.00014798452,-0.021482537,0.28903097,-0.43337408,-0.9921376,1.5188236,0.5865147,0.0,0.102561064,0.033909943,0.01682377,0.061121084,0.033181015,inf,inf,inf,inf,1,1,1,1,2,1,1,1,3,0,0,1
386857477,0,0.0,0.0,0.021043807,-0.04859915,-0.100722045,-0.015287479,-0.030196557,-0.03701567,0.01966335,-0.004502819,-0.016977003,-0.017891278,0.00018411994,0.00014798452,-0.021482537,-0.31565294,0.14513905,0.030882515,1.5192729,0.5865147,0.0,0.10286823,0.033845987,0.016823772,0.061008483,0.033181034,inf,inf,inf,inf,1,1,1,1,2,1,1,1,3,0,0,1
386877460,0,0.0,0.0,0.021192104,-0.04864625,-0.100951605,-0.015287479,-0.030196557,-0.03701567,0.011600206,0.00075483066,-0.006076127,-0.006949471,0.00018411994,0.00014798452,-0.021482537,-0.218752,0.19626851,0.57873976,1.5186964,0.5865147,0.0,0.10309779,0.033784978,0.016823774,0.06086858,0.03318109,inf,inf,inf,inf,1,1,1,1,2,1,1,1,3,0,0,1
386897445,0,0.0,0.0,0.021194175,-0.048597354,-0.100918956,-0.015287479,-0.030196557,-0.03701567,0.005927922,0.001128808,0.0072521586,0.0064215604,0.00018411994,0.00014798452,-0.021482537,0.1312987,-0.44365597,0.69614905,1.5192204,0.5865147,0.0,0.10306514,0.03372653,0.016823776,0.06076566,0.033181075,inf,inf,inf,inf,1,1,1,1,2,1,1,1,3,0,0,1
386917431,0,0.0,0.0,0.021165585,-0.048568923,-0.100715846,-0.015287479,-0.030196557,-0.03701567,0.007930985,0.0009181066,0.009423825,0.008636966,0.00018411994,0.00014798452,-0.021482537,0.6611622,0.12797251,-0.1100836,1.5189998,0.5865147,0.0,0.10286203,0.03367111,0.016823778,0.060711794,0.03318106,inf,inf,inf,inf,1,1,1,1,2,1,1,1,3,0,0,1
386937415,0,0.0,0.0,0.021224648,-0.048661347,-0.100595474,-0.015287479,-0.030196557,-0.03701567,0.01064493,-0.006881514,0.0003471433,-0.00039417134,0.00018411994,0.00014798452,-0.021482537,-0.19558994,0.140759,-0.5413677,1.5194039,0.5865147,0.0,0.10274166,0.033618797,0.01682378,0.06062404,0.033181068,inf,inf,inf,inf,1,1,1,1,2,1,1,1,3,0,0,1
386957400,0,0.0,0.0,0.021404853,-0.048831932,-0.100696005,-0.015287479,-0.030196557,-0.03701567,0.017315445,-0.006294267,-0.013741208,-0.014434304,0.00018411994,0.00014798452,-0.021482537,-0.15620121,0.5036344,-0.6956787,1.5194348,0.5865147,0.0,0.10284219,0.033568986,0.01682378,0.060515936,0.033181094,inf,inf,inf,inf,1,1,1,1,2,1,1,1,3,0,0,1
386977385,0,0.0,0.0,0.02156652,-0.04898254,-0.10090051,-0.015287479,-0.030196557,-0.03701567,0.011650519,-0.0077955467,-0.0059096995,-0.006552333,0.00018411994,0.00014798452,-0.021482537,-0.6320427,-0.30661908,0.8075662,1.5199462,0.5865147,0.0,0.10304669,0.03352123,0.01682378,0.060417652,0.03318116,inf,inf,inf,inf,1,1,1,1,2,1,1,1,3,0,0,1
386997371,0,0.0,0.0,0.021541083,-0.049033996,-0.100836635,-0.015287479,-0.030196557,-0.03701567,0.0036386633,0.0030349768,0.0061011794,0.0055098915,0.00018411994,0.00014798452,-0.021482537,0.10311662,0.44097522,0.17909645,1.5200502,0.5865147,0.0,0.10298282,0.033475764,0.01682378,0.060360752,0.033181112,inf,inf,inf,inf,1,1,1,1,2,1,1,1,3,0,0,1
387017355,0,0.0,0.0,0.02141182,-0.048962723,-0.10069158,-0.015287479,-0.030196557,-0.03701567,0.00037653657,0.0051715095,0.0048903185,0.0043507847,0.00018411994,0.00014798452,-0.021482537,0.4864023,0.116988584,0.06108317,1.5200889,0.5865147,0.0,0.102837764,0.033432875,0.01682378,0.060321078,0.033181135,inf,inf,inf,inf,1,1,1,1,2,1,1,1,3,0,0,1
387037340,0,0.0,0.0,0.021341482,-0.0489112,-0.10061064,-0.015287479,-0.030196557,-0.03701567,0.0040458487,0.002112069,-0.0028181763,-0.0033044498,0.00018411994,0.00014798452,-0.021482537,-0.12794495,-0.050123643,-0.3325822,1.5192889,0.5865147,0.0,0.10275683,0.034364074,0.01682378,0.061270155,0.03318115,inf,inf,inf,inf,1,1,1,1,2,1,1,1,3,0,0,1
387057325,0,0.0,0.0,0.021432746,-0.048918936,-0.100664176,-0.015287479,-0.030196557,-0.03701567,0.016431179,0.0006701757,-0.0062209573,-0.0066519845,0.00018411994,0.00014798452,-0.021482537,0.6368593,0.54615575,-0.1452223,1.5193406,0.5865147,0.0,0.10281036,0.03429499,0.01682378,0.06112806,0.03318119,inf,inf,inf,inf,1,1,1,1,2,1,1,1,3,0,0,1
387077310,0,0.0,0.0,0.021631384,-0.048991483,-0.10084173,-0.015287479,-0.030196557,-0.03701567,0.01857273,-0.0055655385,-0.01605902,-0.016433556,0.00018411994,0.00014798452,-0.021482537,-0.1555984,0.0003847906,-0.458571,1.5189322,0.5865147,0.0,0.102987915,0.034228925,0.01682378,0.06100522,0.033181194,inf,inf,inf,inf,1,1,1,1,2,1,1,1,3,0,0,1
387097296,0,0.0,0.0,0.021826908,-0.04915562,-0.10110108,-0.015287479,-0.030196557,-0.03701567,0.01682952,-0.009803427,-0.012904319,-0.013222437,0.00018411994,0.00014798452,-0.021482537,-0.4421413,-0.12869322,0.08814925,1.5189651,0.5865147,0.0,0.10324726,0.034165982,0.016823784,0.060913272,0.03318118,inf,inf,inf,inf,1,1,1,1,2,1,1,1,3,0,0,1
387117280,0,0.0,0.0,0.021960173,-0.049377277,-0.101238556,-0.015287479,-0.030196557,-0.03701567,0.01119133,-0.010616417,-0.0044957427,-0.0047584614,0.00018411994,0.00014798452,-0.021482537,-0.2782293,0.094366774,0.66362137,1.5192302,0.5865147,0.0,0.10338474,0.034106314,0.016823784,0.06083734,0.033181198,inf,inf,inf,inf,1,1,1,1,2,1,1,1,3,0,0,1
387137265,0,0.0,0.0,0.021990534,-0.049557667,-0.10120129,-0.015287479,-0.030196557,-0.03701567,0.0044745645,-0.0075986143,0.0025486802,0.002340448,0.00018411994,0.00014798452,-0.021482537,-0.46523508,-0.29562923,0.41007268,1.5193816,0.5865147,0.0,0.10334747,0.034049902,0.016823785,0.06076165,0.033181217,inf,inf,inf,inf,1,1,1,1,2,1,1,1,3,0,0,1
387157251,0,0.0,0.0,0.02191858,-0.049668718,-0.10095495,-0.015287479,-0.030196557,-0.03701567,0.0051602097,-0.005703317,0.013936374,0.013782421,0.00018411994,0.00014798452,-0.021482537,0.31914923,0.09031546,0.24085261,1.5199268,0.5865147,0.0,0.103101134,0.03399628,0.016823787,0.060647756,0.033181235,inf,inf,inf,inf,1,1,1,1,2,1,1,1,3,0,0,1
387177235,0,0.0,0.0,0.021959502,-0.049783707,-0.10071297,-0.015287479,-0.030196557,-0.03701567,0.012889661,-0.004224216,0.005163806,0.0050633927,0.00018411994,0.00014798452,-0.021482537,-0.21979564,0.62604094,-0.41781798,1.5202894,0.5865147,0.0,0.102859154,0.033944998,0.016823791,0.060562175,0.03318128,inf,inf,inf,inf,1,1,1,1,2,1,1,1,3,0,0,1
387197220,0,0.0,0.0,0.02208387,-0.04988764,-0.10085561,-0.015287479,-0.030196557,-0.03701567,0.018741159,-0.0049631055,-0.024451861,-0.02450092,0.00018411994,0.00014798452,-0.021482537,0.90966713,0.6466794,-1.2335708,1.5204235,0.5865147,0.0,0.103001796,0.033896267,0.016823795,0.060491886,0.03318128,inf,inf,inf,inf,1,1,1,1,2,1,1,1,3,0,0,1
387217204,0,0.0,0.0,0.022369169,-0.050029844,-0.10138801,-0.015287479,-0.030196557,-0.03701567,0.027750872,-0.008954629,-0.031033212,-0.031034684,0.00018411994,0.00014798452,-0.021482537,0.38555896,-0.32391906,-0.037287213,1.5219533,0.5865147,0.0,0.10353419,0.033850122,0.016823797,0.06043771,0.033181284,inf,inf,inf,inf,1,1,1,1,2,1,1,1,3,0,0,1
387237192,0,0.0,0.0,0.022649188,-0.050217014,-0.102093145,-0.015287479,-0.030196557,-0.03701567,0.012987066,-0.007889818,-0.049695656,-0.049654577,0.00018411994,0.00014798452,-0.021482537,-1.1446273,0.13914955,-1.3850666,1.5243812,0.5865147,0.0,0.10423933,0.033780348,0.016823798,0.060335796,0.033181306,inf,inf,inf,inf,1,1,1,1,2,1,1,1,3,0,0,1
387257174,0,0.0,0.0,0.022743253,-0.050381973,-0.10305451,-0.015287479,-0.030196557,-0.03701567,0.0120500075,-0.010203888,-0.04622469,-0.046149492,0.00018411994,0.00014798452,-0.021482537,0.32555467,-0.4434292,0.6227537,1.5256376,0.5865147,0.0,0.10520069,0.03371417,0.016823798,0.060240347,0.033181302,inf,inf,inf,inf,1,1,1,1,2,1,1,1,3,0,0,1
387277159,0,0.0,0.0,0.022712078,-0.050640058,-0.10393811,-0.015287479,-0.030196557,-0.03701567,0.00040099074,-0.013144072,-0.05220957,-0.052109152,0.00018411994,0.00014798452,-0.021482537,-0.68265224,0.22905698,-1.4580667,1.52714,0.5865147,0.0,0.106084295,0.033651285,0.0168238,0.060128838,0.03318131,inf,inf,inf,inf,1,1,1,1,2,1,1,1,3,0,0,1
387297144,0,0.0,0.0,0.022505451,-0.050908774,-0.105337135,-0.015287479,-0.030196557,-0.03701567,-0.0035430589,-0.013283436,-0.09312772,-0.09301417,0.00018411994,0.00014798452,-0.021482537,-0.45920968,-0.58834594,-2.3209372,1.528727,0.5865147,0.0,0.10748332,0.03359133,0.016823802,0.060019393,0.03318132,inf,inf,inf,inf,1,1,1,1,2,1,1,1,3,0,0,1
387317129,0,0.0,0.0,0.022279631,-0.05121142,-0.10732889,-0.015287479,-0.030196557,-0.03701567,-0.0028190864,-0.020738063,-0.097935304,-0.097826265,0.00018411994,0.00014798452,-0.021482537,0.13603334,-1.2144995,0.954965,1.5302923,0.5865147,0.0,0.109475076,0.03353418,0.016823804,0.059912156,0.03318135,inf,inf,inf,inf,1,1,1,1,2,1,1,1,3,0,0,1
387337114,0,0.0,0.0,0.022008583,-0.051636856,-0.109332584,-0.015287479,-0.030196557,-0.03701567,-0.006386245,-0.018975282,-0.109124005,-0.10904536,0.00018411994,0.00014798452,-0.021482537,-0.28886214,0.5946709,-1.6158823,1.5315937,0.5865147,0.0,0.11147877,0.03347964,0.01682381,0.059835915,0.033181358,inf,inf,inf,inf,1,1,1,1,2,1,1,1,3,0,0,1
387357101,0,0.0,0.0,0.021667248,-0.052032974,-0.112100974,-0.015287479,-0.030196557,-0.03701567,-0.007352259,-0.019127712,-0.15816467,-0.15814625,0.00018411994,0.00014798452,-0.021482537,0.5937456,0.064154394,-1.455935,1.5330567,0.5865147,0.0,0.11424716,0.033427984,0.016823811,0.059795983,0.033181384,inf,inf,inf,inf,1,1,1,1,2,1,1,1,3,0,0,1
387377084,0,0.0,0.0,0.02134713,-0.05250704,-0.11540238,-0.015287479,-0.030196557,-0.03701567,-0.009604784,-0.026316015,-0.16387601,-0.16395092,0.00018411994,0.00014798452,-0.021482537,-0.13390593,-0.48660153,-0.41566545,1.5348737,0.5865147,0.0,0.11754856,0.034350056,0.016823815,0.060776617,0.03318141,inf,inf,inf,inf,1,1,1,1,2,1,1,1,3,0,0,1
387397069,0,0.0,0.0,0.021026308,-0.053039428,-0.11922802,-0.015287479,-0.030196557,-0.03701567,-0.0063206004,-0.02606515,-0.21314311,-0.21335854,0.00018411994,0.00014798452,-0.021482537,0.06764713,-0.5030449,-2.630686,1.5361263,0.5865147,0.0,0.121374205,0.03427361,0.016823819,0.060669847,0.03318143,inf,inf,inf,inf,1,1,1,1,2,1,1,1,3,0,0,1
387417054,0,0.0,0.0,0.02085952,-0.05365659,-0.12389676,-0.015287479,-0.030196557,-0.03701567,0.006682478,-0.034179483,-0.2339849,-0.23439124,0.00018411994,0.00014798452,-0.021482537,1.0978934,-0.42703894,-0.65938544,1.5369984,0.5865147,0.0,0.12604295,0.034201287,0.016823823,0.060590945,0.033181433,inf,inf,inf,inf,1,1,1,1,2,1,1,1,3,0,0,1
387437042,0,0.0,0.0,0.020902831,-0.054342274,-0.12901774,-0.015287479,-0.030196557,-0.03701567,0.01700562,-0.03412381,-0.25240305,-0.25306422,0.00018411994,0.00014798452,-0.021482537,0.7428613,-0.63989353,-0.33417258,1.5389804,0.5865147,0.0,0.13116392,0.034132756,0.016823824,0.060474712,0.03318143,inf,inf,inf,inf,1,1,1,1,2,1,1,1,3,0,0,1
387457027,0,0.0,0.0,0.020991674,-0.055045508,-0.13451892,-0.015287479,-0.030196557,-0.03701567,0.011178097,-0.034849565,-0.26792625,-0.26890722,0.00018411994,0.00014798452,-0.021482537,-0.33884695,-0.42361712,-0.40868285,1.5407559,0.5865147,0.0,0.1366651,0.03406768,0.016823826,0.060429126,0.033181544,inf,inf,inf,inf,1,1,1,1,2,1,1,1,3,0,0,1
387477009,0,0.0,0.0,0.021017296,-0.05578567,-0.14019766,-0.015287479,-0.030196557,-0.03701567,0.015006726,-0.031955205,-0.2698939,-0.2712624,0.00018411994,0.00014798452,-0.021482537,0.6457046,0.22480863,-1.071183,1.5421466,0.5865147,0.0,0.14234385,0.034006737,0.016823828,0.06040169,0.033181656,inf,inf,inf,inf,1,1,1,1,2,1,1,1,3,0,0,1
387496993,0,0.0,0.0,0.021168146,-0.05657688,-0.14627616,-0.015287479,-0.030196557,-0.03701567,0.020800643,-0.040561475,-0.28738087,-0.2891984,0.00018411994,0.00014798452,-0.021482537,0.79095876,-0.12889943,-0.25994313,1.543381,0.5865147,0.0,0.14842235,0.033923056,0.01682383,0.060261946,0.03318168,inf,inf,inf,inf,1,1,1,1,2,1,1,1,3,0,0,1
387516981,0,0.0,0.0,0.021503633,-0.057442755,-0.15294419,-0.015287479,-0.030196557,-0.03701567,0.03163108,-0.041869093,-0.31001917,-0.31236413,0.00018411994,0.00014798452,-0.021482537,0.23044688,-0.55578977,1.6876249,1.5454904,0.5865147,0.0,0.15509038,0.033843655,0.016823832,0.0602204,0.033181928,inf,inf,inf,inf,1,1,1,1,2,1,1,1,3,0,0,1
387536963,0,0.0,0.0,0.022007726,-0.058417328,-0.15957277,-0.015287479,-0.030196557,-0.03701567,0.033146404,-0.04539713,-0.31050995,-0.31347096,0.00018411994,0.00014798452,-0.021482537,-0.5342413,-0.49446636,-2.027024,1.5487351,0.5865147,0.0,0.16171895,0.033769336,0.016823836,0.060153734,0.033182073,inf,inf,inf,inf,1,1,1,1,2,1,1,1,3,0,0,1
387556950,0,0.0,0.0,0.02245433,-0.059424646,-0.16663633,-0.015287479,-0.030196557,-0.03701567,0.029616948,-0.044809204,-0.30941206,-0.3130701,0.00018411994,0.00014798452,-0.021482537,-0.3040103,0.25410697,1.5833036,1.5505636,0.5865147,0.0,0.16878252,0.03369914,0.01682384,0.06009026,0.03318226,inf,inf,inf,inf,1,1,1,1,2,1,1,1,3,0,0,1
387576933,0,0.0,0.0,0.022766085,-0.060450975,-0.17346759,-0.015287479,-0.030196557,-0.03701567,0.026472116,-0.04344763,-0.30007148,-0.3044827,0.00018411994,0.00014798452,-0.021482537,0.6513917,0.4157914,-0.3916374,1.5526133,0.5865147,0.0,0.17561378,0.03462686,0.016823845,0.061112113,0.033182614,inf,inf,inf,inf,1,1,1,1,2,1,1,1,3,0,0,1
387596918,0,0.0,0.0,0.02312872,-0.061499488,-0.18060961,-0.015287479,-0.030196557,-0.03701567,0.029286588,-0.05134334,-0.32113257,-0.32635102,0.00018411994,0.00014798452,-0.021482537,0.20909345,-0.90652484,0.047832128,1.5542814,0.5865147,0.0,0.1827558,0.03453234,0.016823852,0.061005376,0.0331828,inf,inf,inf,inf,1,1,1,1,2,1,1,1,3,0,0,1
387616904,0,0.0,0.0,0.023595415,-0.06268043,-0.18816207,-0.015287479,-0.030196557,-0.03701567,0.037520763,-0.0505124,-0.35436094,-0.36042503,0.00018411994,0.00014798452,-0.021482537,0.5428261,0.2441187,-3.1959443,1.5556163,0.5865147,0.0,0.19030826,0.0344157,0.01682386,0.06085086,0.03318292,inf,inf,inf,inf,1,1,1,1,2,1,1,1,3,0,0,1
387636888,0,0.0,0.0,0.024338568,-0.06392803,-0.196418,-0.015287479,-0.030196557,-0.03701567,0.05216766,-0.05664482,-0.3665963,-0.37354928,0.00018411994,0.00014798452,-0.021482537,0.7183319,0.09184607,-0.86824244,1.5573342,0.5865147,0.0,0.19856419,0.034305498,0.016823867,0.060686264,0.033182945,inf,inf,inf,inf,1,1,1,1,2,1,1,1,3,0,0,1
387656875,0,0.0,0.0,0.025383938,-0.06518758,-0.20513813,-0.015287479,-0.030196557,-0.03701567,0.070249125,-0.056488514,-0.3863107,-0.39418826,0.00018411994,0.00014798452,-0.021482537,0.8482219,-0.70141864,0.5789028,1.5596626,0.5865147,0.0,0.20728432,0.034201108,0.016823877,0.060571413,0.033183195,inf,inf,inf,inf,1,1,1,1,2,1,1,1,3,0,0,1
387676859,0,0.0,0.0,0.026707176,-0.0665018,-0.21391611,-0.015287479,-0.030196557,-0.03701567,0.07343728,-0.05245214,-0.38842905,-0.39725998,0.00018411994,0.00014798452,-0.021482537,-0.10427203,0.8847546,-1.5594585,1.562522,0.5865147,0.0,0.21606229,0.034102652,0.016823886,0.060479533,0.033183552,inf,inf,inf,inf,1,1,1,1,2,1,1,1,3,0,0,1
387696843,0,0.0,0.0,0.028109223,-0.06767389,-0.22327758,-0.015287479,-0.030196557,-0.03701567,0.08217316,-0.04767734,-0.41303152,-0.42283753,0.00018411994,0.00014798452,-0.021482537,0.6474209,-0.12951057,0.95639145,1.5648053,0.5865147,0.0,0.22542377,0.03400998,0.016823899,0.060304318,0.033183333,inf,inf,inf,inf,1,1,1,1,2,1,1,1,3,0,0,1
387716830,0,0.0,0.0,0.029815188,-0.0688474,-0.23280479,-0.015287479,-0.030196557,-0.03701567,0.10232749,-0.04667311,-0.4297722,-0.44056997,0.00018411994,0.00014798452,-0.021482537,1.1464316,0.13888119,-2.650622,1.5675484,0.5865147,0.0,0.23495097,0.033921964,0.01682391,0.060234305,0.03318363,inf,inf,inf,inf,1,1,1,1,2,1,1,1,3,0,0,1
387736813,0,0.0,0.0,0.032001264,-0.07008159,-0.2430803,-0.015287479,-0.030196557,-0.03701567,0.124207675,-0.053795073,-0.45745116,-0.46925914,0.00018411994,0.00014798452,-0.021482537,0.7968287,-0.22359398,-0.4837746,1.5694218,0.5865147,0.0,0.24522649,0.033838954,0.016823923,0.060071994,0.033183247,inf,inf,inf,inf,1,1,1,1,2,1,1,1,3,0,0,1
387756801,0,0.0,0.0,0.03456623,-0.071329646,-0.25390667,-0.015287479,-0.030196557,-0.03701567,0.13759422,-0.049717855,-0.4695772,-0.48242217,0.00018411994,0.00014798452,-0.021482537,0.56319684,-0.44264486,2.2867477,1.571275,0.5865147,0.0,0.25605285,0.033759993,0.016823933,0.059992444,0.033183314,inf,inf,inf,inf,1,1,1,1,2,1,1,1,3,0,0,1
387776784,0,0.0,0.0,0.03724557,-0.072487056,-0.26436603,-0.015287479,-0.030196557,-0.03701567,0.13762137,-0.040361784,-0.45821178,-0.4720913,0.00018411994,0.00014798452,-0.021482537,0.104392774,0.4370917,-2.081275,1.5726789,0.5865147,0.0,0.26651222,0.03468399,0.016823946,0.06094443,0.033183526,inf,inf,inf,inf,1,1,1,1,2,1,1,1,3,0,0,1
387796768,0,0.0,0.0,0.04002498,-0.07352845,-0.27515897,-0.015287479,-0.030196557,-0.03701567,0.1475278,-0.03965529,-0.47105706,-0.4859744,0.00018411994,0.00014798452,-0.021482537,1.092205,-0.088946715,-0.72827053,1.5727975,0.5865147,0.0,0.27730516,0.034580655,0.016823959,0.060870465,0.033184037,inf,inf,inf,inf,1,1,1,1,2,1,1,1,3,0,0,1
387816753,0,0.0,0.0,0.043208696,-0.07450662,-0.28643793,-0.015287479,-0.030196557,-0.03701567,0.17150922,-0.034490798,-0.5017625,-0.51772344,0.00018411994,0.00014798452,-0.021482537,1.2469459,0.11037624,-0.5195424,1.5736308,0.5865147,0.0,0.2885841,0.034483474,0.016823974,0.060777057,0.033184394,inf,inf,inf,inf,1,1,1,1,2,1,1,1,3,0,0,1
387836737,0,0.0,0.0,0.046697404,-0.07548253,-0.2979963,-0.015287479,-0.030196557,-0.03701567,0.17037384,-0.035803463,-0.5101882,-0.52719474,0.00018411994,0.00014798452,-0.021482537,-0.24824817,-0.02573258,-1.5975909,1.5746764,0.5865147,0.0,0.3001425,0.03439205,0.01682399,0.06063284,0.033184342,inf,inf,inf,inf,1,1,1,1,2,1,1,1,3,0,0,1
387856724,0,0.0,0.0,0.050339743,-0.07640606,-0.3101263,-0.015287479,-0.030196557,-0.03701567,0.1847359,-0.032266513,-0.5374043,-0.5554717,0.00018411994,0.00014798452,-0.021482537,0.9540418,-0.06936875,-0.17896616,1.5747814,0.5865147,0.0,0.3122725,0.03430551,0.016824005,0.060583655,0.03318464,inf,inf,inf,inf,1,1,1,1,2,1,1,1,3,0,0,1
387876710,0,0.0,0.0,0.054226153,-0.077383496,-0.32224873,-0.015287479,-0.030196557,-0.03701567,0.1839323,-0.037411466,-0.5148011,-0.53392565,0.00018411994,0.00014798452,-0.021482537,-0.47590756,-0.1091182,0.5610563,1.5744845,0.5865147,0.0,0.3243949,0.034224406,0.01682402,0.060463138,0.033184595,inf,inf,inf,inf,1,1,1,1,2,1,1,1,3,0,0,1
387896698,0,0.0,0.0,0.05806784,-0.07828838,-0.33445078,-0.015287479,-0.030196557,-0.03701567,0.18380424,-0.028342905,-0.5449275,-0.56509525,0.00018411994,0.00014798452,-0.021482537,0.4337073,0.4554492,-1.3935655,1.5741235,0.5865147,0.0,0.33659697,0.034147892,0.016824037,0.060447793,0.033185787,inf,inf,inf,inf,1,1,1,1,2,1,1,1,3,0,0,1
387916678,0,0.0,0.0,0.062059805,-0.07911809,-0.34680033,-0.015287479,-0.030196557,-0.03701567,0.1880311,-0.028104372,-0.52500373,-0.5461949,0.00018411994,0.00014798452,-0.021482537,-0.121678494,0.059715528,0.3946048,1.5737673,0.5865147,0.0,0.3489465,0.034076463,0.016824057,0.06040584,0.033186503,inf,inf,inf,inf,1,1,1,1,2,1,1,1,3,0,0,1
387936671,0,0.0,0.0,0.06613119,-0.079842396,-0.35932368,-0.015287479,-0.030196557,-0.03701567,0.18937433,-0.021265056,-0.56191075,-0.58410007,0.00018411994,0.00014798452,-0.021482537,0.23623773,0.33097893,-1.6172142,1.573729,0.5865147,0.0,0.36146986,0.03400946,0.016824083,0.060245547,0.033185694,inf,inf,inf,inf,1,1,1,1,2,1,1,1,3,0,0,1
387956649,0,0.0,0.0,0.070256986,-0.08051941,-0.37221578,-0.015287479,-0.030196557,-0.03701567,0.19061822,-0.021027295,-0.55752224,-0.5806627,0.00018411994,0.00014798452,-0.021482537,0.08031226,0.16078603,0.41698486,1.5730613,0.5865147,0.0,0.37436196,0.03391949,0.016824104,0.060163233,0.03318585,inf,inf,inf,inf,1,1,1,1,2,1,1,1,3,0,0,1
387976633,0,0.0,0.0,0.07448137,-0.08103229,-0.3852045,-0.015287479,-0.030196557,-0.03701567,0.19247021,-0.007403389,-0.57803243,-0.6020949,0.00018411994,0.00014798452,-0.021482537,-0.2644102,0.74426275,-1.1270504,1.5722914,0.5865147,0.0,0.38735068,0.033834785,0.016824126,0.06008775,0.03318657,inf,inf,inf,inf,1,1,1,1,2,1,1,1,3,0,0,1
387996618,0,0.0,0.0,0.078695744,-0.081323914,-0.39846033,-0.015287479,-0.030196557,-0.03701567,0.18768303,-0.0016426556,-0.57264465,-0.5976024,0.00018411994,0.00014798452,-0.021482537,-0.04174446,0.21930124,1.12854,1.5711802,0.5865147,0.0,0.4006065,0.033755284,0.016824154,0.059988648,0.033186983,inf,inf,inf,inf,1,1,1,1,2,1,1,1,3,0,0,1
388016603,0,0.0,0.0,0.08289268,-0.08142296,-0.4115419,-0.015287479,-0.030196557,-0.03701567,0.18409379,0.012444919,-0.5736736,-0.5995067,0.00018411994,0.00014798452,-0.021482537,-0.5866115,0.90624434,-0.71268785,1.5699968,0.5865147,0.0,0.4136881,0.033680264,0.01682418,0.059946563,0.033187386,inf,inf,inf,inf,1,1,1,1,2,1,1,1,3,0,0,1
388036587,0,0.0,0.0,0.0869424,-0.08127522,-0.42472437,-0.015287479,-0.030196557,-0.03701567,0.17616537,0.018789591,-0.5685133,-0.59516025,0.00018411994,0.00014798452,-0.021482537,-0.15948899,-0.10654858,1.6518008,1.5687606,0.5865147,0.0,0.42687055,0.034601405,0.016824212,0.060860902,0.033187598,inf,inf,inf,inf,1,1,1,1,2,1,1,1,3,0,0,1
388056574,0,0.0,0.0,0.09098986,-0.08098318,-0.4374778,-0.015287479,-0.030196557,-0.03701567,0.17558576,0.027916837,-0.5571633,-0.5845674,0.00018411994,0.00014798452,-0.021482537,-0.48511696,0.8808472,-1.3008338,1.5677279,0.5865147,0.0,0.43962398,0.034501612,0.016824242,0.06071762,0.033186894,inf,inf,inf,inf,1,1,1,1,2,1,1,1,3,0,0,1
388076558,0,0.0,0.0,0.09513524,-0.08045793,-0.45065543,-0.015287479,-0.030196557,-0.03701567,0.1907151,0.03568737,-0.5853703,-0.61349785,0.00018411994,0.00014798452,-0.021482537,1.4101617,-0.053989865,0.43557712,1.5663216,0.5865147,0.0,0.45280161,0.034407604,0.016824272,0.06059757,0.03318696,inf,inf,inf,inf,1,1,1,1,2,1,1,1,3,0,0,1
388096543,0,0.0,0.0,0.099518925,-0.07978736,-0.46390817,-0.015287479,-0.030196557,-0.03701567,0.187289,0.042941544,-0.59090865,-0.6197068,0.00018411994,0.00014798452,-0.021482537,-1.0573485,0.310327,-1.4988109,1.565565,0.5865147,0.0,0.46605435,0.034291577,0.016824296,0.06044095,0.03318672,inf,inf,inf,inf,1,1,1,1,2,1,1,1,3,0,0,1
388116528,0,0.0,0.0,0.103948236,-0.07896893,-0.4773861,-0.015287479,-0.030196557,-0.03701567,0.19600213,0.047726803,-0.59443706,-0.623869,0.00018411994,0.00014798452,-0.021482537,0.019427333,0.295117,0.022916311,1.5652562,0.5865147,0.0,0.47953227,0.034182366,0.016824322,0.060323723,0.033186845,inf,inf,inf,inf,1,1,1,1,2,1,1,1,3,0,0,1
388136513,0,0.0,0.0,0.10838577,-0.07798801,-0.49108997,-0.015287479,-0.030196557,-0.03701567,0.1943971,0.053420894,-0.61767244,-0.6476952,0.00018411994,0.00014798452,-0.021482537,0.40091157,0.19478421,-0.3693385,1.5650175,0.5865147,0.0,0.49323615,0.03407926,0.016824346,0.06017882,0.033186488,inf,inf,inf,inf,1,1,1,1,2,1,1,1,3,0,0,1
388156497,0,0.0,0.0,0.11297287,-0.07688295,-0.50496525,-0.015287479,-0.030196557,-0.03701567,0.20232593,0.059882227,-0.62340635,-0.6539648,0.00018411994,0.00014798452,-0.021482537,-0.22323947,0.36852306,-1.0853816,1.56493,0.5865147,0.0,0.50711143,0.033982024,0.016824368,0.060075045,0.03318612,inf,inf,inf,inf,1,1,1,1,2,1,1,1,3,0,0,1
388176482,0,0.0,0.0,0.11760535,-0.07558401,-0.5193421,-0.015287479,-0.030196557,-0.03701567,0.2060309,0.06962811,-0.6635326,-0.69453347,0.00018411994,0.00014798452,-0.021482537,0.35766926,0.5000512,-0.9174364,1.5645308,0.5865147,0.0,0.5214883,0.034907356,0.016824383,0.060965005,0.03318535,inf,inf,inf,inf,1,1,1,1,2,1,1,1,3,0,0,1
388196467,0,0.0,0.0,0.12236996,-0.074145645,-0.5338272,-0.015287479,-0.030196557,-0.03701567,0.20732704,0.07239478,-0.649904,-0.681266,0.00018411994,0.00014798452,-0.021482537,-0.75637305,0.3472949,-0.20197111,1.5648698,0.5865147,0.0,0.53597337,0.034784824,0.016824393,0.06081413,0.033184703,inf,inf,inf,inf,1,1,1,1,2,1,1,1,3,0,0,1
388216456,0,0.0,0.0,0.1269978,-0.072526656,-0.54837376,-0.015287479,-0.030196557,-0.03701567,0.20655783,0.081000954,-0.66267157,-0.69432527,0.00018411994,0.00014798452,-0.021482537,0.7221337,0.56439936,0.68971646,1.5648658,0.5865147,0.0,0.55051994,0.034669112,0.016824393,0.060593054,0.03318374,inf,inf,inf,inf,1,1,1,1,2,1,1,1,3,0,0,1
388236437,0,0.0,0.0,0.13162039,-0.07067677,-0.56288743,-0.015287479,-0.030196557,-0.03701567,0.19873688,0.09050011,-0.66828567,-0.70016706,0.00018411994,0.00014798452,-0.021482537,-0.4146012,0.06321596,-0.8464799,1.565394,0.5865147,0.0,0.5650336,0.034559276,0.016824381,0.060506746,0.033183865,inf,inf,inf,inf,1,1,1,1,2,1,1,1,3,0,0,1
388256422,0,0.0,0.0,0.13615501,-0.068700805,-0.5773239,-0.015287479,-0.030196557,-0.03701567,0.19930698,0.090926446,-0.6470192,-0.67906827,0.00018411994,0.00014798452,-0.021482537,0.04497645,0.11734762,1.416599,1.5655313,0.5865147,0.0,0.5794701,0.034456298,0.016824376,0.06036109,0.03318389,inf,inf,inf,inf,1,1,1,1,2,1,1,1,3,0,0,1
388276408,0,0.0,0.0,0.14059591,-0.066601135,-0.5916081,-0.015287479,-0.030196557,-0.03701567,0.19121589,0.0983409,-0.67443967,-0.70662254,0.00018411994,0.00014798452,-0.021482537,-0.49823087,0.34160015,-2.4368796,1.5662701,0.5865147,0.0,0.5937543,0.034359075,0.016824367,0.060268864,0.03318381,inf,inf,inf,inf,1,1,1,1,2,1,1,1,3,0,0,1
388296392,0,0.0,0.0,0.14488363,-0.064407155,-0.6062294,-0.015287479,-0.030196557,-0.03701567,0.18445079,0.09862153,-0.66285855,-0.6951263,0.00018411994,0.00014798452,-0.021482537,-0.73518944,0.09719934,1.595999,1.5676193,0.5865147,0.0,0.6083756,0.034240898,0.016824357,0.060127202,0.033183426,inf,inf,inf,inf,1,1,1,1,2,1,1,1,3,0,0,1
388316377,0,0.0,0.0,0.14890279,-0.06214942,-0.6203713,-0.015287479,-0.030196557,-0.03701567,0.16825254,0.10359414,-0.6482373,-0.6805494,0.00018411994,0.00014798452,-0.021482537,-0.6848867,0.45166948,-0.083169684,1.5688875,0.5865147,0.0,0.62251747,0.035169233,0.016824344,0.061059516,0.03318353,inf,inf,inf,inf,1,1,1,1,2,1,1,1,3,0,0,1
388336362,0,0.0,0.0,0.1526718,-0.059741203,-0.63463503,-0.015287479,-0.030196557,-0.03701567,0.16109349,0.10499746,-0.67095256,-0.7032764,0.00018411994,0.00014798452,-0.021482537,-0.09635588,-0.476083,-0.66401523,1.5699972,0.5865147,0.0,0.6367812,0.035026528,0.016824333,0.060926404,0.03318368,inf,inf,inf,inf,1,1,1,1,2,1,1,1,3,0,0,1
388356347,0,0.0,0.0,0.15629874,-0.057352703,-0.64901656,-0.015287479,-0.030196557,-0.03701567,0.15197314,0.099488154,-0.66347367,-0.6957574,0.00018411994,0.00014798452,-0.021482537,-0.6859507,-0.045951556,0.6992927,1.5715998,0.5865147,0.0,0.65116274,0.034892824,0.016824322,0.060753696,0.03318377,inf,inf,inf,inf,1,1,1,1,2,1,1,1,3,0,0,1
388376332,0,0.0,0.0,0.15971147,-0.0550178,-0.66326874,-0.015287479,-0.030196557,-0.03701567,0.14695022,0.09839117,-0.67448527,-0.7066453,0.00018411994,0.00014798452,-0.021482537,-0.079746805,-0.11835959,-0.9139244,1.5736778,0.5865147,0.0,0.6654149,0.034738783,0.016824309,0.060556985,0.03318307,inf,inf,inf,inf,1,1,1,1,2,1,1,1,3,0,0,1
388396317,0,0.0,0.0,0.16299213,-0.052736618,-0.6774843,-0.015287479,-0.030196557,-0.03701567,0.14068486,0.08832854,-0.6529967,-0.68497324,0.00018411994,0.00014798452,-0.021482537,-0.25402665,-0.5798,1.9546052,1.575805,0.5865147,0.0,0.67963046,0.034593813,0.016824294,0.060347516,0.033182736,inf,inf,inf,inf,1,1,1,1,2,1,1,1,3,0,0,1
388416302,0,0.0,0.0,0.16600612,-0.050530065,-0.69122225,-0.015287479,-0.030196557,-0.03701567,0.12368348,0.08972726,-0.64393175,-0.67567015,0.00018411994,0.00014798452,-0.021482537,-0.8239253,-0.13337125,0.74677,1.5776182,0.5865147,0.0,0.69336843,0.034457102,0.016824273,0.060169548,0.033182204,inf,inf,inf,inf,1,1,1,1,2,1,1,1,3,0,0,1
388436287,0,0.0,0.0,0.16860977,-0.048310384,-0.7043483,-0.015287479,-0.030196557,-0.03701567,0.101995215,0.08954,-0.59908485,-0.6305338,0.00018411994,0.00014798452,-0.021482537,-0.9456996,0.16954637,1.4529079,1.5784801,0.5865147,0.0,0.7064945,0.035386268,0.016824247,0.061056186,0.03318137,inf,inf,inf,inf,1,1,1,1,2,1,1,1,3,0,0,1
388456271,0,0.0,0.0,0.17077073,-0.046008002,-0.71700937,-0.015287479,-0.030196557,-0.03701567,0.088630386,0.091206074,-0.59825265,-0.6293429,0.00018411994,0.00014798452,-0.021482537,-0.21799207,-0.2398327,1.0532132,1.579415,0.5865147,0.0,0.71915555,0.035224807,0.016824216,0.060894705,0.03318103,inf,inf,inf,inf,1,1,1,1,2,1,1,1,3,0,0,1
388476257,0,0.0,0.0,0.17265573,-0.043757472,-0.7293904,-0.015287479,-0.030196557,-0.03701567,0.0775078,0.08666711,-0.5936407,-0.62429994,0.00018411994,0.00014798452,-0.021482537,-0.63772446,0.01659684,-1.0012927,1.5803704,0.5865147,0.0,0.73153657,0.035072923,0.016824177,0.060637377,0.033179685,inf,inf,inf,inf,1,1,1,1,2,1,1,1,3,0,0,1
388496241,0,0.0,0.0,0.17433114,-0.04155311,-0.7418683,-0.015287479,-0.030196557,-0.03701567,0.07356104,0.07909658,-0.59460855,-0.62478256,0.00018411994,0.00014798452,-0.021482537,-0.5845517,-0.47200102,1.4680395,1.5811388,0.5865147,0.0,0.7440145,0.034929313,0.016824126,0.060475513,0.033179075,inf,inf,inf,inf,1,1,1,1,2,1,1,1,3,0,0,1
