timestamp,q[0],q[1],q[2],q[3],delta_q_reset[0],delta_q_reset[1],delta_q_reset[2],delta_q_reset[3],quat_reset_counter
385018862,0.72527266,0.0030120995,-0.0013887007,0.6884538,0.95730734,3.3650235e-10,-1.0585269e-10,0.28907204,3
385023858,0.7252737,0.003016089,-0.0013886166,0.68845266,0.95730734,3.3650235e-10,-1.0585269e-10,0.28907204,3
385038847,0.7252747,0.003010154,-0.0013922974,0.68845165,0.95730734,3.3650235e-10,-1.0585269e-10,0.28907204,3
385058831,0.72527075,0.0030201722,-0.0013922898,0.6884558,0.95730734,3.3650235e-10,-1.0585269e-10,0.28907204,3
385083812,0.7253971,0.0029975618,-0.0013879101,0.6883227,0.95730734,3.3650235e-10,-1.0585269e-10,0.28907204,3
385098802,0.7252184,0.002998716,-0.0014027412,0.68851095,0.95730734,3.3650235e-10,-1.0585269e-10,0.28907204,3
385118786,0.72522783,0.0030178605,-0.0013804464,0.68850094,0.95730734,3.3650235e-10,-1.0585269e-10,0.28907204,3
385143767,0.7252702,0.0030322343,-0.0013575185,0.6884564,0.95730734,3.3650235e-10,-1.0585269e-10,0.28907204,3
385158757,0.72532624,0.002991214,-0.0013798582,0.68839747,0.95730734,3.3650235e-10,-1.0585269e-10,0.28907204,3
385178741,0.7252551,0.0030100276,-0.001371302,0.68847233,0.95730734,3.3650235e-10,-1.0585269e-10,0.28907204,3
385198725,0.7252898,0.0030147224,-0.0013656332,0.6884358,0.95730734,3.3650235e-10,-1.0585269e-10,0.28907204,3
385223706,0.7253074,0.0029867096,-0.0013806612,0.68841726,0.95730734,3.3650235e-10,-1.0585269e-10,0.28907204,3
385238695,0.72526556,0.0030026152,-0.0013424495,0.6884615,0.95730734,3.3650235e-10,-1.0585269e-10,0.28907204,3
385258681,0.7252963,0.0030036373,-0.0013499008,0.688429,0.95730734,3.3650235e-10,-1.0585269e-10,0.28907204,3
385283661,0.7252633,0.002983557,-0.0013843504,0.68846387,0.95730734,3.3650235e-10,-1.0585269e-10,0.28907204,3
385298649,0.72530085,0.0029941737,-0.0013866428,0.6884242,0.95730734,3.3650235e-10,-1.0585269e-10,0.28907204,3
385318634,0.7252616,0.0029893594,-0.0013934575,0.6884655,0.95730734,3.3650235e-10,-1.0585269e-10,0.28907204,3
385338619,0.72531193,0.0029823182,-0.0014032637,0.6884125,0.95730734,3.3650235e-10,-1.0585269e-10,0.28907204,3
385363602,0.72528356,0.002993424,-0.0013800429,0.6884424,0.95730734,3.3650235e-10,-1.0585269e-10,0.28907204,3
385378591,0.7252742,0.0030297113,-0.0013867998,0.68845206,0.95730734,3.3650235e-10,-1.0585269e-10,0.28907204,3
385398575,0.72528696,0.003007108,-0.001410647,0.6884388,0.95730734,3.3650235e-10,-1.0585269e-10,0.28907204,3
385423557,0.72525215,0.002998167,-0.0013975044,0.68847543,0.95730734,3.3650235e-10,-1.0585269e-10,0.28907204,3
385438548,0.72529674,0.0030092269,-0.0014018748,0.68842846,0.95730734,3.3650235e-10,-1.0585269e-10,0.28907204,3
385458532,0.72528875,0.0030029186,-0.0013764501,0.68843687,0.95730734,3.3650235e-10,-1.0585269e-10,0.28907204,3
385478514,0.72527826,0.0030243692,-0.0013734127,0.68844783,0.95730734,3.3650235e-10,-1.0585269e-10,0.28907204,3
385503496,0.7253046,0.002968555,-0.0014015167,0.68842036,0.95730734,3.3650235e-10,-1.0585269e-10,0.28907204,3
385518484,0.72533,0.0029907704,-0.0013525172,0.6883936,0.95730734,3.3650235e-10,-1.0585269e-10,0.28907204,3
385538469,0.72535074,0.0029300235,-0.0013900968,0.68837184,0.95730734,3.3650235e-10,-1.0585269e-10,0.28907204,3
385563452,0.72529155,0.0028926253,-0.0013173034,0.68843454,0.95730734,3.3650235e-10,-1.0585269e-10,0.28907204,3
385578439,0.725293,0.002970768,-0.0012526747,0.6884329,0.95730734,3.3650235e-10,-1.0585269e-10,0.28907204,3
385598423,0.72527707,0.0028444848,-0.0012987246,0.68845004,0.95730734,3.3650235e-10,-1.0585269e-10,0.28907204,3
385618410,0.72522074,0.002882779,-0.0013098107,0.6885092,0.95730734,3.3650235e-10,-1.0585269e-10,0.28907204,3
385638395,0.7252319,0.0028701168,-0.0013342049,0.6884974,0.95730734,3.3650235e-10,-1.0585269e-10,0.28907204,3
385658380,0.72528195,0.0028609724,-0.0013201926,0.6884448,0.95730734,3.3650235e-10,-1.0585269e-10,0.28907204,3
385678364,0.725228,0.0027654266,-0.0014056175,0.6885019,0.95730734,3.3650235e-10,-1.0585269e-10,0.28907204,3
385703346,0.7252811,0.0029080128,-0.0013386208,0.68844545,0.95730734,3.3650235e-10,-1.0585269e-10,0.28907204,3
385718333,0.72534204,0.0027660648,-0.0014119784,0.6883817,0.95730734,3.3650235e-10,-1.0585269e-10,0.28907204,3
385738318,0.72520185,0.0029156257,-0.0013421398,0.6885289,0.95730734,3.3650235e-10,-1.0585269e-10,0.28907204,3
385758306,0.72539467,0.0028207675,-0.0014317724,0.688326,0.95730734,3.3650235e-10,-1.0585269e-10,0.28907204,3
385778288,0.72520936,0.0028966176,-0.0014195222,0.68852097,0.95730734,3.3650235e-10,-1.0585269e-10,0.28907204,3
385798273,0.72531635,0.0028754177,-0.0013618879,0.68840843,0.95730734,3.3650235e-10,-1.0585269e-10,0.28907204,3
385818258,0.7253619,0.0028232527,-0.0014956916,0.68836033,0.95730734,3.3650235e-10,-1.0585269e-10,0.28907204,3
385843240,0.7252284,0.0029022938,-0.001354717,0.68850094,0.95730734,3.3650235e-10,-1.0585269e-10,0.28907204,3
385858229,0.7254043,0.0028152997,-0.0014119099,0.68831587,0.95730734,3.3650235e-10,-1.0585269e-10,0.28907204,3
385878213,0.725186,0.0029289261,-0.0013644057,0.68854547,0.95730734,3.3650235e-10,-1.0585269e-10,0.28907204,3
385898198,0.7252719,0.0028636148,-0.0013777978,0.6884553,0.95730734,3.3650235e-10,-1.0585269e-10,0.28907204,3
385918183,0.725352,0.002902544,-0.0014045159,0.6883707,0.95730734,3.3650235e-10,-1.0585269e-10,0.28907204,3
385938168,0.7251139,0.0029033432,-0.0013274517,0.6886216,0.95730734,3.3650235e-10,-1.0585269e-10,0.28907204,3
385958154,0.7254303,0.0028218734,-0.0014346063,0.68828833,0.95730734,3.3650235e-10,-1.0585269e-10,0.28907204,3
385983134,0.72539467,0.0028697054,-0.0012942719,0.6883261,0.95730734,3.3650235e-10,-1.0585269e-10,0.28907204,3
385998123,0.72532904,0.002859143,-0.0013583237,0.68839514,0.95730734,3.3650235e-10,-1.0585269e-10,0.28907204,3
386023107,0.725554,0.0029174394,-0.0012617754,0.688158,0.95730734,3.3650235e-10,-1.0585269e-10,0.28907204,3
386038093,0.7250616,0.00294999,-0.0013153643,0.68867654,0.95730734,3.3650235e-10,-1.0585269e-10,0.28907204,3
386058079,0.7255522,0.0028779577,-0.0012975737,0.68816,0.95730734,3.3650235e-10,-1.0585269e-10,0.28907204,3
386078064,0.72505665,0.003023857,-0.0011789982,0.6886817,0.95730734,3.3650235e-10,-1.0585269e-10,0.28907204,3
386098048,0.72536176,0.002873348,-0.0012995246,0.6883607,0.95730734,3.3650235e-10,-1.0585269e-10,0.28907204,3
386123030,0.72562414,0.0027720162,-0.0012964779,0.68808454,0.95730734,3.3650235e-10,-1.0585269e-10,0.28907204,3
386138018,0.7250252,0.0028468699,-0.0013347551,0.6887153,0.95730734,3.3650235e-10,-1.0585269e-10,0.28907204,3
386158002,0.7256456,0.002888423,-0.0012255005,0.68806154,0.95730734,3.3650235e-10,-1.0585269e-10,0.28907204,3
386177987,0.72486705,0.0030277725,-0.0011734391,0.6888812,0.95730734,3.3650235e-10,-1.0585269e-10,0.28907204,3
386197972,0.7255575,0.0028413886,-0.0011804239,0.68815476,0.95730734,3.3650235e-10,-1.0585269e-10,0.28907204,3
386217957,0.7250957,0.003021461,-0.0011634344,0.6886406,0.95730734,3.3650235e-10,-1.0585269e-10,0.28907204,3
386237942,0.7252375,0.0028539416,-0.0012716899,0.68849176,0.95730734,3.3650235e-10,-1.0585269e-10,0.28907204,3
386262926,0.7257435,0.0027777662,-0.0013598943,0.6879586,0.95730734,3.3650235e-10,-1.0585269e-10,0.28907204,3
386277913,0.7249118,0.0028504478,-0.0012747822,0.68883467,0.95730734,3.3650235e-10,-1.0585269e-10,0.28907204,3
386297897,0.7257434,0.0027914313,-0.0012927346,0.6879586,0.95730734,3.3650235e-10,-1.0585269e-10,0.28907204,3
386322885,0.7250218,0.002777562,-0.0013624642,0.68871903,0.95730734,3.3650235e-10,-1.0585269e-10,0.28907204,3
386337867,0.72570455,0.0027840047,-0.001312367,0.6879996,0.95730734,3.3650235e-10,-1.0585269e-10,0.28907204,3
386357852,0.7249447,0.0030242177,-0.001173119,0.68879944,0.95730734,3.3650235e-10,-1.0585269e-10,0.28907204,3
386377837,0.725452,0.0028025757,-0.0013702147,0.6882658,0.95730734,3.3650235e-10,-1.0585269e-10,0.28907204,3
386402818,0.7257679,0.002775552,-0.001278622,0.68793297,0.95730734,3.3650235e-10,-1.0585269e-10,0.28907204,3
386417807,0.72502756,0.0028581622,-0.0012265726,0.6887129,0.95730734,3.3650235e-10,-1.0585269e-10,0.28907204,3
386437791,0.725706,0.0028270222,-0.0011712296,0.68799824,0.95730734,3.3650235e-10,-1.0585269e-10,0.28907204,3
386462778,0.7248861,0.002855615,-0.0013083146,0.68886155,0.95730734,3.3650235e-10,-1.0585269e-10,0.28907204,3
386477763,0.7257225,0.0027887586,-0.00121506,0.68798095,0.95730734,3.3650235e-10,-1.0585269e-10,0.28907204,3
386497746,0.72488356,0.0029641204,-0.0011335672,0.6888641,0.95730734,3.3650235e-10,-1.0585269e-10,0.28907204,3
386517732,0.72529966,0.0027497048,-0.001286467,0.68842673,0.95730734,3.3650235e-10,-1.0585269e-10,0.28907204,3
386542713,0.7252854,0.002703278,-0.0011955613,0.68844193,0.95730734,3.3650235e-10,-1.0585269e-10,0.28907204,3
386557703,0.72503394,0.0025783258,-0.0010754727,0.6887075,0.95730734,3.3650235e-10,-1.0585269e-10,0.28907204,3
386577687,0.72501034,0.0028411925,-0.0006646552,0.6887319,0.95730734,3.3650235e-10,-1.0585269e-10,0.28907204,3
386602668,0.7247621,0.0024612215,-0.0008148573,0.6889944,0.95730734,3.3650235e-10,-1.0585269e-10,0.28907204,3
386617656,0.7252824,0.002688413,-0.0006558349,0.688446,0.95730734,3.3650235e-10,-1.0585269e-10,0.28907204,3
386637641,0.72480327,0.003176796,-0.00051690754,0.6889484,0.95730734,3.3650235e-10,-1.0585269e-10,0.28907204,3
386657626,0.72523177,0.0021629161,-0.0009119141,0.6885009,0.95730734,3.3650235e-10,-1.0585269e-10,0.28907204,3
386682607,0.72500134,0.0025704817,-0.0007282082,0.68874234,0.95730734,3.3650235e-10,-1.0585269e-10,0.28907204,3
386697596,0.7251504,0.0030791173,-0.00042017785,0.68858355,0.95730734,3.3650235e-10,-1.0585269e-10,0.28907204,3
386717586,0.72491497,0.0032323413,-0.0004643222,0.6888306,0.95730734,3.3650235e-10,-1.0585269e-10,0.28907204,3
386742562,0.72497946,0.0023752733,-0.0008486124,0.6887659,0.95730734,3.3650235e-10,-1.0585269e-10,0.28907204,3
386757551,0.7250949,0.0023055305,-0.0009502741,0.6886445,0.95730734,3.3650235e-10,-1.0585269e-10,0.28907204,3
386777535,0.7248699,0.0026974848,-0.0007672542,0.68888015,0.95730734,3.3650235e-10,-1.0585269e-10,0.28907204,3
386797520,0.7251162,0.0028717844,-0.0006565199,0.6886203,0.95730734,3.3650235e-10,-1.0585269e-10,0.28907204,3
386822503,0.7249919,0.0028285396,-0.0008092751,0.68875116,0.95730734,3.3650235e-10,-1.0585269e-10,0.28907204,3
386837490,0.72523713,0.002359151,-0.00097425346,0.68849456,0.95730734,3.3650235e-10,-1.0585269e-10,0.28907204,3
386857477,0.725082,0.0024873915,-0.00085782824,0.6886576,0.95730734,3.3650235e-10,-1.0585269e-10,0.28907204,3
386882457,0.7252677,0.0029034256,-0.00061781437,0.68846065,0.95730734,3.3650235e-10,-1.0585269e-10,0.28907204,3
386897445,0.7250968,0.003279662,-0.0006951317,0.6886388,0.95730734,3.3650235e-10,-1.0585269e-10,0.28907204,3
386917431,0.72517425,0.002939133,-0.00092789833,0.6885586,0.95730734,3.3650235e-10,-1.0585269e-10,0.28907204,3
386937415,0.72503734,0.00235119,-0.0010395474,0.68870485,0.95730734,3.3650235e-10,-1.0585269e-10,0.28907204,3
386962396,0.7249048,0.0022569448,-0.0011204066,0.68884456,0.95730734,3.3650235e-10,-1.0585269e-10,0.28907204,3
386977385,0.72484976,0.0025779856,-0.00097493443,0.68890154,0.95730734,3.3650235e-10,-1.0585269e-10,0.28907204,3
386997371,0.7248126,0.0029209193,-0.00088155054,0.6889394,0.95730734,3.3650235e-10,-1.0585269e-10,0.28907204,3
387022354,0.7248799,0.0029240276,-0.0010441267,0.68886834,0.95730734,3.3650235e-10,-1.0585269e-10,0.28907204,3
387037340,0.7250761,0.0025977013,-0.0011250036,0.68866307,0.95730734,3.3650235e-10,-1.0585269e-10,0.28907204,3
387057325,0.7250589,0.002404168,-0.0010851017,0.6886818,0.95730734,3.3650235e-10,-1.0585269e-10,0.28907204,3
387082306,0.72514427,0.0022513275,-0.0009173656,0.6885928,0.95730734,3.3650235e-10,-1.0585269e-10,0.28907204,3
387102291,0.7252183,0.0023058292,-0.0007742114,0.6885148,0.95730734,3.3650235e-10,-1.0585269e-10,0.28907204,3
387117280,0.72509754,0.002237737,-0.0005247624,0.6886423,0.95730734,3.3650235e-10,-1.0585269e-10,0.28907204,3
387137265,0.725044,0.00265425,-0.00040019673,0.6886974,0.95730734,3.3650235e-10,-1.0585269e-10,0.28907204,3
387162246,0.7247941,0.0015457594,-0.0013070795,0.6889626,0.95730734,3.3650235e-10,-1.0585269e-10,0.28907204,3
387177235,0.72473544,0.0010268097,-0.001977027,0.6890236,0.95730734,3.3650235e-10,-1.0585269e-10,0.28907204,3
387202216,0.72467095,0.00025894883,-0.0032346426,0.6890875,0.95730734,3.3650235e-10,-1.0585269e-10,0.28907204,3
387222201,0.72392577,-0.0018374409,-0.0055853077,0.6898529,0.95730734,3.3650235e-10,-1.0585269e-10,0.28907204,3
387242186,0.72319347,-0.0006764297,-0.006838248,0.69061136,0.95730734,3.3650235e-10,-1.0585269e-10,0.28907204,3
387257174,0.7228903,0.00018374383,-0.007183644,0.6909255,0.95730734,3.3650235e-10,-1.0585269e-10,0.28907204,3
387277159,0.72236973,0.0013816083,-0.0064154975,0.691476,0.95730734,3.3650235e-10,-1.0585269e-10,0.28907204,3
387302142,0.72167784,0.0026233704,-0.0065133153,0.6921935,0.95730734,3.3650235e-10,-1.0585269e-10,0.28907204,3
387317129,0.72127813,0.0015965506,-0.007781723,0.6926,0.95730734,3.3650235e-10,-1.0585269e-10,0.28907204,3
387337114,0.72082895,0.0003780815,-0.008992766,0.69305456,0.95730734,3.3650235e-10,-1.0585269e-10,0.28907204,3
387362095,0.72015977,0.0016590924,-0.009148965,0.6937461,0.95730734,3.3650235e-10,-1.0585269e-10,0.28907204,3
387382082,0.71957564,0.003324577,-0.009684226,0.6943387,0.95730734,3.3650235e-10,-1.0585269e-10,0.28907204,3
387397069,0.71924096,0.0044855797,-0.010484093,0.69466716,0.95730734,3.3650235e-10,-1.0585269e-10,0.28907204,3
387417054,0.71894455,0.0031889516,-0.012766547,0.69494295,0.95730734,3.3650235e-10,-1.0585269e-10,0.28907204,3
387442035,0.7180403,0.00035692842,-0.015555781,0.6958276,0.95730734,3.3650235e-10,-1.0585269e-10,0.28907204,3
387457027,0.7176443,0.0008511143,-0.015180714,0.69624394,0.95730734,3.3650235e-10,-1.0585269e-10,0.28907204,3
387477009,0.7171573,0.0022008172,-0.013399508,0.69677913,0.95730734,3.3650235e-10,-1.0585269e-10,0.28907204,3
387501992,0.7166571,0.0027443222,-0.012643876,0.6973058,0.95730734,3.3650235e-10,-1.0585269e-10,0.28907204,3
387521975,0.7157004,0.0017119546,-0.015787413,0.69822687,0.95730734,3.3650235e-10,-1.0585269e-10,0.28907204,3
387536963,0.71485907,0.0013554558,-0.01847178,0.69902325,0.95730734,3.3650235e-10,-1.0585269e-10,0.28907204,3
387561946,0.7140847,0.003175437,-0.020463789,0.69975305,0.95730734,3.3650235e-10,-1.0585269e-10,0.28907204,3
387581930,0.71325046,0.0062423777,-0.020074861,0.7005939,0.95730734,3.3650235e-10,-1.0585269e-10,0.28907204,3
387596918,0.71286833,0.008335528,-0.019455917,0.70097846,0.95730734,3.3650235e-10,-1.0585269e-10,0.28907204,3
387616904,0.7123811,0.0098267095,-0.019070089,0.7014649,0.95730734,3.3650235e-10,-1.0585269e-10,0.28907204,3
387641885,0.7116288,0.009450888,-0.020719089,0.7021865,0.95730734,3.3650235e-10,-1.0585269e-10,0.28907204,3
387656875,0.710973,0.008876259,-0.022296967,0.70280975,0.95730734,3.3650235e-10,-1.0585269e-10,0.28907204,3
387676859,0.7099805,0.007782957,-0.024443462,0.70375407,0.95730734,3.3650235e-10,-1.0585269e-10,0.28907204,3
387701841,0.70895463,0.0074385833,-0.025054216,0.7047698,0.95730734,3.3650235e-10,-1.0585269e-10,0.28907204,3
387721827,0.7079912,0.0067640985,-0.025123226,0.70574194,0.95730734,3.3650235e-10,-1.0585269e-10,0.28907204,3
387741810,0.7074139,0.0066185137,-0.025070705,0.7063238,0.95730734,3.3650235e-10,-1.0585269e-10,0.28907204,3
387756801,0.7069018,0.00713167,-0.025256863,0.7068247,0.95730734,3.3650235e-10,-1.0585269e-10,0.28907204,3
387781780,0.70635307,0.008734935,-0.025067749,0.70736176,0.95730734,3.3650235e-10,-1.0585269e-10,0.28907204,3
387801764,0.70629096,0.010693952,-0.02427835,0.70742446,0.95730734,3.3650235e-10,-1.0585269e-10,0.28907204,3
387816753,0.7060006,0.01215762,-0.0245656,0.70768064,0.95730734,3.3650235e-10,-1.0585269e-10,0.28907204,3
387841734,0.7055703,0.014775643,-0.024166306,0.70807374,0.95730734,3.3650235e-10,-1.0585269e-10,0.28907204,3
387861719,0.70553267,0.016265975,-0.022336733,0.7081385,0.95730734,3.3650235e-10,-1.0585269e-10,0.28907204,3
387881704,0.7055885,0.017876552,-0.019315729,0.7081329,0.95730734,3.3650235e-10,-1.0585269e-10,0.28907204,3
387901689,0.70566624,0.02112005,-0.016728701,0.708032,0.95730734,3.3650235e-10,-1.0585269e-10,0.28907204,3
387921674,0.70567256,0.023574755,-0.015766796,0.7079703,0.95730734,3.3650235e-10,-1.0585269e-10,0.28907204,3
387941662,0.7055887,0.02658843,-0.014414423,0.7079759,0.95730734,3.3650235e-10,-1.0585269e-10,0.28907204,3
387956649,0.70576817,0.027580936,-0.013225321,0.7077823,0.95730734,3.3650235e-10,-1.0585269e-10,0.28907204,3
387981629,0.7060708,0.029166432,-0.011141049,0.7074527,0.95730734,3.3650235e-10,-1.0585269e-10,0.28907204,3
388001614,0.7064023,0.030526094,-0.009323769,0.70709056,0.95730734,3.3650235e-10,-1.0585269e-10,0.28907204,3
388016603,0.70665884,0.032132242,-0.007895115,0.70678043,0.95730734,3.3650235e-10,-1.0585269e-10,0.28907204,3
388041585,0.7070769,0.034314383,-0.005090863,0.70628536,0.95730734,3.3650235e-10,-1.0585269e-10,0.28907204,3
388061569,0.707437,0.03479028,-0.0045861816,0.7059047,0.95730734,3.3650235e-10,-1.0585269e-10,0.28907204,3
388081554,0.70794857,0.03410644,-0.0063099265,0.7054118,0.95730734,3.3650235e-10,-1.0585269e-10,0.28907204,3
388096543,0.70812154,0.034279946,-0.0070699244,0.7052225,0.95730734,3.3650235e-10,-1.0585269e-10,0.28907204,3
388121524,0.7081981,0.034910686,-0.005933928,0.7051253,0.95730734,3.3650235e-10,-1.0585269e-10,0.28907204,3
388141510,0.7082492,0.036071714,-0.0033066573,0.70503265,0.95730734,3.3650235e-10,-1.0585269e-10,0.28907204,3
388156497,0.7082779,0.03565688,-0.0024356015,0.70502853,0.95730734,3.3650235e-10,-1.0585269e-10,0.28907204,3
388181479,0.7084532,0.03475994,-0.0015589108,0.70489967,0.95730734,3.3650235e-10,-1.0585269e-10,0.28907204,3
388201463,0.70841825,0.033427585,-0.0009508677,0.70500016,0.95730734,3.3650235e-10,-1.0585269e-10,0.28907204,3
388216456,0.7083918,0.033809844,0.0009164148,0.7050086,0.95730734,3.3650235e-10,-1.0585269e-10,0.28907204,3
388236437,0.70813483,0.03526614,0.0045078523,0.70518166,0.95730734,3.3650235e-10,-1.0585269e-10,0.28907204,3
388261419,0.7080311,0.035994384,0.007785411,0.7052204,0.95730734,3.3650235e-10,-1.0585269e-10,0.28907204,3
388281404,0.707594,0.037153974,0.008757138,0.7055875,0.95730734,3.3650235e-10,-1.0585269e-10,0.28907204,3
388296392,0.7072487,0.03723672,0.009190801,0.70592374,0.95730734,3.3650235e-10,-1.0585269e-10,0.28907204,3
388321373,0.7065894,0.0393617,0.011338561,0.7064373,0.95730734,3.3650235e-10,-1.0585269e-10,0.28907204,3
388341358,0.70604706,0.041680645,0.013326933,0.7068116,0.95730734,3.3650235e-10,-1.0585269e-10,0.28907204,3
388361343,0.70532364,0.04312257,0.01577242,0.70739686,0.95730734,3.3650235e-10,-1.0585269e-10,0.28907204,3
388376332,0.7047363,0.04367038,0.017390452,0.70791054,0.95730734,3.3650235e-10,-1.0585269e-10,0.28907204,3
388401313,0.70385236,0.042967472,0.019532999,0.70877653,0.95730734,3.3650235e-10,-1.0585269e-10,0.28907204,3
388421298,0.7032527,0.043422997,0.021287268,0.7092933,0.95730734,3.3650235e-10,-1.0585269e-10,0.28907204,3
388441283,0.70294917,0.043667167,0.022531312,0.7095407,0.95730734,3.3650235e-10,-1.0585269e-10,0.28907204,3
388461268,0.70266193,0.043457203,0.024035584,0.7097887,0.95730734,3.3650235e-10,-1.0585269e-10,0.28907204,3
388481253,0.70231557,0.042464245,0.02619002,0.7101153,0.95730734,3.3650235e-10,-1.0585269e-10,0.28907204,3
388496241,0.70223194,0.041233,0.027531462,0.71021986,0.95730734,3.3650235e-10,-1.0585269e-10,0.28907204,3
388521223,0.70222324,0.04178161,0.028678412,0.710151,0.95730734,3.3650235e-10,-1.0585269e-10,0.28907204,3
388541209,0.7023908,0.043699495,0.029032722,0.7098554,0.95730734,3.3650235e-10,-1.0585269e-10,0.28907204,3
388561193,0.7024483,0.045659877,0.030091777,0.709631,0.95730734,3.3650235e-10,-1.0585269e-10,0.28907204,3
388581178,0.70247424,0.045380335,0.032179076,0.70953166,0.95730734,3.3650235e-10,-1.0585269e-10,0.28907204,3
388601162,0.7021281,0.043163385,0.0317886,0.71003,0.95730734,3.3650235e-10,-1.0585269e-10,0.28907204,3
388621148,0.7017581,0.03953544,0.02793383,0.7107689,0.95730734,3.3650235e-10,-1.0585269e-10,0.28907204,3
388641133,0.7013027,0.038060024,0.023827786,0.711448,0.95730734,3.3650235e-10,-1.0585269e-10,0.28907204,3
388656122,0.70107347,0.036989704,0.021777663,0.711796,0.95730734,3.3650235e-10,-1.0585269e-10,0.28907204,3
388681102,0.7002545,0.03613761,0.021466345,0.7126548,0.95730734,3.3650235e-10,-1.0585269e-10,0.28907204,3
388701092,0.69951266,0.03397937,0.020325197,0.7135225,0.95730734,3.3650235e-10,-1.0585269e-10,0.28907204,3
388721072,0.699433,0.032587174,0.017048413,0.7137513,0.95730734,3.3650235e-10,-1.0585269e-10,0.28907204,3
388741057,0.69974583,0.031318698,0.0123932315,0.7135975,0.95730734,3.3650235e-10,-1.0585269e-10,0.28907204,3
388761042,0.69992596,0.030506795,0.009917157,0.7134948,0.95730734,3.3650235e-10,-1.0585269e-10,0.28907204,3
388781027,0.7001954,0.029605482,0.01125492,0.71324843,0.95730734,3.3650235e-10,-1.0585269e-10,0.28907204,3
388796016,0.70051086,0.02828691,0.0127963275,0.71296614,0.95730734,3.3650235e-10,-1.0585269e-10,0.28907204,3
388820998,0.70152086,0.026822258,0.011958136,0.71204364,0.95730734,3.3650235e-10,-1.0585269e-10,0.28907204,3
388840983,0.7023465,0.027047751,0.00946481,0.7112583,0.95730734,3.3650235e-10,-1.0585269e-10,0.28907204,3
388860967,0.7029512,0.029511495,0.008217538,0.71057814,0.95730734,3.3650235e-10,-1.0585269e-10,0.28907204,3
388880952,0.70344293,0.031828657,0.008383971,0.7099893,0.95730734,3.3650235e-10,-1.0585269e-10,0.28907204,3
388900937,0.7039002,0.031987146,0.008821695,0.70952344,0.95730734,3.3650235e-10,-1.0585269e-10,0.28907204,3
388920922,0.7044277,0.029733317,0.008731198,0.709099,0.95730734,3.3650235e-10,-1.0585269e-10,0.28907204,3
388940908,0.7050192,0.027389733,0.008052246,0.70861346,0.95730734,3.3650235e-10,-1.0585269e-10,0.28907204,3
388960892,0.7054628,0.026632687,0.007756586,0.708204,0.95730734,3.3650235e-10,-1.0585269e-10,0.28907204,3
388980877,0.7058052,0.026896482,0.008878189,0.7078396,0.95730734,3.3650235e-10,-1.0585269e-10,0.28907204,3
389000863,0.70617986,0.02605871,0.010368346,0.7074769,0.95730734,3.3650235e-10,-1.0585269e-10,0.28907204,3
389020847,0.70672524,0.02408332,0.010897686,0.70699424,0.95730734,3.3650235e-10,-1.0585269e-10,0.28907204,3
389040833,0.7073331,0.022142643,0.010085736,0.70646155,0.95730734,3.3650235e-10,-1.0585269e-10,0.28907204,3
389060816,0.7078403,0.021146653,0.00837818,0.7060062,0.95730734,3.3650235e-10,-1.0585269e-10,0.28907204,3
389080804,0.70819217,0.02081586,0.0073156715,0.70567495,0.95730734,3.3650235e-10,-1.0585269e-10,0.28907204,3
389100788,0.70865756,0.01986891,0.007179373,0.7052363,0.95730734,3.3650235e-10,-1.0585269e-10,0.28907204,3
389120773,0.70920056,0.017024474,0.0072767804,0.70476365,0.95730734,3.3650235e-10,-1.0585269e-10,0.28907204,3
389140758,0.7097386,0.013305966,0.006342094,0.70431095,0.95730734,3.3650235e-10,-1.0585269e-10,0.28907204,3
389160743,0.71033984,0.01093236,0.004954258,0.70375663,0.95730734,3.3650235e-10,-1.0585269e-10,0.28907204,3
389180727,0.7107596,0.009595202,0.0041581998,0.70335734,0.95730734,3.3650235e-10,-1.0585269e-10,0.28907204,3
389200712,0.71103805,0.008430137,0.0039950064,0.7030916,0.95730734,3.3650235e-10,-1.0585269e-10,0.28907204,3
389220697,0.7113491,0.0069782897,0.0042040213,0.70279163,0.95730734,3.3650235e-10,-1.0585269e-10,0.28907204,3
389240683,0.7116792,0.003917764,0.003228359,0.7024862,0.95730734,3.3650235e-10,-1.0585269e-10,0.28907204,3
389260668,0.71209586,0.001653547,0.0023328986,0.70207644,0.95730734,3.3650235e-10,-1.0585269e-10,0.28907204,3
389280652,0.7124665,0.0013152455,0.0020571428,0.70170194,0.95730734,3.3650235e-10,-1.0585269e-10,0.28907204,3
389300636,0.71262854,0.00053806,0.0008490043,0.70154095,0.95730734,3.3650235e-10,-1.0585269e-10,0.28907204,3
389320621,0.7128371,-0.0008037093,3.344367e-05,0.70132923,0.95730734,3.3650235e-10,-1.0585269e-10,0.28907204,3
389340607,0.71309805,-0.0030286915,-0.0011682616,0.70105684,0.95730734,3.3650235e-10,-1.0585269e-10,0.28907204,3
389360591,0.7132898,-0.0046513593,-0.0029992587,0.7008474,0.95730734,3.3650235e-10,-1.0585269e-10,0.28907204,3
389380578,0.7134757,-0.005107793,-0.00447476,0.7006471,0.95730734,3.3650235e-10,-1.0585269e-10,0.28907204,3
389400562,0.7134923,-0.0061881575,-0.00635647,0.70060694,0.95730734,3.3650235e-10,-1.0585269e-10,0.28907204,3
389420548,0.71351427,-0.0072533865,-0.007945255,0.7005581,0.95730734,3.3650235e-10,-1.0585269e-10,0.28907204,3
389440531,0.71352136,-0.009593384,-0.01029714,0.70049214,0.95730734,3.3650235e-10,-1.0585269e-10,0.28907204,3
389460517,0.71350837,-0.011597068,-0.012633282,0.7004369,0.95730734,3.3650235e-10,-1.0585269e-10,0.28907204,3
389480501,0.7134493,-0.012536606,-0.014355481,0.7004476,0.95730734,3.3650235e-10,-1.0585269e-10,0.28907204,3
389500487,0.7132016,-0.014399597,-0.016071215,0.70062685,0.95730734,3.3650235e-10,-1.0585269e-10,0.28907204,3
389520474,0.7130891,-0.014760898,-0.016824456,0.70071614,0.95730734,3.3650235e-10,-1.0585269e-10,0.28907204,3
389540456,0.7129954,-0.015179664,-0.018016856,0.7007728,0.95730734,3.3650235e-10,-1.0585269e-10,0.28907204,3
389560442,0.7129654,-0.01628525,-0.019386074,0.70074195,0.95730734,3.3650235e-10,-1.0585269e-10,0.28907204,3
389580426,0.7128782,-0.016365808,-0.020001207,0.70081156,0.95730734,3.3650235e-10,-1.0585269e-10,0.28907204,3
389600410,0.7127311,-0.01706127,-0.020764258,0.70092237,0.95730734,3.3650235e-10,-1.0585269e-10,0.28907204,3
389620395,0.71274364,-0.017159473,-0.020884417,0.70090365,0.95730734,3.3650235e-10,-1.0585269e-10,0.28907204,3
389640380,0.7127893,-0.016243914,-0.020988304,0.70087594,0.95730734,3.3650235e-10,-1.0585269e-10,0.28907204,3
389660367,0.7128863,-0.016787596,-0.021923704,0.7007359,0.95730734,3.3650235e-10,-1.0585269e-10,0.28907204,3
389680350,0.7129252,-0.018134506,-0.022666221,0.7006391,0.95730734,3.3650235e-10,-1.0585269e-10,0.28907204,3
389700335,0.71291065,-0.017843261,-0.022195747,0.7006764,0.95730734,3.3650235e-10,-1.0585269e-10,0.28907204,3
389720320,0.71299464,-0.016978176,-0.02209859,0.7006156,0.95730734,3.3650235e-10,-1.0585269e-10,0.28907204,3
389740307,0.71307987,-0.01668391,-0.023055201,0.700505,0.95730734,3.3650235e-10,-1.0585269e-10,0.28907204,3
389760291,0.7131327,-0.016534107,-0.023233378,0.7004489,0.95730734,3.3650235e-10,-1.0585269e-10,0.28907204,3
389780277,0.7132521,-0.01714176,-0.022459608,0.7003379,0.95730734,3.3650235e-10,-1.0585269e-10,0.28907204,3
389800261,0.7134088,-0.018062145,-0.021885036,0.7001733,0.95730734,3.3650235e-10,-1.0585269e-10,0.28907204,3
389820245,0.71356297,-0.017100427,-0.020622578,0.7000787,0.95730734,3.3650235e-10,-1.0585269e-10,0.28907204,3
389840230,0.71370745,-0.015696757,-0.01902811,0.70000947,0.95730734,3.3650235e-10,-1.0585269e-10,0.28907204,3
389860218,0.713807,-0.01415236,-0.016826553,0.6999973,0.95730734,3.3650235e-10,-1.0585269e-10,0.28907204,3
389880202,0.71404433,-0.0135031175,-0.01511773,0.69980705,0.95730734,3.3650235e-10,-1.0585269e-10,0.28907204,3
389900185,0.7144429,-0.015042077,-0.014387459,0.6993841,0.95730734,3.3650235e-10,-1.0585269e-10,0.28907204,3
389920171,0.71454746,-0.015104102,-0.013685922,0.69929016,0.95730734,3.3650235e-10,-1.0585269e-10,0.28907204,3
389940157,0.71483094,-0.013017977,-0.012857334,0.699058,0.95730734,3.3650235e-10,-1.0585269e-10,0.28907204,3
389960140,0.71509176,-0.010644994,-0.012501636,0.69883776,0.95730734,3.3650235e-10,-1.0585269e-10,0.28907204,3
389980126,0.7150635,-0.008285213,-0.011641706,0.6989135,0.95730734,3.3650235e-10,-1.0585269e-10,0.28907204,3
390000110,0.71530896,-0.007588316,-0.010915756,0.69868195,0.95730734,3.3650235e-10,-1.0585269e-10,0.28907204,3
390020094,0.7154213,-0.0071225488,-0.010790826,0.6985737,0.95730734,3.3650235e-10,-1.0585269e-10,0.28907204,3
390040079,0.7155578,-0.0052272743,-0.009853256,0.6984645,0.95730734,3.3650235e-10,-1.0585269e-10,0.28907204,3
390060064,0.71572596,-0.003758328,-0.008688571,0.6983171,0.95730734,3.3650235e-10,-1.0585269e-10,0.28907204,3
390080049,0.7157777,-0.0023703119,-0.008750878,0.6982694,0.95730734,3.3650235e-10,-1.0585269e-10,0.28907204,3
390100035,0.7159182,0.00024083832,-0.009019449,0.6981259,0.95730734,3.3650235e-10,-1.0585269e-10,0.28907204,3
390120019,0.716017,0.001485149,-0.008498311,0.6980296,0.95730734,3.3650235e-10,-1.0585269e-10,0.28907204,3
390140005,0.7161577,0.0022931055,-0.0082631465,0.69788593,0.95730734,3.3650235e-10,-1.0585269e-10,0.28907204,3
390159990,0.7162728,0.0037995419,-0.008317625,0.6977605,0.95730734,3.3650235e-10,-1.0585269e-10,0.28907204,3
390179974,0.71623087,0.0045298184,-0.008204481,0.6978005,0.95730734,3.3650235e-10,-1.0585269e-10,0.28907204,3
390199962,0.716192,0.005095241,-0.008963341,0.69782716,0.95730734,3.3650235e-10,-1.0585269e-10,0.28907204,3
390219944,0.7162128,0.0051573007,-0.009784501,0.6977944,0.95730734,3.3650235e-10,-1.0585269e-10,0.28907204,3
390239929,0.71628994,0.0051098615,-0.0093556335,0.6977215,0.95730734,3.3650235e-10,-1.0585269e-10,0.28907204,3
390259914,0.7163032,0.005640615,-0.008575208,0.69771373,0.95730734,3.3650235e-10,-1.0585269e-10,0.28907204,3
390279901,0.7163551,0.0059258635,-0.008440908,0.6976598,0.95730734,3.3650235e-10,-1.0585269e-10,0.28907204,3
390299884,0.7164388,0.005392867,-0.008596168,0.6975763,0.95730734,3.3650235e-10,-1.0585269e-10,0.28907204,3
390319869,0.7166765,0.0036633166,-0.008664888,0.6973424,0.95730734,3.3650235e-10,-1.0585269e-10,0.28907204,3
390339855,0.7166831,0.0017648803,-0.008667209,0.69734293,0.95730734,3.3650235e-10,-1.0585269e-10,0.28907204,3
390359841,0.7166872,0.002122836,-0.0077002817,0.6973491,0.95730734,3.3650235e-10,-1.0585269e-10,0.28907204,3
390379824,0.71679807,0.0024052167,-0.0078228945,0.6972328,0.95730734,3.3650235e-10,-1.0585269e-10,0.28907204,3
390399809,0.71693486,0.003687996,-0.008026707,0.69708425,0.95730734,3.3650235e-10,-1.0585269e-10,0.28907204,3
390419794,0.7169271,0.0039363345,-0.008660599,0.6970833,0.95730734,3.3650235e-10,-1.0585269e-10,0.28907204,3
390439781,0.7169362,0.004325013,-0.008197508,0.6970773,0.95730734,3.3650235e-10,-1.0585269e-10,0.28907204,3
390459764,0.71705025,0.004551522,-0.0071555516,0.6969699,0.95730734,3.3650235e-10,-1.0585269e-10,0.28907204,3
390479749,0.7172038,0.0036209177,-0.0064086635,0.69682467,0.95730734,3.3650235e-10,-1.0585269e-10,0.28907204,3
390499734,0.71720296,0.0038920233,-0.005242413,0.69683385,0.95730734,3.3650235e-10,-1.0585269e-10,0.28907204,3
390519719,0.7171119,0.0042427527,-0.004555348,0.69693035,0.95730734,3.3650235e-10,-1.0585269e-10,0.28907204,3
390539703,0.71729004,0.005428042,-0.0029715358,0.6967473,0.95730734,3.3650235e-10,-1.0585269e-10,0.28907204,3
390559689,0.7172473,0.004559089,-0.0017918368,0.6968015,0.95730734,3.3650235e-10,-1.0585269e-10,0.28907204,3
390579674,0.7171944,0.0037799077,-0.0006874233,0.69686264,0.95730734,3.3650235e-10,-1.0585269e-10,0.28907204,3
390599659,0.71709657,0.0034416579,-0.00057238474,0.69696516,0.95730734,3.3650235e-10,-1.0585269e-10,0.28907204,3
390619644,0.7171344,0.0046995804,0.0004356309,0.69691896,0.95730734,3.3650235e-10,-1.0585269e-10,0.28907204,3
390639628,0.7170661,0.0050296187,0.0013414997,0.69698584,0.95730734,3.3650235e-10,-1.0585269e-10,0.28907204,3
390659616,0.71704304,0.0053401547,0.0026042005,0.6970036,0.95730734,3.3650235e-10,-1.0585269e-10,0.28907204,3
390679600,0.7170702,0.005486267,0.0038669305,0.6969687,0.95730734,3.3650235e-10,-1.0585269e-10,0.28907204,3
390699586,0.7171351,0.0052055637,0.0053475876,0.6968942,0.95730734,3.3650235e-10,-1.0585269e-10,0.28907204,3
390719569,0.71706,0.0058770003,0.00739915,0.6969474,0.95730734,3.3650235e-10,-1.0585269e-10,0.28907204,3
390739553,0.7169389,0.006795886,0.008272338,0.69705385,0.95730734,3.3650235e-10,-1.0585269e-10,0.28907204,3
390759541,0.7168464,0.008672673,0.008724213,0.6971227,0.95730734,3.3650235e-10,-1.0585269e-10,0.28907204,3
390779523,0.71656644,0.008624281,0.0092111975,0.6974048,0.95730734,3.3650235e-10,-1.0585269e-10,0.28907204,3
390799508,0.7163791,0.009134965,0.010118284,0.6975781,0.95730734,3.3650235e-10,-1.0585269e-10,0.28907204,3
390819493,0.7161888,0.010529116,0.01117145,0.69773775,0.95730734,3.3650235e-10,-1.0585269e-10,0.28907204,3
390839478,0.715966,0.011279717,0.012061634,0.6979399,0.95730734,3.3650235e-10,-1.0585269e-10,0.28907204,3
390859463,0.71567357,0.012673921,0.012505439,0.69820803,0.95730734,3.3650235e-10,-1.0585269e-10,0.28907204,3
390879448,0.7151816,0.01372787,0.012592249,0.6986905,0.95730734,3.3650235e-10,-1.0585269e-10,0.28907204,3
390899435,0.7149532,0.012956484,0.013220785,0.69892734,0.95730734,3.3650235e-10,-1.0585269e-10,0.28907204,3
390919418,0.71465623,0.013260822,0.01467065,0.6991963,0.95730734,3.3650235e-10,-1.0585269e-10,0.28907204,3
390939403,0.71403444,0.013730725,0.016165836,0.6997893,0.95730734,3.3650235e-10,-1.0585269e-10,0.28907204,3
390959389,0.7135032,0.015001582,0.018336177,0.7002514,0.95730734,3.3650235e-10,-1.0585269e-10,0.28907204,3
390979373,0.71303666,0.015036321,0.020030903,0.70067924,0.95730734,3.3650235e-10,-1.0585269e-10,0.28907204,3
390999359,0.7125982,0.014653397,0.020177739,0.70112914,0.95730734,3.3650235e-10,-1.0585269e-10,0.28907204,3
391019343,0.7120937,0.014704654,0.01958292,0.7016573,0.95730734,3.3650235e-10,-1.0585269e-10,0.28907204,3
391039328,0.71147025,0.015306707,0.019447614,0.70228034,0.95730734,3.3650235e-10,-1.0585269e-10,0.28907204,3
391059314,0.7107688,0.015953813,0.01948907,0.70297474,0.95730734,3.3650235e-10,-1.0585269e-10,0.28907204,3
391079298,0.7101328,0.015798965,0.018852724,0.70363796,0.95730734,3.3650235e-10,-1.0585269e-10,0.28907204,3
391099283,0.7095547,0.015282946,0.017346978,0.704271,0.95730734,3.3650235e-10,-1.0585269e-10,0.28907204,3
391119268,0.7087679,0.015373518,0.015377225,0.70510656,0.95730734,3.3650235e-10,-1.0585269e-10,0.28907204,3
391139253,0.70802474,0.01579563,0.013643309,0.70587915,0.95730734,3.3650235e-10,-1.0585269e-10,0.28907204,3
391159237,0.70766646,0.015570123,0.012147729,0.7062707,0.95730734,3.3650235e-10,-1.0585269e-10,0.28907204,3
391179223,0.7075075,0.014580647,0.011862123,0.7064559,0.95730734,3.3650235e-10,-1.0585269e-10,0.28907204,3
391199209,0.70739126,0.013044811,0.012457453,0.70659196,0.95730734,3.3650235e-10,-1.0585269e-10,0.28907204,3
391219193,0.70729905,0.011779737,0.013156995,0.7066939,0.95730734,3.3650235e-10,-1.0585269e-10,0.28907204,3
391239178,0.7074816,0.011196775,0.013286351,0.70651823,0.95730734,3.3650235e-10,-1.0585269e-10,0.28907204,3
391259164,0.70742786,0.010793768,0.01210227,0.7065996,0.95730734,3.3650235e-10,-1.0585269e-10,0.28907204,3
391279147,0.7070422,0.010302685,0.010495678,0.7070185,0.95730734,3.3650235e-10,-1.0585269e-10,0.28907204,3
391304129,0.70693016,0.010674642,0.009534289,0.70713866,0.95730734,3.3650235e-10,-1.0585269e-10,0.28907204,3
391319117,0.70678353,0.010785682,0.009264279,0.707287,0.95730734,3.3650235e-10,-1.0585269e-10,0.28907204,3
391339103,0.7064675,0.010565209,0.009155289,0.7076074,0.95730734,3.3650235e-10,-1.0585269e-10,0.28907204,3
391359087,0.70625067,0.010030214,0.008855907,0.70783544,0.95730734,3.3650235e-10,-1.0585269e-10,0.28907204,3
391379073,0.7062038,0.009521263,0.0080991825,0.7078983,0.95730734,3.3650235e-10,-1.0585269e-10,0.28907204,3
391399062,0.7064278,0.00893019,0.007648274,0.70768756,0.95730734,3.3650235e-10,-1.0585269e-10,0.28907204,3
391419042,0.7064604,0.008192899,0.008303181,0.7076565,0.95730734,3.3650235e-10,-1.0585269e-10,0.28907204,3
391439029,0.70645326,0.007689409,0.010016646,0.70764714,0.95730734,3.3650235e-10,-1.0585269e-10,0.28907204,3
391459012,0.706548,0.0072540715,0.011608556,0.70753276,0.95730734,3.3650235e-10,-1.0585269e-10,0.28907204,3
391478997,0.7065956,0.0055019218,0.011100404,0.70750916,0.95730734,3.3650235e-10,-1.0585269e-10,0.28907204,3
391498982,0.706567,0.0027161734,0.00949135,0.7075773,0.95730734,3.3650235e-10,-1.0585269e-10,0.28907204,3
391518967,0.7064037,0.0012039462,0.008981834,0.7077512,0.95730734,3.3650235e-10,-1.0585269e-10,0.28907204,3
391538952,0.70603865,0.0019796905,0.009355344,0.7081087,0.95730734,3.3650235e-10,-1.0585269e-10,0.28907204,3
391558938,0.7055922,0.002916121,0.00891391,0.7085561,0.95730734,3.3650235e-10,-1.0585269e-10,0.28907204,3
391578923,0.7052033,0.004176034,0.008689602,0.7089396,0.95730734,3.3650235e-10,-1.0585269e-10,0.28907204,3
391598908,0.7048696,0.0052010645,0.009173608,0.70925856,0.95730734,3.3650235e-10,-1.0585269e-10,0.28907204,3
391618894,0.70446354,0.006195292,0.010533926,0.7096351,0.95730734,3.3650235e-10,-1.0585269e-10,0.28907204,3
391638878,0.7040132,0.007105855,0.0118325725,0.7100527,0.95730734,3.3650235e-10,-1.0585269e-10,0.28907204,3
391658861,0.7036103,0.007579401,0.011704519,0.7104493,0.95730734,3.3650235e-10,-1.0585269e-10,0.28907204,3
391678846,0.7033351,0.008128508,0.010403413,0.7107359,0.95730734,3.3650235e-10,-1.0585269e-10,0.28907204,3
391698832,0.70296115,0.009074322,0.00888792,0.7111149,0.95730734,3.3650235e-10,-1.0585269e-10,0.28907204,3
391718818,0.70240086,0.010114617,0.008510491,0.71165884,0.95730734,3.3650235e-10,-1.0585269e-10,0.28907204,3
391738802,0.7018583,0.011024673,0.009607637,0.7121665,0.95730734,3.3650235e-10,-1.0585269e-10,0.28907204,3
391758791,0.70141786,0.011141307,0.010571615,0.7125849,0.95730734,3.3650235e-10,-1.0585269e-10,0.28907204,3
391783769,0.7012153,0.0104973605,0.009141498,0.71281374,0.95730734,3.3650235e-10,-1.0585269e-10,0.28907204,3
391798758,0.7011712,0.009614358,0.0068787653,0.712895,0.95730734,3.3650235e-10,-1.0585269e-10,0.28907204,3
391818741,0.70080364,0.009028878,0.0037653095,0.7132872,0.95730734,3.3650235e-10,-1.0585269e-10,0.28907204,3
391838727,0.700378,0.0077811857,0.0020753944,0.71372676,0.95730734,3.3650235e-10,-1.0585269e-10,0.28907204,3
391858713,0.69997084,0.006417185,0.0021169444,0.7141395,0.95730734,3.3650235e-10,-1.0585269e-10,0.28907204,3
391878696,0.6996795,0.00472973,0.0013703234,0.7144399,0.95730734,3.3650235e-10,-1.0585269e-10,0.28907204,3
391898683,0.6994679,0.004079865,-0.0008965062,0.7146519,0.95730734,3.3650235e-10,-1.0585269e-10,0.28907204,3
391918668,0.6989835,0.004858688,-0.0032897412,0.71511376,0.95730734,3.3650235e-10,-1.0585269e-10,0.28907204,3
391938652,0.6986037,0.0064481413,-0.0040397146,0.7154684,0.95730734,3.3650235e-10,-1.0585269e-10,0.28907204,3
391958638,0.6983877,0.007749385,-0.0041927486,0.7156655,0.95730734,3.3650235e-10,-1.0585269e-10,0.28907204,3
391978622,0.6982895,0.007878482,-0.0051414827,0.71575373,0.95730734,3.3650235e-10,-1.0585269e-10,0.28907204,3
391998608,0.698202,0.008755996,-0.006166759,0.7158208,0.95730734,3.3650235e-10,-1.0585269e-10,0.28907204,3
392018591,0.69811034,0.009731925,-0.0067385077,0.7158924,0.95730734,3.3650235e-10,-1.0585269e-10,0.28907204,3
392038576,0.69807017,0.011301303,-0.005534432,0.71591884,0.95730734,3.3650235e-10,-1.0585269e-10,0.28907204,3
392058562,0.6983544,0.01287957,-0.004113077,0.71562445,0.95730734,3.3650235e-10,-1.0585269e-10,0.28907204,3
392078546,0.69857234,0.013754361,-0.0034114595,0.7153991,0.95730734,3.3650235e-10,-1.0585269e-10,0.28907204,3
392098532,0.6986809,0.015021136,-0.0030783226,0.7152692,0.95730734,3.3650235e-10,-1.0585269e-10,0.28907204,3
392118516,0.69919616,0.016783588,-0.002414544,0.71472883,0.95730734,3.3650235e-10,-1.0585269e-10,0.28907204,3
392138501,0.69947904,0.0193565,-0.0020459103,0.714388,0.95730734,3.3650235e-10,-1.0585269e-10,0.28907204,3
392158487,0.6997258,0.021651803,-0.0024083736,0.71407926,0.95730734,3.3650235e-10,-1.0585269e-10,0.28907204,3
392178470,0.7002355,0.023020042,-0.003526429,0.71353203,0.95730734,3.3650235e-10,-1.0585269e-10,0.28907204,3
392203452,0.7006535,0.02284821,-0.004224538,0.7131233,0.95730734,3.3650235e-10,-1.0585269e-10,0.28907204,3
392218441,0.7007951,0.02269548,-0.0039118743,0.7129908,0.95730734,3.3650235e-10,-1.0585269e-10,0.28907204,3
392238425,0.7010868,0.022231346,-0.0043514646,0.7127161,0.95730734,3.3650235e-10,-1.0585269e-10,0.28907204,3
392258412,0.7013789,0.022322975,-0.0051610363,0.7124204,0.95730734,3.3650235e-10,-1.0585269e-10,0.28907204,3
392283392,0.70125836,0.024609292,-0.0054615852,0.71246153,0.95730734,3.3650235e-10,-1.0585269e-10,0.28907204,3
392298381,0.7012497,0.02480782,-0.0056952895,0.7124613,0.95730734,3.3650235e-10,-1.0585269e-10,0.28907204,3
392318366,0.70111585,0.025268758,-0.006251755,0.71257216,0.95730734,3.3650235e-10,-1.0585269e-10,0.28907204,3
392343348,0.7011158,0.024946563,-0.0073238285,0.71257335,0.95730734,3.3650235e-10,-1.0585269e-10,0.28907204,3
392358335,0.70098174,0.02528093,-0.007959749,0.71268666,0.95730734,3.3650235e-10,-1.0585269e-10,0.28907204,3
392378324,0.7009463,0.025212737,-0.00882408,0.7127137,0.95730734,3.3650235e-10,-1.0585269e-10,0.28907204,3
392398307,0.7012366,0.025692297,-0.009986278,0.71239555,0.95730734,3.3650235e-10,-1.0585269e-10,0.28907204,3
392423287,0.70147806,0.026715858,-0.012074395,0.7120878,0.95730734,3.3650235e-10,-1.0585269e-10,0.28907204,3
392438277,0.7015051,0.026981251,-0.013642805,0.71202284,0.95730734,3.3650235e-10,-1.0585269e-10,0.28907204,3
392458263,0.7018929,0.027697146,-0.01526115,0.71158016,0.95730734,3.3650235e-10,-1.0585269e-10,0.28907204,3
392483242,0.70221585,0.028495539,-0.017471036,0.71117914,0.95730734,3.3650235e-10,-1.0585269e-10,0.28907204,3
392498230,0.70226634,0.028907703,-0.018720388,0.71108085,0.95730734,3.3650235e-10,-1.0585269e-10,0.28907204,3
392518215,0.70240974,0.029766275,-0.0203579,0.71085876,0.95730734,3.3650235e-10,-1.0585269e-10,0.28907204,3
392538200,0.7028759,0.03013449,-0.021987064,0.71033376,0.95730734,3.3650235e-10,-1.0585269e-10,0.28907204,3
392563181,0.70346564,0.030297345,-0.022918394,0.70971334,0.95730734,3.3650235e-10,-1.0585269e-10,0.28907204,3
392578172,0.7038606,0.030774979,-0.023494497,0.7092822,0.95730734,3.3650235e-10,-1.0585269e-10,0.28907204,3
392598156,0.70476115,0.031331304,-0.024752386,0.70832014,0.95730734,3.3650235e-10,-1.0585269e-10,0.28907204,3
392623137,0.7056261,0.030366078,-0.026162028,0.7074499,0.95730734,3.3650235e-10,-1.0585269e-10,0.28907204,3
392638127,0.7060143,0.029400147,-0.026768224,0.7070806,0.95730734,3.3650235e-10,-1.0585269e-10,0.28907204,3
392658111,0.7067897,0.027315333,-0.027234998,0.70637137,0.95730734,3.3650235e-10,-1.0585269e-10,0.28907204,3
392678095,0.7076172,0.024685588,-0.027886491,0.70561385,0.95730734,3.3650235e-10,-1.0585269e-10,0.28907204,3
392703076,0.7081817,0.023081668,-0.029530326,0.7050348,0.95730734,3.3650235e-10,-1.0585269e-10,0.28907204,3
392718065,0.70854056,0.022552405,-0.03134455,0.70461285,0.95730734,3.3650235e-10,-1.0585269e-10,0.28907204,3
392738049,0.70908767,0.022201821,-0.032508276,0.7040206,0.95730734,3.3650235e-10,-1.0585269e-10,0.28907204,3
392763031,0.70965016,0.021137716,-0.03165158,0.7035254,0.95730734,3.3650235e-10,-1.0585269e-10,0.28907204,3
392778020,0.7100849,0.020011818,-0.032102324,0.70309913,0.95730734,3.3650235e-10,-1.0585269e-10,0.28907204,3
392798005,0.7104097,0.01787378,-0.034878258,0.7026963,0.95730734,3.3650235e-10,-1.0585269e-10,0.28907204,3
392817989,0.71085644,0.015316666,-0.037588622,0.702165,0.95730734,3.3650235e-10,-1.0585269e-10,0.28907204,3
392837975,0.71115476,0.012595999,-0.039481863,0.701813,0.95730734,3.3650235e-10,-1.0585269e-10,0.28907204,3
392857960,0.7113832,0.010838153,-0.039111648,0.7016315,0.95730734,3.3650235e-10,-1.0585269e-10,0.28907204,3
392877946,0.71179104,0.009609218,-0.037387002,0.7013298,0.95730734,3.3650235e-10,-1.0585269e-10,0.28907204,3
392902930,0.71179557,0.0076149516,-0.037101362,0.7013649,0.95730734,3.3650235e-10,-1.0585269e-10,0.28907204,3
392917917,0.7117626,0.0070184465,-0.037624206,0.7013767,0.95730734,3.3650235e-10,-1.0585269e-10,0.28907204,3
392937902,0.7118314,0.00661659,-0.03858157,0.7012588,0.95730734,3.3650235e-10,-1.0585269e-10,0.28907204,3
392957885,0.71198887,0.0057172594,-0.040566184,0.70099473,0.95730734,3.3650235e-10,-1.0585269e-10,0.28907204,3
392982866,0.7119872,0.0040537287,-0.04325977,0.7008469,0.95730734,3.3650235e-10,-1.0585269e-10,0.28907204,3
392997855,0.7120197,0.003058121,-0.043421324,0.700809,0.95730734,3.3650235e-10,-1.0585269e-10,0.28907204,3
393017839,0.7123901,0.0013166467,-0.042695813,0.70048255,0.95730734,3.3650235e-10,-1.0585269e-10,0.28907204,3
393042823,0.7127319,-0.00024619012,-0.042423375,0.7001525,0.95730734,3.3650235e-10,-1.0585269e-10,0.28907204,3
393057811,0.71287906,-0.00019031895,-0.042612966,0.69999117,0.95730734,3.3650235e-10,-1.0585269e-10,0.28907204,3
393077795,0.7130095,-0.00046744477,-0.043434247,0.6998077,0.95730734,3.3650235e-10,-1.0585269e-10,0.28907204,3
393097780,0.7129946,-0.0013411897,-0.043539647,0.69981515,0.95730734,3.3650235e-10,-1.0585269e-10,0.28907204,3
393117764,0.7130953,-0.0026558265,-0.04219558,0.69979113,0.95730734,3.3650235e-10,-1.0585269e-10,0.28907204,3
393137749,0.7131845,-0.003983963,-0.041889776,0.69971234,0.95730734,3.3650235e-10,-1.0585269e-10,0.28907204,3
393157734,0.713242,-0.003963525,-0.042012468,0.6996464,0.95730734,3.3650235e-10,-1.0585269e-10,0.28907204,3
393182717,0.7136651,-0.004460267,-0.040991418,0.6992724,0.95730734,3.3650235e-10,-1.0585269e-10,0.28907204,3
393197705,0.7139836,-0.0060013495,-0.04014117,0.69898516,0.95730734,3.3650235e-10,-1.0585269e-10,0.28907204,3
393217689,0.7140044,-0.0065794825,-0.038644467,0.699043,0.95730734,3.3650235e-10,-1.0585269e-10,0.28907204,3
393237674,0.7139995,-0.0063639777,-0.03853415,0.699056,0.95730734,3.3650235e-10,-1.0585269e-10,0.28907204,3
393257660,0.7141011,-0.0053408314,-0.038138334,0.69898254,0.95730734,3.3650235e-10,-1.0585269e-10,0.28907204,3
393277644,0.71438956,-0.005410026,-0.0376039,0.6987162,0.95730734,3.3650235e-10,-1.0585269e-10,0.28907204,3
393297629,0.71455395,-0.0055575334,-0.03656978,0.69860184,0.95730734,3.3650235e-10,-1.0585269e-10,0.28907204,3
393322610,0.7147852,-0.0060553597,-0.03329267,0.69852495,0.95730734,3.3650235e-10,-1.0585269e-10,0.28907204,3
393337599,0.71494675,-0.0073090247,-0.03177329,0.69841844,0.95730734,3.3650235e-10,-1.0585269e-10,0.28907204,3
393357585,0.715139,-0.0082290275,-0.029133104,0.69832647,0.95730734,3.3650235e-10,-1.0585269e-10,0.28907204,3
393377569,0.71525717,-0.0093992865,-0.026842466,0.6982825,0.95730734,3.3650235e-10,-1.0585269e-10,0.28907204,3
393397554,0.7149794,-0.008214598,-0.024799932,0.6986572,0.95730734,3.3650235e-10,-1.0585269e-10,0.28907204,3
393417540,0.7148148,-0.006337778,-0.02450306,0.6988557,0.95730734,3.3650235e-10,-1.0585269e-10,0.28907204,3
393437525,0.71457505,-0.00440672,-0.023800982,0.69913995,0.95730734,3.3650235e-10,-1.0585269e-10,0.28907204,3
393462507,0.7144296,-0.003912024,-0.02125886,0.69937336,0.95730734,3.3650235e-10,-1.0585269e-10,0.28907204,3
393477494,0.7140179,-0.004369025,-0.020595413,0.6998108,0.95730734,3.3650235e-10,-1.0585269e-10,0.28907204,3
393497479,0.7134638,-0.0035656288,-0.01954009,0.7004106,0.95730734,3.3650235e-10,-1.0585269e-10,0.28907204,3
393522461,0.7129697,-0.0017087348,-0.017319495,0.7009788,0.95730734,3.3650235e-10,-1.0585269e-10,0.28907204,3
393537449,0.71284056,-0.0013378636,-0.016364042,0.701134,0.95730734,3.3650235e-10,-1.0585269e-10,0.28907204,3
393557434,0.7124223,-0.00045052392,-0.014983187,0.701591,0.95730734,3.3650235e-10,-1.0585269e-10,0.28907204,3
393577419,0.7122794,0.00012341561,-0.012888054,0.70177776,0.95730734,3.3650235e-10,-1.0585269e-10,0.28907204,3
393602404,0.7120258,0.001532317,-0.010143971,0.70207846,0.95730734,3.3650235e-10,-1.0585269e-10,0.28907204,3
393622385,0.71160823,0.0036737274,-0.008099129,0.70252025,0.95730734,3.3650235e-10,-1.0585269e-10,0.28907204,3
393637374,0.71136487,0.002772202,-0.0062631727,0.7027896,0.95730734,3.3650235e-10,-1.0585269e-10,0.28907204,3
393662355,0.7110225,-0.0012891642,-0.0047914027,0.7031518,0.95730734,3.3650235e-10,-1.0585269e-10,0.28907204,3
393677344,0.7105581,-0.0032620814,-0.0052562784,0.7036113,0.95730734,3.3650235e-10,-1.0585269e-10,0.28907204,3
393697329,0.7100426,-0.0023579826,-0.004788732,0.7041386,0.95730734,3.3650235e-10,-1.0585269e-10,0.28907204,3
393717315,0.70972544,0.00056994765,-0.0028658255,0.7044724,0.95730734,3.3650235e-10,-1.0585269e-10,0.28907204,3
393742294,0.70880216,0.004387111,-2.7316019e-05,0.70539373,0.95730734,3.3650235e-10,-1.0585269e-10,0.28907204,3
393762281,0.70780855,0.006950333,0.0018462123,0.70636773,0.95730734,3.3650235e-10,-1.0585269e-10,0.28907204,3
393777268,0.70695555,0.0101597365,0.0036641923,0.70717555,0.95730734,3.3650235e-10,-1.0585269e-10,0.28907204,3
393802249,0.7060006,0.012464873,0.0066851256,0.70807004,0.95730734,3.3650235e-10,-1.0585269e-10,0.28907204,3
393822234,0.7049629,0.012875006,0.009871464,0.70905864,0.95730734,3.3650235e-10,-1.0585269e-10,0.28907204,3
393837223,0.7045745,0.012806271,0.012193407,0.7094097,0.95730734,3.3650235e-10,-1.0585269e-10,0.28907204,3
393857208,0.7046229,0.016409181,0.016469853,0.70920104,0.95730734,3.3650235e-10,-1.0585269e-10,0.28907204,3
393882192,0.7041563,0.022950936,0.019317253,0.709411,0.95730734,3.3650235e-10,-1.0585269e-10,0.28907204,3
393902177,0.70416665,0.025048424,0.018790465,0.70934397,0.95730734,3.3650235e-10,-1.0585269e-10,0.28907204,3
393917163,0.7035844,0.026892839,0.019823244,0.70982593,0.95730734,3.3650235e-10,-1.0585269e-10,0.28907204,3
393942144,0.7029794,0.028808642,0.026789017,0.7101214,0.95730734,3.3650235e-10,-1.0585269e-10,0.28907204,3
393962130,0.7024295,0.03141244,0.031921368,0.71034294,0.95730734,3.3650235e-10,-1.0585269e-10,0.28907204,3
393977118,0.7022677,0.03193841,0.03365989,0.7103992,0.95730734,3.3650235e-10,-1.0585269e-10,0.28907204,3
393997103,0.70193166,0.032385647,0.034719434,0.7106601,0.95730734,3.3650235e-10,-1.0585269e-10,0.28907204,3
394022084,0.70153147,0.030547522,0.0386641,0.7109329,0.95730734,3.3650235e-10,-1.0585269e-10,0.28907204,3
394042069,0.7013724,0.029147752,0.041171856,0.71100783,0.95730734,3.3650235e-10,-1.0585269e-10,0.28907204,3
394057058,0.70115256,0.027283149,0.042001057,0.7112501,0.95730734,3.3650235e-10,-1.0585269e-10,0.28907204,3
394082039,0.70090014,0.027261214,0.044965837,0.7113185,0.95730734,3.3650235e-10,-1.0585269e-10,0.28907204,3
394102024,0.70074856,0.027249195,0.047427908,0.71130836,0.95730734,3.3650235e-10,-1.0585269e-10,0.28907204,3
394117013,0.70049083,0.026098644,0.048267893,0.7115488,0.95730734,3.3650235e-10,-1.0585269e-10,0.28907204,3
394136999,0.70045966,0.023010297,0.04754312,0.71173483,0.95730734,3.3650235e-10,-1.0585269e-10,0.28907204,3
394161979,0.7011985,0.020975744,0.048561282,0.71100104,0.95730734,3.3650235e-10,-1.0585269e-10,0.28907204,3
394181964,0.7010943,0.018892441,0.050779685,0.71100724,0.95730734,3.3650235e-10,-1.0585269e-10,0.28907204,3
394196953,0.7010179,0.017322341,0.05276535,0.710978,0.95730734,3.3650235e-10,-1.0585269e-10,0.28907204,3
394221935,0.7016052,0.012995286,0.05165495,0.71057236,0.95730734,3.3650235e-10,-1.0585269e-10,0.28907204,3
394241919,0.7015713,0.008101478,0.046897914,0.7110083,0.95730734,3.3650235e-10,-1.0585269e-10,0.28907204,3
394256907,0.7015302,0.0048175515,0.044435278,0.7112367,0.95730734,3.3650235e-10,-1.0585269e-10,0.28907204,3
394276893,0.7015325,0.0017992572,0.04349974,0.7113064,0.95730734,3.3650235e-10,-1.0585269e-10,0.28907204,3
394301874,0.7024503,-0.0012119039,0.043555327,0.7103979,0.95730734,3.3650235e-10,-1.0585269e-10,0.28907204,3
394321859,0.7028562,-0.0067190262,0.040998604,0.7101178,0.95730734,3.3650235e-10,-1.0585269e-10,0.28907204,3
394336847,0.70298016,-0.011066638,0.039236687,0.7100401,0.95730734,3.3650235e-10,-1.0585269e-10,0.28907204,3
394361829,0.70358735,-0.008230269,0.04037018,0.70941347,0.95730734,3.3650235e-10,-1.0585269e-10,0.28907204,3
394381815,0.70439583,-0.0025784061,0.042718183,0.7085161,0.95730734,3.3650235e-10,-1.0585269e-10,0.28907204,3
394396803,0.70460916,-0.0014254684,0.042353485,0.70832914,0.95730734,3.3650235e-10,-1.0585269e-10,0.28907204,3
394421784,0.70414007,-0.009400648,0.037842315,0.70898974,0.95730734,3.3650235e-10,-1.0585269e-10,0.28907204,3
394441768,0.7039959,-0.013623564,0.03265959,0.7093219,0.95730734,3.3650235e-10,-1.0585269e-10,0.28907204,3
394461754,0.7043592,-0.011403057,0.03304498,0.7089826,0.95730734,3.3650235e-10,-1.0585269e-10,0.28907204,3
394476743,0.7048238,-0.0070477487,0.036349453,0.7084155,0.95730734,3.3650235e-10,-1.0585269e-10,0.28907204,3
394501723,0.7055679,-0.004273922,0.039913528,0.7075045,0.95730734,3.3650235e-10,-1.0585269e-10,0.28907204,3
394521709,0.7055141,-0.0073905257,0.034808077,0.70780206,0.95730734,3.3650235e-10,-1.0585269e-10,0.28907204,3
394536698,0.70546937,-0.010671747,0.028663266,0.70808023,0.95730734,3.3650235e-10,-1.0585269e-10,0.28907204,3
394561680,0.7062535,-0.013226496,0.022020848,0.70749295,0.95730734,3.3650235e-10,-1.0585269e-10,0.28907204,3
394581663,0.706584,-0.012457027,0.02200504,0.70717734,0.95730734,3.3650235e-10,-1.0585269e-10,0.28907204,3
394601649,0.70721203,-0.011858202,0.023920285,0.7064973,0.95730734,3.3650235e-10,-1.0585269e-10,0.28907204,3
394616637,0.7078427,-0.010665143,0.024444696,0.70586646,0.95730734,3.3650235e-10,-1.0585269e-10,0.28907204,3
394641620,0.7082328,-0.011261057,0.02048278,0.7055919,0.95730734,3.3650235e-10,-1.0585269e-10,0.28907204,3
394661607,0.70826936,-0.016036004,0.015103276,0.70559853,0.95730734,3.3650235e-10,-1.0585269e-10,0.28907204,3
394676592,0.70833576,-0.020142628,0.010855872,0.7055048,0.95730734,3.3650235e-10,-1.0585269e-10,0.28907204,3
394701573,0.70897263,-0.017555231,0.008363678,0.7049679,0.95730734,3.3650235e-10,-1.0585269e-10,0.28907204,3
394721563,0.70970255,-0.012315694,0.009137899,0.70433456,0.95730734,3.3650235e-10,-1.0585269e-10,0.28907204,3
394741543,0.70974034,-0.013093707,0.0050737197,0.7043234,0.95730734,3.3650235e-10,-1.0585269e-10,0.28907204,3
394756532,0.70954365,-0.017322538,-0.00010080631,0.7044486,0.95730734,3.3650235e-10,-1.0585269e-10,0.28907204,3
394781514,0.71001464,-0.020639753,-0.0042475956,0.70387155,0.95730734,3.3650235e-10,-1.0585269e-10,0.28907204,3
394801498,0.7100602,-0.018580668,-0.002297411,0.70389205,0.95730734,3.3650235e-10,-1.0585269e-10,0.28907204,3
394816486,0.7101213,-0.016228525,-0.00047540336,0.70389223,0.95730734,3.3650235e-10,-1.0585269e-10,0.28907204,3
394841468,0.7101047,-0.017492754,-0.0019405658,0.7038761,0.95730734,3.3650235e-10,-1.0585269e-10,0.28907204,3
394861453,0.7103362,-0.02135624,-0.0070439284,0.70350325,0.95730734,3.3650235e-10,-1.0585269e-10,0.28907204,3
394881439,0.70988446,-0.021388957,-0.010471201,0.70391554,0.95730734,3.3650235e-10,-1.0585269e-10,0.28907204,3
394896427,0.71013093,-0.017632646,-0.011336928,0.7037575,0.95730734,3.3650235e-10,-1.0585269e-10,0.28907204,3
394921408,0.7106767,-0.015212673,-0.010466403,0.70327646,0.95730734,3.3650235e-10,-1.0585269e-10,0.28907204,3
394941393,0.7109758,-0.0158006,-0.009685716,0.70297223,0.95730734,3.3650235e-10,-1.0585269e-10,0.28907204,3
394956383,0.71101135,-0.018207414,-0.011451925,0.7028516,0.95730734,3.3650235e-10,-1.0585269e-10,0.28907204,3
394981363,0.71060294,-0.01756001,-0.016088614,0.7031901,0.95730734,3.3650235e-10,-1.0585269e-10,0.28907204,3
395001348,0.710518,-0.016318616,-0.019088056,0.7032308,0.95730734,3.3650235e-10,-1.0585269e-10,0.28907204,3
395021333,0.7104234,-0.016793761,-0.020600006,0.7032725,0.95730734,3.3650235e-10,-1.0585269e-10,0.28907204,3
395041318,0.7103673,-0.016320165,-0.02085837,0.7033327,0.95730734,3.3650235e-10,-1.0585269e-10,0.28907204,3
395061303,0.71028316,-0.015710223,-0.01984285,0.70346093,0.95730734,3.3650235e-10,-1.0585269e-10,0.28907204,3
395081288,0.71070457,-0.016355414,-0.01878057,0.7030497,0.95730734,3.3650235e-10,-1.0585269e-10,0.28907204,3
395096278,0.71077913,-0.016681952,-0.018224062,0.70298135,0.95730734,3.3650235e-10,-1.0585269e-10,0.28907204,3
395121258,0.7104463,-0.017518822,-0.01961195,0.70326006,0.95730734,3.3650235e-10,-1.0585269e-10,0.28907204,3
395141244,0.7102696,-0.014074171,-0.019864177,0.70350873,0.95730734,3.3650235e-10,-1.0585269e-10,0.28907204,3
395161229,0.710252,-0.009076073,-0.017733108,0.7036656,0.95730734,3.3650235e-10,-1.0585269e-10,0.28907204,3
395181213,0.7101484,-0.00653679,-0.015749013,0.70384556,0.95730734,3.3650235e-10,-1.0585269e-10,0.28907204,3
395201198,0.7100716,-0.0061538327,-0.016201034,0.70391625,0.95730734,3.3650235e-10,-1.0585269e-10,0.28907204,3
395221183,0.7096607,-0.00810588,-0.018504007,0.704254,0.95730734,3.3650235e-10,-1.0585269e-10,0.28907204,3
395241168,0.70983773,-0.008067904,-0.01886374,0.7040664,0.95730734,3.3650235e-10,-1.0585269e-10,0.28907204,3
395261153,0.709892,-0.0064390674,-0.01608938,0.70409733,0.95730734,3.3650235e-10,-1.0585269e-10,0.28907204,3
395281138,0.70959634,-0.0027898604,-0.012651129,0.7044894,0.95730734,3.3650235e-10,-1.0585269e-10,0.28907204,3
395301123,0.70947963,-0.0005337162,-0.012004243,0.7046236,0.95730734,3.3650235e-10,-1.0585269e-10,0.28907204,3
395321108,0.7092984,-0.00049527286,-0.012136191,0.70480376,0.95730734,3.3650235e-10,-1.0585269e-10,0.28907204,3
395341093,0.7093898,-0.0022439715,-0.010125736,0.7047401,0.95730734,3.3650235e-10,-1.0585269e-10,0.28907204,3
395361078,0.7092835,-0.0031571232,-0.0078091742,0.7048731,0.95730734,3.3650235e-10,-1.0585269e-10,0.28907204,3
395381063,0.7092701,-0.0008465498,-0.004954577,0.7049189,0.95730734,3.3650235e-10,-1.0585269e-10,0.28907204,3
395401047,0.7093909,-0.0005911601,-0.0023695442,0.70481116,0.95730734,3.3650235e-10,-1.0585269e-10,0.28907204,3
395421033,0.70919544,0.00023393729,-0.0017263034,0.7050099,0.95730734,3.3650235e-10,-1.0585269e-10,0.28907204,3
395441017,0.7093205,-0.00047278684,0.00050429144,0.70488584,0.95730734,3.3650235e-10,-1.0585269e-10,0.28907204,3
395461002,0.7096389,-0.0020214338,0.0033266754,0.70455486,0.95730734,3.3650235e-10,-1.0585269e-10,0.28907204,3
395480988,0.710007,-0.00045394513,0.009056886,0.70413625,0.95730734,3.3650235e-10,-1.0585269e-10,0.28907204,3
395500973,0.7100341,0.0010015451,0.013902092,0.70402944,0.95730734,3.3650235e-10,-1.0585269e-10,0.28907204,3
395520958,0.71009576,0.00044306606,0.0132694105,0.70397997,0.95730734,3.3650235e-10,-1.0585269e-10,0.28907204,3
395540943,0.71004194,-8.092279e-05,0.0101903165,0.70408565,0.95730734,3.3650235e-10,-1.0585269e-10,0.28907204,3
395560927,0.7100063,0.0012307826,0.010743626,0.70411235,0.95730734,3.3650235e-10,-1.0585269e-10,0.28907204,3
395580913,0.7101239,0.0024300877,0.015436711,0.7039034,0.95730734,3.3650235e-10,-1.0585269e-10,0.28907204,3
395600897,0.7103164,0.004562784,0.018804817,0.7036165,0.95730734,3.3650235e-10,-1.0585269e-10,0.28907204,3
395620882,0.7105704,0.00634927,0.018674193,0.7033496,0.95730734,3.3650235e-10,-1.0585269e-10,0.28907204,3
395640867,0.71044385,0.0051741144,0.016192248,0.70354855,0.95730734,3.3650235e-10,-1.0585269e-10,0.28907204,3
395660854,0.71052164,0.0011150618,0.015511191,0.7035035,0.95730734,3.3650235e-10,-1.0585269e-10,0.28907204,3
395680837,0.71075016,0.0007667633,0.017642094,0.70322293,0.95730734,3.3650235e-10,-1.0585269e-10,0.28907204,3
395700822,0.71122086,0.0039022241,0.021926519,0.70261586,0.95730734,3.3650235e-10,-1.0585269e-10,0.28907204,3
395720807,0.7110315,0.0069146734,0.023021799,0.7027493,0.95730734,3.3650235e-10,-1.0585269e-10,0.28907204,3
395740792,0.7110895,0.006516996,0.018224157,0.7028351,0.95730734,3.3650235e-10,-1.0585269e-10,0.28907204,3
395760778,0.71117586,0.002575389,0.013842203,0.7028732,0.95730734,3.3650235e-10,-1.0585269e-10,0.28907204,3
395780762,0.71114814,-0.0005198529,0.014774702,0.7028868,0.95730734,3.3650235e-10,-1.0585269e-10,0.28907204,3
395800747,0.71100765,0.00043266462,0.019295782,0.7029194,0.95730734,3.3650235e-10,-1.0585269e-10,0.28907204,3
395820732,0.711056,0.0038349563,0.02165837,0.70279133,0.95730734,3.3650235e-10,-1.0585269e-10,0.28907204,3
395840717,0.71132153,0.0060600797,0.019724699,0.7025638,0.95730734,3.3650235e-10,-1.0585269e-10,0.28907204,3
395860704,0.71121556,0.007491018,0.016885083,0.7027313,0.95730734,3.3650235e-10,-1.0585269e-10,0.28907204,3
395880687,0.71167684,0.009732338,0.015255111,0.702274,0.95730734,3.3650235e-10,-1.0585269e-10,0.28907204,3
395900672,0.71212274,0.010866812,0.014121331,0.7018289,0.95730734,3.3650235e-10,-1.0585269e-10,0.28907204,3
395920657,0.71206856,0.010101486,0.014788545,0.7018815,0.95730734,3.3650235e-10,-1.0585269e-10,0.28907204,3
395940642,0.71209985,0.007293956,0.018472316,0.70179725,0.95730734,3.3650235e-10,-1.0585269e-10,0.28907204,3
