timestamp,gyro_rad[0],gyro_rad[1],gyro_rad[2],gyro_integral_dt,accelerometer_timestamp_relative,accelerometer_m_s2[0],accelerometer_m_s2[1],accelerometer_m_s2[2],accelerometer_integral_dt,accelerometer_clipping
385018862,0.00028182653,-0.00020987277,-0.013078054,4997,0,-0.039275944,-0.044625554,-9.836946,4997,0
385023858,0.0010505555,-0.0014690696,-0.01275133,4996,0,-0.07263237,-0.03682948,-9.844695,4996,0
385038847,-0.0006052753,-0.0010148797,-0.012926814,4997,0,-0.052074127,-0.048939917,-9.832014,4997,0
385058831,0.0031050423,-0.0020632676,-0.0115287,4994,0,-0.03286373,-0.03131247,-9.828571,4994,0
385083812,-0.004658401,0.0027721126,-0.036529258,4996,0,0.06714007,0.17094241,-9.877278,4996,0
385098802,-0.0027650392,-0.0009558432,0.041115258,4998,0,-0.09215672,-0.21829927,-9.867685,4998,0
385118786,0.0040284893,0.007539055,-0.020686286,4995,0,-0.11189366,-0.17173016,-9.750376,4995,0
385143767,0.011075664,0.0015376467,-0.03332653,4995,0,-0.07304831,0.036439095,-10.089597,4995,0
385158757,-0.0053172666,0.005264994,-0.006598703,4996,0,-0.043253396,-0.03984569,-9.657331,4996,0
385178741,0.009560327,0.0063541234,-0.017254505,4995,0,-0.10941458,0.33812615,-9.892986,4995,0
385198725,-0.008454091,-0.00089965604,-0.0059879604,4993,0,-0.05488788,0.004276815,-9.823375,4993,0
385223706,-0.01176368,0.0009710894,-0.016909916,4996,0,-0.020658208,-0.12108915,-9.781887,4996,0
385238695,0.016455233,0.0061818846,-0.0004148968,4991,0,-0.17989357,-0.0049061105,-10.08479,4991,0
385258681,-0.0028035175,0.008406456,-0.020524222,4994,0,0.05563513,-0.27640095,-9.5844345,4994,0
385283661,0.005033598,-0.0001402339,-0.009655395,4996,0,-0.24384768,0.041211713,-9.99384,4996,0
385298649,0.001217758,0.006151955,-0.020055605,4994,0,-0.08385737,-0.07203393,-9.668604,4994,0
385318634,-0.011760899,-0.003014315,-0.0057872403,4994,0,-0.07796197,-0.042240694,-9.778042,4994,0
385338619,-0.017796218,-0.0019334655,-0.022070654,4994,0,0.03657569,-0.15998186,-9.684592,4994,0
385363602,-0.0046764594,0.0029126406,-0.031477936,4989,0,-0.09594224,-0.095835365,-9.82901,4989,0
385378591,-0.0042270278,0.0023850417,0.011013774,4993,0,-0.12554109,-0.043844774,-9.742357,4993,0
385398575,-0.0068634194,-0.0031785779,-0.013100929,4997,0,-0.012255616,-0.010302261,-9.817793,4997,0
385423557,-0.010256335,0.0023436905,0.001220446,4995,0,-0.13747314,-0.22373919,-9.785865,4995,0
385438548,-0.005691909,-0.005060867,-0.020042608,5000,0,-0.14337853,-0.010593261,-9.791773,5000,0
385458532,-0.009117614,0.0013008548,-0.020371497,4999,0,-0.34002128,-0.2186614,-9.79506,4999,0
385478514,0.008024552,-0.012169268,-0.005214066,4993,0,-0.35685542,-0.11432094,-9.962575,4993,0
385503496,0.0030001593,-0.0061738626,-0.027305357,4997,0,-0.02444518,0.33112383,-9.947788,4997,0
385518484,-0.032131035,-0.0008540317,-0.01575028,4995,0,0.23503545,-1.1196936,-9.80434,4995,0
385538469,0.0075880634,0.0063012512,-0.039820418,4994,0,-0.6906683,0.40386084,-9.899319,4994,0
385563452,-0.0075226636,-0.0016832218,-0.022132589,4996,0,0.35809955,-1.3254958,-9.885157,4996,0
385578439,0.04407102,0.0098828105,-0.002269134,4995,0,-0.45909274,-2.0487964,-9.824935,4995,0
385598423,-0.010229941,-0.0009245055,-0.003953867,4995,0,1.6713632,0.2159366,-10.086224,4995,0
385618410,-0.0023527576,-0.006626862,-0.023734784,4997,0,-0.40349486,-2.6131887,-9.632942,4997,0
385638395,-0.045539845,-0.006124921,0.019221876,4996,0,2.1158266,0.7517037,-10.006152,4996,0
385658380,-5.062779e-06,0.0011823646,-0.04195156,4997,0,-0.6820698,-2.3985674,-9.717337,4997,0
385678364,-0.09400124,-0.0024844755,-0.022196122,4997,0,1.8506691,0.3221681,-10.234004,4997,0
385703346,-0.025923435,-0.0047469954,-0.01634193,4997,0,-0.8839153,-1.9117779,-9.939085,4997,0
385718333,-0.12234037,0.00086236483,-0.08174973,4992,0,1.0658015,-1.7474769,-9.882712,4992,0
385738318,0.018056124,-0.03177813,0.04136071,4992,0,0.10662469,1.856908,-10.064747,4992,0
385758306,-0.097442105,-0.0038087408,-0.065056905,4998,0,0.08350077,-3.4099324,-9.678714,4998,0
385778288,-0.021924468,-0.053170882,-0.008652604,4989,0,1.0181112,3.5652864,-10.643726,4989,0
385798273,-0.03675578,-0.0088621,0.0004265787,4991,0,-0.95692325,-3.506873,-9.699432,4991,0
385818258,-0.07454701,-0.031655703,-0.071453735,4991,0,0.99515104,2.6345005,-10.66657,4991,0
385843240,-0.0053304364,0.00049845036,-0.05286318,4997,0,-0.92777276,-0.40713543,-9.755135,4997,0
385858229,-0.055719696,-0.0076355953,-0.04464774,4996,0,0.24528702,-0.10511277,-10.307953,4996,0
385878213,0.0322794,-0.028591624,-0.015090687,4996,0,-0.3542641,2.7952242,-10.443763,4996,0
385898198,-0.054341447,-0.015018352,0.012470248,4995,0,-1.0886956,-2.6649678,-9.79589,4995,0
385918183,0.010382549,-0.026256826,-0.04749206,4994,0,0.6686819,5.5811396,-10.8189,4994,0
385938168,-0.01723604,-0.002774502,-0.00095797254,4996,0,-1.9614663,-3.6450665,-9.707195,4996,0
385958154,-0.05853402,-0.023591805,-0.0033381353,4996,0,0.8338811,4.964995,-10.466533,4996,0
385983134,-0.026628502,0.016363222,-0.14813034,4996,0,0.008160858,-0.27786523,-9.740871,4996,0
385998123,-0.0488574,-0.006031978,0.07040985,4996,0,-0.050241355,1.8358942,-9.89365,4996,0
386023107,-0.0055058883,0.031248959,-0.08798587,4999,0,-1.102942,-2.806455,-8.848551,4999,0
386038093,-0.017910302,-0.007154009,0.04875914,4995,0,-1.5927088,-1.4156425,-9.498751,4995,0
386058079,0.010130767,-0.0017736761,-0.01576196,4997,0,0.71616197,4.1293464,-9.98489,4997,0
386078064,0.05916336,0.02088685,-0.07769841,4996,0,-2.4664252,-3.1308753,-9.661579,4996,0
386098048,0.008157816,0.008555697,0.14429885,4994,0,0.641076,3.547581,-9.607695,4994,0
386123030,-0.08372846,0.016056197,-0.17858705,4997,0,1.1218373,-2.8239808,-9.614506,4997,0
386138018,-0.03740077,-0.008539624,0.13717961,4995,0,-0.1278866,0.27582502,-9.166706,4995,0
386158002,0.029599888,0.029006995,-0.09179967,4991,0,0.6835419,1.4776868,-9.462884,4991,0
386177987,-0.008354392,0.019756997,-0.017863065,4994,0,-1.2138977,-4.1664934,-9.27401,4994,0
386197972,-0.011831744,0.024367591,0.09085103,4995,0,2.0120316,2.0766315,-9.47618,4995,0
386217957,0.03386781,0.016990986,-0.16513568,4994,0,-0.8528323,-4.2870173,-9.782909,4994,0
386237942,-0.031743597,-0.025029302,0.2041542,4995,0,1.5816954,1.4483573,-9.83152,4995,0
386262926,-0.088457316,-0.0025178308,-0.19111857,4999,0,-0.71588993,-2.0420392,-9.5372925,4999,0
386277913,-0.06362713,-0.03580554,0.15615565,4996,0,0.59401315,-1.5249108,-9.916268,4996,0
386297897,-0.041689157,-0.007056981,-0.14584671,4995,0,1.4633517,1.1187623,-10.263436,4995,0
386322885,-0.091717154,-0.004498008,-0.1698271,5003,0,0.09978433,3.989126,-10.393614,5003,0
386337867,-0.049194135,-0.014051097,0.031165017,4995,0,1.3228174,3.372386,-10.191173,4995,0
386357852,0.04819716,-0.0119707445,-0.15643923,4997,0,-1.9432,-2.668905,-10.244737,4997,0
386377837,-0.030331906,-0.013391825,0.20110494,4995,0,-0.2992825,2.976774,-9.995771,4995,0
386402818,-0.06431647,0.030626664,-0.27094007,4997,0,-0.49174988,-3.0930264,-9.029062,4997,0
386417807,-0.008092731,0.0056225047,0.22889411,4997,0,-1.3212525,-0.99322134,-9.254077,4997,0
386437791,0.009517104,0.021823522,-0.23079869,4996,0,1.5423046,2.833778,-9.888923,4996,0
386462778,-0.07449033,-0.026056223,-0.09314953,5000,0,1.2882224,2.723459,-10.58634,5000,0
386477763,-0.017493207,0.019829161,-0.036956906,4998,0,2.2309268,2.279687,-9.776204,4998,0
386497746,0.002622103,0.0098123085,-0.088342994,4995,0,-1.0444403,-4.250261,-9.657344,4995,0
386517732,-0.06398663,-0.0029472928,0.18799944,4997,0,1.1868985,0.2999565,-10.182901,4997,0
386542713,-7.314381e-05,-0.028779287,-0.13984288,4996,0,1.4938638,1.760373,-9.45972,4996,0
386557703,-0.0451838,0.037335668,0.08717022,4998,0,0.00023619767,-1.0036757,-10.543642,4998,0
386577687,0.04201424,0.016502429,-0.17964768,4996,0,0.74828374,-0.68344,-8.368511,4996,0
386602668,-0.03434231,0.03335332,0.021209901,4997,0,0.007777819,-0.6554752,-10.528904,4997,0
386617656,0.089661196,-0.008782631,-0.06897663,4996,0,-0.07559105,0.9963895,-8.9217615,4996,0
386637641,0.0367216,-0.02042344,0.02646195,4996,0,-0.7705559,0.730436,-9.4671135,4996,0
386657626,-0.10831482,0.035405245,-0.064219765,4996,0,0.10865993,-0.79020923,-11.162824,4996,0
386682607,0.030246181,-0.018826267,-0.07578075,4996,0,0.46014643,0.454218,-9.661593,4996,0
386697596,0.08493837,-0.0029662056,0.0013710258,4995,0,0.90305847,0.12796788,-8.6344385,4995,0
386717586,0.0036164362,0.015642777,-0.0620834,5001,0,-0.5193032,0.28884962,-9.173112,5001,0
386742562,-0.014660513,0.012638056,0.07143303,4996,0,-0.4462662,-0.8581338,-10.575249,4996,0
386757551,-0.02343083,0.022560438,-0.095445506,4997,0,-0.256129,-0.11364626,-9.615584,4997,0
386777535,0.07304952,-0.04546944,0.06709633,4995,0,0.42540494,-0.06576737,-9.306376,4995,0
386797520,0.012571081,-0.0020368437,-0.098337114,4996,0,0.69811106,-0.06973185,-8.839043,4996,0
386822503,-0.0584295,0.00977922,-0.007301317,4998,0,-0.07360915,-1.1194401,-10.466339,4998,0
386837490,-0.049889266,0.038480088,-0.05134421,4995,0,-0.4617724,-0.34199783,-10.826938,4995,0
386857477,0.07090766,-0.028034726,0.018900309,4997,0,0.08937219,0.29059,-9.807904,4997,0
386882457,0.015055301,-0.003257981,-0.0057548117,4997,0,0.21309789,0.53086424,-9.211691,4997,0
386897445,0.013275222,-0.026493317,0.012041796,4996,0,-0.4802872,-0.19704367,-9.138218,4996,0
386917431,-0.04018556,0.0027415357,-0.017954899,4997,0,0.114884906,-0.69172007,-9.94639,4997,0
386937415,-0.030253036,0.051147133,-0.013747859,4996,0,0.08775376,0.17360403,-10.379841,4996,0
386962396,0.0064366134,-0.015600428,0.058810778,4996,0,-0.4077791,0.27668932,-9.883539,4996,0
386977385,0.049839236,-0.006880294,-0.019030701,4996,0,-0.37668306,0.585563,-9.029716,4996,0
386997371,0.01298691,-0.050088305,-0.008625818,4996,0,0.40092793,-0.118248306,-9.66048,4996,0
387022354,-0.042037714,0.030946692,-0.059166707,4999,0,-0.36466005,-0.81576693,-9.777373,4999,0
387037340,-0.0088170115,0.011668931,-0.0155017115,4996,0,-0.103112936,0.09413588,-10.170065,4996,0
387057325,0.027603086,-0.012952811,-0.032330025,4996,0,0.53591734,-0.6363515,-9.98438,4996,0
387082306,-0.012996284,0.019644067,0.020163175,4996,0,-0.19607218,0.0627887,-10.105484,4996,0
387102291,-0.011688641,0.018235061,-0.029564861,4995,0,-0.5548073,-0.10534377,-9.541656,4995,0
387117280,0.03955535,0.02742654,0.01807049,4996,0,0.051117737,0.2509845,-9.175021,4996,0
387137265,0.038423162,-0.02830755,-0.0012339653,4996,0,-0.3525975,0.40974212,-9.42765,4996,0
387162246,-0.14848602,-0.0032413404,0.025770295,4995,0,0.13808079,-0.7435566,-10.196092,4995,0
387177235,-0.13730158,-0.02403461,-0.0053291107,4996,0,0.57672507,0.25501055,-10.257787,4996,0
387202216,-0.20667702,-0.026450066,-0.0012812098,4996,0,-0.19420658,-0.0065149944,-10.56556,4996,0
387222201,-0.267816,-0.085235216,0.123038776,4997,0,-0.65420955,0.7104217,-10.003337,4997,0
387242186,0.07665851,-0.20171146,0.061341353,4994,0,0.12613155,-0.51165456,-10.279711,4994,0
387257174,0.050561126,-0.06941552,0.03939904,4995,0,-0.5196035,-0.26538026,-9.212813,4995,0
387277159,0.17936808,-0.034505244,0.082889445,4995,0,0.079481505,0.7605973,-11.292275,4995,0
387302142,-0.05508909,-0.07521153,0.06748866,4998,0,-0.22507928,0.15845501,-11.222427,4998,0
387317129,-0.2712174,0.020777822,0.066915505,4996,0,-1.3204292,-0.11910204,-8.866865,4996,0
387337114,-0.10256177,-0.021236002,0.061241753,4996,0,0.4351798,0.43925515,-11.455696,4996,0
387362095,0.065516554,-0.12545775,0.07787868,4994,0,-0.50649107,0.24236788,-10.546138,4994,0
387382082,0.09400931,-0.16236277,0.04720866,4998,0,-0.27215803,-0.43282267,-11.169604,4998,0
387397069,-0.009305177,-0.18306914,0.036589034,4994,0,-0.7589068,0.006804668,-12.454581,4994,0
387417054,-0.35000497,-0.025530415,0.04250986,4996,0,-0.6216283,-0.9830071,-10.4984045,4996,0
387442035,-0.21706146,0.017306695,0.11479451,4993,0,0.1895502,0.16860132,-10.259987,4993,0
387457027,0.20567416,0.005923044,0.03356516,4999,0,-0.6616352,0.5200919,-10.2238245,4999,0
387477009,0.2486349,0.020962317,0.09010426,4996,0,0.0073018917,-0.47916886,-10.918526,4996,0
387501992,-0.15530004,-0.04603674,0.024673097,4999,0,0.2306558,-0.27902633,-12.0501795,4999,0
387521975,-0.4371058,-0.15963708,0.15038294,4994,0,-0.55997837,-0.8320624,-7.2682877,4994,0
387536963,-0.16199115,-0.24092048,0.13391785,4995,0,-0.8341945,0.7961891,-11.826939,4995,0
387561946,0.07950256,-0.14401723,0.055508133,4996,0,-0.36562362,0.91565394,-8.740402,4996,0
387581930,0.27581146,-0.19749233,0.10975076,4997,0,-0.88550943,-0.057521757,-11.038478,4997,0
387596918,0.21465003,-0.105829634,0.023642683,4995,0,-1.2802322,-0.08355804,-9.7449465,4995,0
387616904,0.11073865,-0.092516795,0.073075436,4997,0,-0.27362657,-0.38226378,-13.034472,4997,0
387641885,-0.14725587,-0.088886075,0.07198347,4997,0,0.07243795,-0.22443959,-11.80734,4997,0
387656875,-0.26997498,-0.0728606,0.1253561,4997,0,-1.0920691,-0.692861,-9.228456,4997,0
387676859,-0.07442888,-0.09599512,0.12003029,4997,0,0.37085092,0.3687455,-11.414382,4997,0
387701841,-0.12949845,0.061547287,0.11480023,4998,0,-0.66852844,-0.76421493,-8.799845,4998,0
387721827,0.019926222,0.011581947,0.115401946,4997,0,-0.4410974,-1.0267342,-12.5211935,4997,0
387741810,-0.0159123,-0.036924243,0.0672628,4997,0,-0.32247573,-0.9519749,-11.827735,4997,0
387756801,0.01062486,-0.077200286,0.0888897,4999,0,-0.77970695,-0.37973166,-7.527688,4999,0
387781780,0.2884653,-0.093159445,0.0021683848,4996,0,-0.28062123,0.08031964,-11.733973,4996,0
387801764,0.16294353,-0.11712812,-0.0017763318,4996,0,-0.34162194,-0.7055097,-11.672853,4996,0
387816753,0.07359521,-0.16047801,0.027182627,4996,0,-0.42202696,-1.0741571,-10.361166,4996,0
387841734,0.24347226,-0.0778902,-0.010416113,4997,0,-0.29637665,-0.49128607,-11.666536,4997,0
387861719,0.23883648,0.07040294,-0.027003316,4995,0,-0.851669,-0.44482416,-8.815445,4995,0
387881704,0.43293107,0.06306211,-0.021696193,4994,0,0.07401311,0.5734057,-10.35746,4994,0
387901689,0.30551052,-0.07643346,-0.043880362,4991,0,-0.47340372,-0.57137805,-9.324012,4991,0
387921674,0.31125525,-0.16275841,-0.018728767,4996,0,-0.12318341,-0.17900582,-10.901748,4996,0
387941662,0.25791144,-0.057581116,-0.024725197,4991,0,-0.6966632,-0.32571167,-10.250252,4991,0
387956649,0.19975732,0.037131857,-0.070478536,4993,0,-0.37432298,-0.27891105,-9.400415,4993,0
387981629,0.22949158,0.04502035,-0.06911901,4996,0,-0.08901548,-0.19684924,-10.403889,4996,0
388001614,0.20705684,0.009147172,-0.06598482,4996,0,0.035866432,-0.01383633,-8.905067,4996,0
388016603,0.35249868,-0.022699866,-0.083247915,4996,0,0.31634197,0.21691418,-10.587514,4996,0
388041585,0.12514903,0.052880175,-0.063935645,4998,0,-0.018111153,-0.6276015,-7.8393703,4998,0
388061569,0.07851596,-0.062160503,-0.06958847,4995,0,-0.022837622,-0.51494306,-12.350404,4995,0
388081554,-0.28834042,-0.06717038,-0.05924415,4996,0,-0.21306777,-0.96766067,-8.835302,4996,0
388096543,0.0934895,-0.097866125,-0.03850837,4997,0,-0.34843943,0.6135727,-11.355568,4997,0
388121524,0.2530356,0.06876303,-0.014654686,4996,0,0.0058948565,0.12997344,-10.827259,4996,0
388141510,0.13572712,0.14592291,-0.032353673,4997,0,-0.22660463,-1.1492826,-9.448043,4997,0
388156497,0.03479376,0.11224558,-0.01441742,4996,0,-0.21157797,-0.29617983,-10.913175,4996,0
388181479,-0.11226799,0.12604608,-0.011961449,4997,0,-0.42011234,-1.1233386,-9.109264,4997,0
388201463,0.14115351,0.1151825,-0.022387084,4996,0,-0.043337323,0.44159445,-11.17578,4996,0
388216456,0.18646121,0.16852093,-0.00093237543,5000,0,0.15208331,-1.1752994,-9.105615,5000,0
388236437,0.44765377,0.14777377,-0.0077773514,4996,0,-0.3941921,-0.19328144,-10.670792,4996,0
388261419,0.15902947,0.0897154,-0.005554807,4997,0,-0.009182827,0.029335223,-9.548802,4997,0
388281404,0.13969648,-0.025091765,0.06791426,4996,0,-0.6046245,-0.309671,-10.874277,4996,0
388296392,0.051230803,0.047606353,0.04400687,4996,0,-0.22361852,0.18710399,-8.256902,4996,0
388321373,0.3066529,-0.03249593,0.046355452,4996,0,-0.38531235,-0.10357297,-10.860039,4996,0
388341358,0.28878918,-9.4928626e-05,0.053618,4996,0,-0.538703,-0.8277199,-9.898823,4996,0
388361343,0.26663518,0.1009547,0.08470165,4996,0,-0.61910504,-0.46362993,-9.715736,4996,0
388376332,0.15694988,0.12572424,0.08285036,4996,0,-0.51185447,-0.8512553,-10.694053,4996,0
388401313,0.09876713,0.1595187,0.07287594,4996,0,-0.60685086,-0.29691365,-8.730046,4996,0
388421298,0.14748563,0.068723336,0.03964001,4996,0,-0.65727884,-0.11745132,-7.8109136,4996,0
388441283,0.13094363,0.031437002,0.032719653,4996,0,0.019537687,-0.09716549,-9.861576,4996,0
388461268,0.061531667,0.16891156,0.0009621029,4997,0,-1.0695733,-0.49229935,-8.624021,4997,0
388481253,0.093533486,0.22459482,0.032854095,4996,0,-0.06342685,-0.89705825,-11.119358,4996,0
388496241,-0.0028057608,0.24344468,0.0019657058,4995,0,-0.6258608,-0.22936818,-8.364537,4995,0
388521223,0.16074707,-0.0953662,-0.007637819,4997,0,-0.0092538325,0.20141686,-8.711389,4997,0
388541209,0.23364772,-0.1356785,-0.033711065,4997,0,0.057671905,0.68558663,-8.226196,4997,0
388561193,0.19214667,0.015342998,-0.02493287,4997,0,-0.18961646,-0.3538909,-9.432846,4997,0
388581178,0.07239777,0.23230234,-0.027521618,4997,0,-0.9861892,-0.04749495,-8.395743,4997,0
388601162,-0.34987435,0.05166665,0.08661196,4993,0,-0.05598293,-0.89156866,-11.05782,4993,0
388621148,-0.54889476,-0.056880504,0.066781774,4997,0,-0.021505281,0.67465633,-8.317959,4997,0
388641133,-0.37619025,-0.17804348,0.048766274,4997,0,-0.54099447,-0.61343217,-9.6607065,4997,0
388656122,-0.22536315,-0.042086728,0.06413713,4997,0,-0.8779008,-0.1841049,-10.268589,4997,0
388681102,-0.053909097,0.06957633,0.09115564,4996,0,-0.2776739,-0.53577167,-10.515783,4996,0
388701092,-0.31256175,0.049617637,0.07658943,5001,0,0.16838509,0.5163046,-8.474541,5001,0
388721072,-0.4361082,-0.15710996,-0.036884792,4996,0,-0.526683,-0.35859224,-8.329531,4996,0
388741057,-0.31313324,-0.260893,-0.020920837,4994,0,-0.32719406,-1.0360092,-12.658056,4994,0
388761042,-0.10823214,-0.02831201,-0.016243035,4994,0,-0.9250887,-0.25340497,-9.726545,4994,0
388781027,0.06671343,0.24695362,-0.06542213,4996,0,-0.43617883,-0.22230934,-9.386282,4996,0
388796016,-0.019759854,0.25216028,-0.09665307,4995,0,0.2669901,-0.6638487,-10.176079,4995,0
388820998,-0.22442013,-0.09081252,-0.13160723,4997,0,-0.12358806,-0.45040327,-8.3696375,4997,0
388840983,-0.0561679,-0.27054945,-0.106477715,4997,0,-0.3434501,0.14820704,-9.155606,4997,0
388860967,0.16511843,-0.24037509,-0.0903043,4996,0,-0.13767114,-0.019343752,-10.945055,4996,0
388880952,0.15878393,-0.0939839,-0.069431216,4996,0,0.31709003,0.25634235,-9.3028,4996,0
388900937,-0.05691021,0.083200134,-0.08296396,4996,0,-0.06595561,-0.13001783,-8.0792675,4996,0
388920922,-0.21802814,0.16443412,-0.09035405,4996,0,-0.36795762,-0.2596772,-8.890778,4996,0
388940908,-0.1905499,0.07170409,-0.0759289,4997,0,-0.28107572,0.08595677,-8.449343,4997,0
388960892,0.0073621557,0.020638304,-0.06466887,4996,0,0.29434144,0.30588406,-9.124551,4996,0
388980877,0.1175406,0.08941253,-0.061248522,4996,0,-0.4726644,-0.0929786,-9.597641,4996,0
389000863,-0.0049943007,0.18970166,-0.06791817,4997,0,0.07136868,-0.5600116,-9.701047,4997,0
389020847,-0.16622122,0.15513304,-0.10789919,4996,0,-0.5130614,-0.22491176,-8.613528,4996,0
389040833,-0.19416808,0.009741789,-0.07823781,4997,0,0.20243138,0.049480055,-9.650698,4997,0
389060816,-0.1740034,-0.06552764,-0.06227871,4995,0,-0.09540003,-0.45729864,-9.562821,4995,0
389080804,-0.06576037,-0.033655185,-0.06609381,4999,0,0.09483236,0.4624686,-9.162297,4999,0
389100788,-0.098795444,0.12188004,-0.065572135,4997,0,-0.5117606,0.4991487,-7.883126,4997,0
389120773,-0.2581511,0.23917755,-0.092630416,4997,0,-0.6667772,-0.34045547,-8.952801,4997,0
389140758,-0.35809556,0.1504967,-0.07718228,4998,0,-0.16398668,-0.5775242,-10.704429,4998,0
389160743,-0.19544716,0.030662999,-0.1030778,4998,0,0.07566883,-0.054568738,-10.868024,4998,0
389180727,-0.16261223,0.048715953,-0.05625386,4997,0,-0.09068372,0.023451017,-8.370479,4997,0
389200712,-0.060286306,0.07461218,-0.033297915,4997,0,-0.023260282,0.84420645,-9.06719,4997,0
389220697,-0.14949973,0.14040774,-0.06834005,4996,0,-0.245868,-0.5743585,-10.52016,4996,0
389240683,-0.3430137,0.14040184,-0.04533722,4998,0,-0.66792965,-0.92528147,-9.413216,4998,0
389260668,-0.10762908,0.058891233,-0.081791386,4998,0,0.06140691,0.68278325,-10.075882,4998,0
389280652,-0.0712472,-0.017294025,-0.05180762,4997,0,0.07664579,-0.2368825,-9.933883,4997,0
389300636,-0.15486939,-0.020900778,-0.021500476,4996,0,0.20616159,0.40583494,-8.628032,4996,0
389320621,-0.17189884,0.078117944,-0.06553675,4996,0,-1.1530178,-0.046655413,-9.900034,4996,0
389340607,-0.29011825,0.05385038,-0.034012523,4997,0,0.015092117,-0.92411095,-10.707068,4997,0
389360591,-0.18134657,-0.04927217,-0.046673976,4996,0,0.273287,0.15186617,-10.967921,4996,0
389380578,-0.15654798,-0.07890855,-0.032373644,4999,0,0.028892174,0.33316,-8.47219,4999,0
389400562,-0.2109327,-0.045030903,-0.00075245625,4998,0,-0.09080404,-0.2063358,-9.233221,4998,0
389420548,-0.21676226,-0.031835362,-0.03376581,4999,0,-0.5791848,-0.6771029,-12.140149,4999,0
389440531,-0.3823511,0.005651252,-0.0026101787,4997,0,0.25968555,0.22413954,-8.867757,4997,0
389460517,-0.23113269,-0.05942361,-0.011989071,4997,0,0.4309067,0.571055,-10.47473,4997,0
389480501,-0.22265945,-0.021394303,0.0044015325,4997,0,-0.2751771,-0.466895,-9.88172,4997,0
389500487,-0.21691033,0.01573331,0.015497325,4996,0,-0.48676535,-0.25880834,-9.52948,4996,0
389520474,-0.04710558,-0.052156463,0.0025568092,5000,0,-0.20653333,-0.31979674,-11.820475,5000,0
389540456,-0.1737866,-0.040761996,-0.0073114005,4997,0,0.06978748,-0.40373015,-9.976937,4997,0
389560442,-0.13207744,-0.019130226,-0.009606404,4997,0,0.11080657,0.6664758,-8.719722,4997,0
389580426,-0.023912152,-0.044893455,0.010737611,4997,0,0.54374135,0.12918302,-10.792186,4997,0
389600410,-0.14050084,0.017335776,-0.0075934483,4996,0,-0.5785808,-0.2378274,-8.607413,4996,0
389620395,0.04962311,-0.029445158,-0.018972395,4993,0,-0.18578814,0.17585847,-9.376744,4993,0
389640380,0.021251649,-0.0814503,-0.018730221,4996,0,-0.24350134,-0.8601487,-11.656602,4996,0
389660367,-0.16499504,0.01584958,-0.039979506,4997,0,-0.081030704,-0.60694677,-9.336447,4997,0
389680350,-0.08768067,0.05205374,0.0018730987,4996,0,-0.17681938,0.35508358,-9.079205,4996,0
389700335,0.1162974,-0.010467872,-0.026819963,4996,0,0.28960076,0.45068178,-10.056582,4996,0
389720320,-0.0033179317,-0.085506186,-0.027567677,4996,0,0.28016737,-0.14972556,-9.443515,4996,0
389740307,-0.046170186,-0.08495584,-0.019972352,4998,0,-0.28428555,0.20315807,-8.644229,4998,0
389760291,0.028999757,0.029220426,-0.029132914,4997,0,-0.6510877,0.110446855,-9.706787,4997,0
389780277,-0.023417303,0.13190581,-0.022340918,4998,0,-0.35837626,-0.41501805,-9.912475,4998,0
389800261,0.021428961,0.06765798,-0.031200785,4995,0,0.1551678,-0.46625087,-10.405943,4995,0
389820245,0.21368505,0.005179159,-0.047330726,4996,0,0.025151145,0.20081028,-10.549941,4996,0
389840230,0.20867917,0.034568116,-0.009204507,4996,0,-0.094642274,0.441457,-8.042625,4996,0
389860218,0.28788036,0.04396801,-0.024614358,5000,0,0.29322985,0.62735856,-9.838185,5000,0
389880202,0.062038805,0.12204192,-0.059532408,4999,0,-0.9112623,-0.45835966,-10.101517,4999,0
389900185,-0.078268036,0.14747372,-0.044087265,4996,0,-0.1876395,-0.23389402,-9.622953,4996,0
389920171,0.14397523,-0.0073923003,-0.031914394,4998,0,0.21235897,0.33428365,-11.369956,4998,0
389940157,0.18586448,-0.12815629,-0.06406999,4999,0,0.28898868,-0.34421805,-9.119669,4999,0
389960140,0.22051807,-0.14674483,-0.01945141,4996,0,0.32309943,0.7271327,-8.188621,4996,0
389980126,0.196496,-0.041556768,-0.030236306,4998,0,-0.6612691,0.090370774,-9.582003,4998,0
390000110,0.055023085,0.005331607,-0.03245426,4994,0,0.13890637,-0.6260261,-10.99938,4994,0
390020094,0.07532584,-0.048362676,-0.036534686,4995,0,0.37794012,0.39680326,-9.469125,4995,0
390040079,0.2694887,-0.06419274,-0.020221721,4994,0,-0.33912316,0.7622857,-9.183662,4994,0
390060064,0.13355435,-0.012816379,-0.03153567,4996,0,-0.62455815,-0.87296456,-10.322902,4996,0
390080049,0.12239938,-0.17037004,-0.024156017,4993,0,0.37752488,0.4107806,-10.880524,4993,0
390100035,0.1821483,-0.1776132,-0.026043667,4996,0,-0.01971421,0.59435755,-8.908033,4996,0
390120019,0.08256336,0.006480118,-0.03653107,4996,0,-0.8354802,-1.0368767,-10.967902,4996,0
390140005,0.10162493,-0.08310143,-0.024779774,4997,0,0.6705259,0.9449927,-8.741201,4997,0
390159990,0.10922947,-0.09389241,-0.024237003,4997,0,-0.13884799,0.093476295,-9.701577,4997,0
390179974,0.030205019,-0.028330958,-0.01308863,4994,0,-0.02524662,-0.55397075,-12.054858,4994,0
390199962,-0.03116011,-0.11679626,0.0017390818,4999,0,0.42015782,0.49646115,-8.654754,4999,0
390219944,-0.04715454,-0.016833045,-0.03217834,4996,0,-0.38191044,0.24763674,-8.349381,4996,0
390239929,0.08051831,0.048564263,-0.024642456,4996,0,-0.57030684,-0.18876559,-11.098669,4996,0
390259914,0.07639121,0.008034785,-0.007886422,4996,0,0.58106226,-0.055389795,-9.494451,4996,0
390279901,-0.0017761596,-0.009343441,-0.02207367,4998,0,0.20013352,0.46809158,-8.325464,4998,0
390299884,-0.06554353,0.06967185,-0.02767039,4996,0,0.04467642,0.5341386,-9.465264,4996,0
390319869,-0.17931482,0.14133367,-0.028465386,4994,0,-0.4150414,-0.89272165,-9.029651,4994,0
390339855,-0.0036792553,0.09823578,-0.0053414535,4997,0,0.10449128,0.28239888,-9.814995,4997,0
390359841,0.037825227,0.01893692,-0.014818134,4998,0,-0.113562204,-0.88456166,-8.998561,4998,0
390379824,0.062043756,-0.07793058,-0.026044559,4996,0,0.54098666,0.1924328,-9.442076,4996,0
390399809,0.055621386,-0.10479561,-0.03644589,4996,0,0.3327997,0.10498743,-8.940411,4996,0
390419794,-0.03240339,-0.036312997,0.0031916029,4996,0,0.012017466,0.31923804,-7.2488556,4996,0
390439781,0.12210929,0.021953724,-0.017665166,4998,0,-0.23274432,0.03429272,-9.367864,4998,0
390459764,0.03638468,0.090349436,-0.04271134,4996,0,-0.584873,-0.71989167,-8.906399,4996,0
390479749,-0.011422801,0.10996077,-0.01410558,4996,0,0.04105573,-0.3617333,-9.615869,4996,0
390499734,0.14111255,0.027177766,-0.004952594,4995,0,0.29286617,0.114856906,-10.291101,4995,0
390519719,0.06306642,0.034102052,-0.00735191,4997,0,0.37934223,0.22252908,-7.8698797,4997,0
390539703,0.21248408,0.04773515,-0.0349814,4992,0,0.057015203,-0.118453965,-9.728604,4992,0
390559689,-0.07325081,0.18489957,-0.006557479,4997,0,-0.4066145,-1.2269404,-9.833464,4997,0
390579674,0.068381585,0.09077589,-0.0025570057,4994,0,0.72901696,0.25481138,-11.255255,4994,0
390599659,-0.025909906,0.019432127,0.0017384366,4996,0,0.19633101,0.1953038,-8.091652,4996,0
390619644,0.14229389,0.004995761,-0.015629044,4996,0,-0.29062083,-0.38446653,-8.9852705,4996,0
390639628,0.15886444,0.049884796,0.0069678137,4996,0,-0.38816243,-0.23804757,-10.804352,4996,0
390659616,0.012404741,0.08848078,-0.026813883,4998,0,0.1386211,-0.42203447,-9.252565,4998,0
390679600,0.21112165,0.0569034,-0.010155109,4998,0,0.46813372,1.1809632,-10.181331,4998,0
390699586,0.0276983,0.15192738,-0.017758487,4999,0,-0.5601865,-0.69147706,-8.867142,4999,0
390719569,0.19233155,0.074239165,0.0005114037,4997,0,-0.27542067,-1.2039963,-11.615416,4997,0
390739553,0.22021095,-0.077187546,0.014151652,4995,0,0.68006736,0.91250414,-10.943277,4995,0
390759541,0.035131615,-0.06364567,0.008604615,4998,0,-0.3376293,-0.5587957,-7.7247257,4998,0
390779523,0.1001669,0.061998013,0.028170554,4996,0,-0.44688687,-0.192083,-12.571149,4996,0
390799508,0.052107014,0.020848224,0.030447224,4995,0,0.43490204,0.40748215,-8.043601,4995,0
390819493,0.26825947,-0.03846624,0.005956786,4996,0,-0.12062609,0.41022098,-10.742415,4996,0
390839478,0.016929388,0.032658905,0.025229966,4997,0,-0.6003382,-1.3359278,-10.96886,4997,0
390859463,0.19073015,-0.1140568,0.039320234,4996,0,1.015011,0.5847883,-10.831743,4996,0
390879448,-0.013604726,0.013721422,0.043908343,4996,0,-0.55671686,-0.45695683,-7.7377067,4996,0
390899435,0.050211586,0.11430478,0.016916646,4996,0,-0.30783764,-0.34734973,-11.43956,4996,0
390919418,0.13388057,0.08163183,0.039987385,4996,0,0.37095633,-0.08233951,-10.187967,4996,0
390939403,0.17752694,0.06556349,0.069804244,4996,0,0.16827995,0.28935727,-9.098063,4996,0
390959389,0.24566093,0.09375472,0.06203823,4996,0,-0.27272436,-0.124094516,-9.819832,4996,0
390979373,0.04404116,0.11419614,0.035193708,4997,0,-0.67713857,-0.5110869,-9.411566,4997,0
390999359,-0.044309013,-0.0076697427,0.050370757,4996,0,0.07138214,-0.64918786,-10.913415,4996,0
391019343,-0.031493764,-0.055532794,0.06982692,4997,0,-0.342258,-0.04707565,-9.5054035,4997,0
391039328,0.06487398,-0.047268827,0.07908284,4996,0,0.17901736,0.6312043,-9.286218,4996,0
391059314,0.0203487,-0.037448663,0.10011468,4997,0,-0.07639065,-0.13191064,-9.341064,4997,0
391079298,-0.09866402,-0.030309215,0.07220122,4996,0,-0.07592178,-0.199242,-9.040008,4996,0
391099283,-0.14751029,-0.09614112,0.08091011,4997,0,-0.20480528,-0.20764808,-9.136721,4997,0
391119268,-0.11783302,-0.16830526,0.12150671,4997,0,0.10531004,-0.2505598,-10.616686,4997,0
391139253,-0.099332474,-0.13107511,0.07014174,4997,0,-0.18602397,-0.46762526,-10.471753,4997,0
391159237,-0.105926976,-0.052587688,0.026276669,4994,0,-0.16889097,-0.67150027,-9.98243,4994,0
391179223,-0.07898836,0.10779472,0.0096683,4997,0,-0.33011645,0.055548135,-9.877194,4997,0
391199209,-0.061213437,0.1657249,-0.005593131,4998,0,-0.24653795,-0.13446262,-9.86371,4998,0
391219193,-0.037808597,0.11387241,-0.010540592,4996,0,0.24870282,-0.21275522,-10.423321,4996,0
391239178,-0.043720957,0.018006504,-0.047941934,4997,0,0.27272406,-0.3115694,-11.576892,4997,0
391259164,-0.15794793,-0.08364686,0.024869086,4998,0,0.056743123,-0.16866139,-9.37462,4998,0
391279147,-0.105690174,-0.07453853,0.03525491,4996,0,0.23397237,0.4726003,-9.137503,4996,0
391304129,-0.023818677,-0.06058555,0.00356751,4995,0,0.15662526,0.22081237,-9.808987,4995,0
391319117,-0.009314795,-0.021897728,0.018531924,4996,0,0.270766,0.1787319,-9.504149,4996,0
391339103,-0.03054775,0.027999079,0.036895126,4997,0,-0.552607,-0.32795936,-9.303333,4997,0
391359087,-0.06802907,0.00075012725,0.011472232,4996,0,-0.072863735,-0.16238488,-10.027974,4996,0
391379073,-0.100647464,-0.023025038,-0.028514106,4997,0,-0.29072776,-0.2520676,-10.103164,4997,0
391399062,-0.053488836,0.029913794,-0.035929874,5001,0,-0.31420308,-0.23861903,-9.682614,5001,0
391419042,0.020974644,0.12871934,-0.015724605,4993,0,-0.27032372,-0.53617835,-8.952366,4993,0
391439029,0.11744029,0.16214003,-0.036797736,4998,0,-0.5876601,-0.40410334,-9.664627,4998,0
391459012,0.02527547,0.12194945,-0.0194845,4996,0,0.14988388,-0.48450392,-10.944048,4996,0
391478997,-0.26809126,0.06932614,-0.02201177,4996,0,-0.32227013,-0.70214844,-10.366041,4996,0
391498982,-0.2975918,0.09316374,-0.008541623,4995,0,-0.06259144,-0.13740312,-9.418641,4995,0
391518967,-0.016341303,0.03837583,0.03538755,4996,0,-0.0845237,0.25517547,-10.156084,4996,0
391538952,0.0652921,-0.06565744,0.034491647,4995,0,-0.08253202,-0.24767204,-9.171204,4995,0
391558938,0.046409875,-0.10758728,0.051642083,4997,0,-0.31149992,-0.16756004,-8.734336,4997,0
391578923,0.088625215,-0.09257153,0.041007508,4996,0,-0.272114,0.135595,-9.101564,4996,0
391598908,0.12182782,-0.0017803283,0.028791524,4997,0,-0.124406576,0.22739156,-9.461849,4997,0
391618894,0.17873359,0.038414106,0.06026001,4999,0,-0.045810062,-0.039995093,-9.772154,4999,0
391638878,0.111046575,0.005725909,0.04348485,4997,0,0.07788324,-0.62681353,-9.773295,4997,0
391658861,-0.024659205,-0.08250296,0.029900795,4994,0,-0.56660485,-0.045053624,-8.9946995,4994,0
391678846,-0.06277244,-0.17129947,0.045295168,4996,0,-0.08738751,0.1948062,-9.620169,4996,0
391698832,-0.037460595,-0.16369747,0.044409525,4996,0,-0.2758745,-0.67586374,-9.863193,4996,0
391718818,0.09096346,-0.05903708,0.07076725,4998,0,-0.1419697,-0.36581138,-9.513265,4998,0
391738802,0.13954115,0.052214798,0.06157824,4995,0,-0.66544163,-0.5309568,-8.940524,4995,0
391758791,0.024113055,0.049358837,0.027695714,5001,0,-0.43990383,-0.019565161,-8.460737,5001,0
391783769,-0.23423925,-0.08271559,0.0006240673,4997,0,-0.33732286,-0.6146908,-9.230628,4997,0
391798758,-0.2959191,-0.15984544,0.013991342,4996,0,-0.6465868,-0.07017243,-9.197723,4996,0
391818741,-0.27032855,-0.15001287,0.047911745,4996,0,-0.046280153,-0.20579782,-10.318172,4996,0
391838727,-0.14710678,0.025692824,0.051907625,4996,0,-0.59659386,0.0849512,-9.678242,4996,0
391858713,-0.10466981,0.123349264,0.0505541,4998,0,-0.02629111,0.030140085,-9.328438,4998,0
391878696,-0.205933,0.0059383092,-0.0025861699,4994,0,-0.64294857,-0.8129568,-9.698447,4994,0
391898683,-0.15410852,-0.21777667,0.043626186,4996,0,-0.6212572,-1.2161328,-12.31405,4996,0
391918668,-0.091875345,-0.21893571,0.0641124,4998,0,-0.6191941,-0.28284812,-9.090236,4998,0
391938652,0.15328705,-0.15264137,0.033802204,4995,0,-0.28402758,0.54681104,-9.230793,4995,0
391958638,0.027649902,-0.089670174,0.023407241,4998,0,0.26244837,-0.5202171,-10.693409,4998,0
391978622,-0.07134888,-0.090708286,-0.029384091,4997,0,-0.46855795,-0.40191662,-9.331264,4997,0
391998608,0.030901143,-0.1639581,0.020570006,4998,0,-0.12375842,-0.3016544,-11.400878,4998,0
392018591,0.07433756,-0.06152459,-0.011886345,4991,0,-0.6294931,-0.20651437,-9.76538,4991,0
392038576,0.25260127,-0.024436885,-0.028019331,4989,0,-0.481343,0.20116532,-10.052244,4989,0
392058562,0.1444698,0.0151656745,-0.067621365,4997,0,-0.5971751,-0.08096024,-9.644851,4997,0
392078546,0.13079005,-0.06275424,-0.03128424,4996,0,-0.05227914,0.12875313,-10.736053,4996,0
392098532,0.08382199,-0.039539736,-0.06415649,4995,0,-0.3550858,0.226115,-8.48416,4995,0
392118516,0.23005079,-0.13358675,-0.0768051,4995,0,-0.10725372,-0.3099172,-10.947902,4995,0
392138501,0.17495044,-0.17204307,-0.0644683,4995,0,-0.5023229,-0.106414676,-8.705594,4995,0
392158487,0.0961101,-0.20009199,-0.048776627,4998,0,-0.24729614,-0.04698273,-10.230504,4998,0
392178470,-0.050525304,-0.14499122,-0.098926775,4996,0,-0.84185165,-0.72673917,-10.318144,4996,0
392203452,0.0043002595,0.02221204,-0.051202413,4993,0,-0.5668688,-0.13234393,-10.340714,4993,0
392218441,0.0155254565,0.03668492,-0.032786552,4997,0,-0.23129597,-0.120956115,-10.51436,4997,0
392238425,-0.10599402,-0.035016846,-0.066308565,4994,0,-0.046730414,-0.34333208,-10.034483,4994,0
392258412,0.035594884,-0.10065538,-0.026098318,4995,0,-0.17764302,0.8052457,-9.452662,4995,0
392283392,0.06507279,-0.12259327,-0.006698282,4997,0,-0.39782822,-0.14772235,-10.770144,4997,0
392298381,-0.0114944205,-0.020724041,-0.010276963,4994,0,-0.25712878,0.33768323,-8.9458065,4994,0
392318366,-0.018056521,-0.09250096,0.01727877,4996,0,-0.4832268,0.089263216,-11.063119,4996,0
392343348,-0.037593246,-0.07200471,0.00558667,4998,0,-0.0115413815,0.22665615,-10.697045,4998,0
392358335,-0.06174382,-0.065766566,0.02068983,4994,0,-0.86758643,-0.06702183,-9.598602,4994,0
392378324,-0.022448821,-0.10302954,-0.024834868,4996,0,-0.3789482,-0.04602003,-11.5246525,4996,0
392398307,-0.054420777,-0.107027926,-0.060039226,4992,0,-1.0618061,0.0036673,-9.625253,4992,0
392423287,-0.07403414,-0.20001736,-0.005730175,4996,0,-0.10571034,-0.083451174,-10.097486,4996,0
392438277,-0.13821,-0.15144885,-0.037742823,4998,0,-0.3511953,0.7181366,-7.760961,4998,0
392458263,-0.041207183,-0.18085633,-0.058996834,4993,0,0.06416013,0.2048365,-10.015572,4993,0
392483242,-0.101565875,-0.15698867,-0.042544305,4996,0,-0.35789272,0.29053238,-8.541315,4996,0
392498230,-0.06334263,-0.15574415,-0.022094825,4996,0,-0.1915299,0.61772823,-8.42321,4996,0
392518215,-0.08484055,-0.19215061,-0.04505633,4994,0,-0.27708074,0.048128124,-9.655812,4994,0
392538200,-0.09962602,-0.09478772,-0.10413708,4996,0,-0.06754202,0.39097992,-8.896895,4996,0
392563181,-0.011180718,-0.07182912,-0.050105605,4996,0,-0.204507,0.593529,-9.148638,4996,0
392578172,-0.022422126,-0.12947327,-0.113410324,4999,0,-0.33390403,-0.00079413963,-10.196884,4999,0
392598156,-0.099219866,-0.09112851,-0.13848092,4994,0,-1.0934328,-0.5843353,-9.675242,4994,0
392623137,-0.14175962,-0.0017625471,-0.0740621,4997,0,0.2976595,0.62207735,-9.383529,4997,0
392638127,-0.16451065,0.06476939,-0.09072827,4998,0,0.02126171,0.38061434,-8.333313,4998,0
392658111,-0.20276104,0.13109484,-0.10460586,4998,0,-0.6655781,-0.5408254,-9.633426,4998,0
392678095,-0.23698656,0.12541066,-0.11163194,4994,0,-0.92799836,-0.11275047,-10.230693,4994,0
392703076,-0.20441988,-0.08615099,-0.054012526,4997,0,0.16577615,0.1863939,-10.692306,4997,0
392718065,-0.21850331,-0.11608861,-0.08764899,4996,0,0.11765193,0.12098946,-9.279367,4996,0
392738049,-0.037408482,-0.0037019274,-0.08363062,4995,0,-0.581599,0.55253774,-8.690984,4995,0
392763031,-0.06466276,0.13217254,-0.06767122,4995,0,-0.96523213,-0.801591,-11.344441,4995,0
392778020,-0.21155238,0.012043047,-0.08360156,4995,0,0.19716543,0.020313319,-10.725714,4995,0
392798005,-0.40654555,-0.038041357,-0.036550835,4994,0,-0.20948371,0.5810783,-8.538357,4994,0
392817989,-0.33006057,0.0067880102,-0.05438738,4995,0,-0.896977,0.37702483,-10.280535,4995,0
392837975,-0.30516165,0.08895995,-0.027260374,4995,0,-0.46836382,-0.5614716,-10.154784,4995,0
392857960,-0.0026887385,0.18770534,-0.04062287,4994,0,-0.36862785,0.3956129,-10.696799,4994,0
392877946,0.00917518,0.21119638,-0.055669148,4998,0,0.023518905,0.16594812,-9.485755,4998,0
392902930,-0.1314091,0.054196604,0.013862248,5001,0,-0.20577914,0.1977222,-9.477371,5001,0
392917917,-0.09148412,-0.0042974968,0.0037040038,4995,0,-0.8918664,0.7905782,-9.513448,4995,0
392937902,-0.116730146,-0.047032896,-0.034216426,4999,0,-0.38264436,-0.09563634,-10.327879,4999,0
392957885,-0.23850904,-0.0773563,-0.025635306,4997,0,-0.11163493,-0.66359514,-11.200987,4997,0
392982866,-0.20278724,-0.019562451,0.009001871,4997,0,0.11275848,0.7974987,-8.863429,4997,0
392997855,-0.08639163,0.13218807,-0.036233004,4995,0,-0.45039883,0.35289758,-9.165113,4995,0
393017839,-0.10296664,0.18577963,-0.04325752,4996,0,-0.56332606,-0.5667335,-9.21111,4996,0
393042823,-0.02929264,0.024250885,-0.041918404,4999,0,-0.4119049,-0.051532585,-10.818167,4999,0
393057811,-0.025793197,-0.039696716,-0.049065072,4996,0,-0.018905949,0.019297864,-10.304358,4996,0
393077795,-0.08655269,-0.01912865,-0.013923875,4997,0,0.16740529,0.57292974,-8.127221,4997,0
393097780,-0.044673346,0.12713641,-0.018325161,4995,0,-0.9420881,-0.002869795,-9.844518,4995,0
393117764,-0.008414617,0.1991349,-0.013709811,4996,0,-0.12379407,-0.5625012,-11.310518,4996,0
393137749,-0.10065872,0.06031872,-0.0074677137,4992,0,0.20444421,0.37991953,-9.021006,4992,0
393157734,0.04953155,-0.017697046,-0.038179945,4996,0,0.17836991,0.63099176,-9.694564,4996,0
393182717,-0.020804968,0.18708423,-0.05682772,4994,0,-0.7638521,-1.0233394,-9.537936,4994,0
393197705,-0.052325413,0.23253863,-0.047872834,4996,0,-0.27107865,-0.5922373,-10.736046,4996,0
393217689,0.10933717,0.08054454,0.0031375608,4996,0,0.53150755,0.48808184,-10.365559,4996,0
393237674,-0.013706927,-0.027407106,-0.010846615,4994,0,-0.31558678,-0.12892333,-8.037532,4994,0
393257660,0.1363228,-0.025447268,-0.04873254,4994,0,-0.6984999,-0.3110486,-10.830586,4994,0
393277644,-0.011232217,0.085346654,-0.03397953,4996,0,-0.422889,-0.7270938,-10.333147,4996,0
393297629,0.13539495,0.08581708,-0.03319676,4996,0,0.07407329,1.056525,-7.998319,4996,0
393322610,0.106750794,0.32617316,-0.024880497,4995,0,-1.1349783,-1.288211,-10.702387,4995,0
393337599,0.024987826,0.2276015,-0.014046876,4995,0,0.114671044,-0.28911382,-9.306974,4995,0
393357585,0.16548352,0.28231722,-0.037359692,4996,0,-0.006324241,0.7933499,-9.441762,4996,0
393377569,0.062536955,0.20978592,0.02293362,4995,0,-0.68834895,-0.74123,-8.376109,4995,0
393397554,0.28865436,-0.059565626,0.029751008,4997,0,-0.3361517,-0.77630454,-10.926722,4997,0
393417540,0.13039201,-0.12786798,-0.007781176,4998,0,-0.2701516,-0.47312897,-9.523693,4998,0
393437525,0.22842944,-0.021548985,0.028264934,4995,0,-0.0447711,0.4863207,-8.323477,4995,0
393462507,0.095587105,0.16481017,0.01715376,4997,0,-0.78423464,-1.3625306,-10.38042,4997,0
393477494,0.0091369515,0.0641351,0.091169626,4995,0,-0.052184,0.17084432,-8.935366,4995,0
393497479,0.24761648,0.00097049354,0.050431762,4995,0,0.014756124,1.0083895,-9.276451,4995,0
393522461,0.16106045,0.03728415,0.011783618,4997,0,-0.92189837,-0.9681426,-8.658618,4997,0
393537449,0.11598727,0.055871747,0.032462437,4996,0,-0.26105216,-0.31135607,-10.436602,4996,0
393557434,0.20521006,0.036122207,0.04993908,4994,0,0.5259051,0.7513965,-9.3938,4994,0
393577419,0.16283762,0.131782,0.010090318,4996,0,-0.7680559,-0.65352464,-7.7948513,4996,0
393602404,0.31669635,0.027911024,0.017035572,5000,0,-0.05511857,-0.13372512,-12.168644,5000,0
393622385,0.21093981,0.041511953,0.04877171,4995,0,0.37034628,0.28674692,-7.196863,4995,0
393637374,0.03626348,0.34390643,0.024277598,4996,0,-1.0142926,-1.430044,-10.098131,4996,0
393662355,-0.3026351,0.23578952,0.050218057,4995,0,0.1543859,-0.37417606,-9.181678,4995,0
393677344,-0.0736221,0.051708806,0.08494123,4997,0,0.9218231,0.9621154,-11.468049,4997,0
393697329,0.23545942,-0.03327985,0.055736892,4996,0,-0.63368106,0.12017448,-10.934376,4996,0
393717315,0.2662648,-0.053682003,0.056922708,4998,0,-0.41404113,-0.473809,-9.399594,4998,0
393742294,0.37775135,-0.0002822,0.101999044,4995,0,-1.4812264,-0.9140555,-10.679411,4995,0
393762281,0.37402886,-0.07796069,0.14008391,4998,0,-0.3925422,-0.19122964,-10.709307,4998,0
393777268,0.4996674,-0.14114276,0.14151773,4996,0,1.0909336,0.26417473,-10.628955,4996,0
393802249,0.2196747,0.17873089,0.09503999,4996,0,-1.0155394,0.015016162,-10.102073,4996,0
393822234,0.26526177,0.211417,0.1250217,4995,0,0.78035474,-0.85401106,-11.936962,4995,0
393837223,0.22849235,0.20939279,0.0011985828,4996,0,0.2577042,-0.34769392,-8.728677,4996,0
393857208,0.70455146,-0.032411765,-0.0077318544,4996,0,0.41274568,0.4047016,-10.877275,4996,0
393882192,0.37218264,-0.26481476,0.00400012,4999,0,0.6481056,-0.6406781,-9.7821455,4999,0
393902177,0.10369324,-0.16369708,0.03984465,4999,0,0.55085087,0.3289226,-10.062343,4999,0
393917163,0.3536585,0.010839549,0.07710077,4996,0,0.82728827,1.0763805,-6.794743,4996,0
393942144,0.6387201,0.29053953,0.04041989,4996,0,0.27301922,1.0731182,-11.445108,4996,0
393962130,0.41403276,0.12959614,0.03625864,4995,0,-0.59215844,0.075222425,-7.608851,4995,0
393977118,0.14359559,0.09585898,-0.0007952689,4996,0,-0.15533331,-0.02520844,-11.328532,4996,0
393997103,0.17872652,0.088720635,0.074010566,4996,0,0.2950022,0.5659165,-8.159119,4996,0
394022084,0.16417408,0.35994643,-0.0443142,4992,0,0.47175723,0.33399618,-10.697813,4992,0
394042069,0.028441992,0.24039502,-0.020080276,4996,0,0.15501954,0.25526336,-6.0269766,4996,0
394057058,-0.08828828,0.23166819,0.034101374,4996,0,-0.5276369,-0.6580906,-9.536505,4996,0
394082039,0.29988462,0.028671328,-0.029156832,4996,0,1.0661201,0.91073334,-10.405678,4996,0
394102024,-0.07640043,0.28179497,0.01649613,4996,0,-0.87095857,-1.8715438,-9.233126,4996,0
394117013,-0.020580541,0.0951841,0.04295504,4996,0,1.4183075,1.5136307,-7.453866,4996,0
394136999,-0.2648578,0.26741114,-0.08158096,4997,0,-0.6553829,-0.56536996,-12.112839,4997,0
394161979,-0.030522883,0.301075,-0.059011895,4996,0,-0.86945474,-1.1112844,-6.4154687,4996,0
394181964,0.26964253,0.16199903,-0.01584776,4997,0,1.0738525,2.5306683,-11.316467,4997,0
394196953,-0.144325,0.41538516,-0.037268598,4996,0,-1.1254729,-1.4498631,-12.285744,4996,0
394221935,-0.54648757,0.20159967,-0.13815975,4997,0,-1.536986,-0.6043542,-12.196228,4997,0
394241919,-0.66912794,0.07702518,0.041762915,4997,0,-1.3420311,-0.010869547,-7.2207093,4997,0
394256907,-0.38068348,0.004292581,-0.0016996425,4995,0,1.476343,0.85524637,-12.910202,4995,0
394276893,-0.22038807,0.34664217,-0.08323537,4996,0,-1.6396449,-0.7566645,-11.5955925,4996,0
394301874,-0.33036852,0.17274538,-0.1309163,4995,0,-0.58965945,-1.7090888,-10.159863,4995,0
394321859,-0.5523179,0.04235185,-0.07016626,4997,0,1.2948723,0.2965214,-10.08687,4997,0
394336847,-0.50691664,0.23740955,-0.049335152,4996,0,-0.05812865,0.3109338,-11.709424,4996,0
394361829,0.41847485,-0.009477139,-0.17250808,4997,0,-2.091944,-1.2718376,-9.80753,4997,0
394381815,0.6107405,-0.320301,-0.098867826,4997,0,-0.99627435,-1.4179667,-7.0005617,4997,0
394396803,0.002176711,-0.104673356,-0.053286772,4997,0,-1.0659522,-0.86079925,-8.679534,4997,0
394421784,-1.0066895,0.25486514,0.03929581,4996,0,0.43888903,-0.85850763,-11.398767,4996,0
394441768,-0.46842363,-0.04573134,-0.06956395,4995,0,-1.12738,-0.6241587,-9.748142,4995,0
394461754,0.67326397,-0.20944442,-0.06427533,4995,0,1.2359586,2.1939855,-10.234846,4995,0
394476743,0.7464455,-0.021138169,-0.11073638,4997,0,-0.46383122,-0.31034908,-10.628192,4997,0
394501723,-0.23945539,0.1693938,-0.046250567,4996,0,-0.4647466,-2.376055,-8.646955,4996,0
394521709,-0.8465529,-0.22417855,0.037954018,4996,0,1.4183297,0.21041538,-12.860366,4996,0
394536698,-1.1580933,-0.119009204,-0.045535397,4997,0,-1.0738794,-2.392608,-8.7129135,4997,0
394561680,-0.4096619,-0.06568742,-0.09961754,4996,0,-0.6748587,-1.4799416,-7.2139783,4996,0
394581663,0.19061482,-0.099049725,-0.03963132,4996,0,-0.18167582,1.4949422,-7.2863336,4996,0
394601649,0.29604006,-0.0900604,-0.077298105,4995,0,2.1262672,1.0240939,-12.797549,4995,0
394616637,-0.19499235,-0.0318557,-0.14849325,4996,0,0.4659642,-2.7491634,-10.831349,4996,0
394641620,-0.4372748,-0.2520341,0.019070435,4998,0,1.7290258,0.5722689,-11.972131,4998,0
394661607,-0.6294295,-0.1495035,-0.03227131,5000,0,2.41367,0.47881305,-12.722506,5000,0
394676592,-0.7053407,0.050274886,-0.047501255,4994,0,-0.73040587,-0.1041529,-11.208445,4994,0
394701573,0.30678675,-0.3158172,-0.15574825,4994,0,-0.25698683,-0.771808,-6.28541,4994,0
394721563,0.36265585,-0.42344177,-0.050403263,4999,0,0.9670968,-0.018183738,-9.326435,4999,0
394741543,-0.4565324,-0.3403618,0.0028109069,4995,0,-0.33488533,-0.7038846,-11.420477,4995,0
394756532,-0.8366061,-0.22522005,-0.007960733,4996,0,2.3959782,1.1085727,-10.190843,4996,0
394781514,0.08102173,-0.056200597,-0.073912755,4997,0,0.56589025,2.4030619,-10.628632,4997,0
394801498,0.4095085,0.008735483,0.00070175965,4995,0,-0.67291844,-1.4482079,-14.052751,4995,0
394816486,0.45833036,-0.104495876,-0.020454329,4994,0,1.6599966,1.9023533,-7.1693034,4994,0
394841468,-0.4475353,-0.077114336,-0.025695711,4996,0,-0.24112682,-0.8298071,-8.102577,4996,0
394861453,-0.60387164,-0.26915482,0.00619866,4996,0,1.5358183,0.904446,-9.429281,4996,0
394881439,-0.09392402,-0.27609867,-0.000425924,4998,0,0.33263895,0.97936815,-11.77326,4998,0
394896427,0.19750485,-0.41580698,-0.05893406,4995,0,0.20661178,-0.051010627,-6.692038,4995,0
394921408,0.12682313,0.0042978125,-0.061247494,4996,0,0.19076997,-0.6769279,-5.910583,4996,0
394941393,0.15183628,-0.06616601,-0.03969634,4997,0,1.001334,1.2500612,-11.191426,4997,0
394956383,-0.5052436,-0.027755963,-0.016502138,4997,0,1.0844625,-0.6451146,-11.83962,4997,0
394981363,-0.19886765,-0.23782896,0.016871333,4997,0,-0.77374834,-0.040413547,-11.093584,4997,0
395001348,-0.19237001,-0.29899886,-0.022380862,4997,0,-0.24392878,0.07740535,-7.077333,4997,0
395021333,-0.119960375,-0.036132734,0.011040358,4996,0,1.5029165,-1.0522887,-11.533769,4996,0
395041318,0.0005717937,0.06704839,-0.042743362,4996,0,-2.427714,-1.2581437,-8.6659775,4996,0
395061303,0.32184395,-0.10922516,0.015372177,4995,0,1.8608639,1.4628456,-10.648266,4995,0
395081288,-0.068144634,0.24174766,-0.122653514,4996,0,-0.008727184,-0.48900223,-10.924777,4996,0
395096278,-0.04689185,0.007399627,0.0297724,4998,0,1.7321432,-0.7245763,-7.7213283,4998,0
395121258,-0.12828992,-0.0988167,0.026092805,4997,0,1.0714636,-0.578761,-9.903023,4997,0
395141244,0.28359216,-0.32745257,-0.015078196,4998,0,0.59887654,-0.24322546,-6.592203,4998,0
395161229,0.5398921,-0.07552729,-0.011317856,4998,0,-0.40627024,-2.125598,-11.763873,4998,0
395181213,0.21685658,-0.0043459,-0.017054005,4997,0,-0.75860214,0.82521594,-6.5668907,4997,0
395201198,-0.037436478,-0.25758025,0.051092688,4996,0,1.2480266,0.26352575,-9.844307,4996,0
395221183,-0.19749509,0.05547558,0.0026795936,4997,0,0.29160488,-0.016827973,-11.852984,4997,0
395241168,0.047585186,-0.02618904,-0.035350055,4996,0,0.38125643,0.9252165,-7.152491,4996,0
395261153,0.26739508,0.13658692,0.01981406,4997,0,0.43986863,-1.8058801,-10.564261,4997,0
395281138,0.43427163,-0.12852971,0.014983854,4997,0,1.0367548,0.75710016,-6.723082,4997,0
395301123,0.13006996,-0.07829256,0.013369897,4997,0,0.41774663,-0.47715408,-14.273227,4997,0
395321108,-0.23641585,0.22797321,-0.015592404,4997,0,-1.2716621,-0.7755139,-6.369712,4997,0
395341093,0.19414282,0.1342284,-0.0028584115,4997,0,1.6450791,0.1467814,-9.252111,4997,0
395361078,0.21847996,0.2380314,-0.02441965,4996,0,-0.24796848,-0.23309393,-11.754032,4996,0
395381063,0.5861256,-0.02569354,0.010683647,4997,0,0.58581847,1.318695,-9.0698185,4997,0
395401047,0.12836112,0.16254471,-0.008388371,4995,0,1.0046316,0.30963638,-11.474697,4995,0
395421033,-0.10080116,0.15140837,0.032974865,4997,0,-2.0484812,-1.2029153,-6.3646245,4997,0
395441017,0.17034067,0.14801407,-0.030525811,4996,0,1.3562763,-0.42299962,-8.293523,4996,0
395461002,0.25868005,0.35660154,-0.11149153,4994,0,0.25024474,0.34500396,-10.997309,4994,0
395480988,0.69920075,0.33377117,-0.046911906,4996,0,-0.6991287,-0.16997622,-9.786823,4996,0
395500973,0.48796085,-0.03346796,0.008942518,4997,0,1.704084,0.85695964,-10.409674,4997,0
395520958,-0.107013635,-0.17362902,-0.025304358,4997,0,1.6326807,1.6114721,-12.406371,4997,0
395540943,-0.37313694,-0.08088394,-0.019357221,4995,0,0.5383478,1.3312998,-10.25484,4995,0
395560927,0.094506375,0.17512792,-0.01627812,4994,0,-1.1055249,-2.1010458,-8.034792,4994,0
395580913,0.43679765,0.18742393,-0.032193366,4996,0,0.86957574,0.15452287,-5.007454,4996,0
395600897,0.41351524,-0.11248157,-0.06369583,4996,0,1.1647378,0.669534,-10.687395,4996,0
395620882,0.12737487,-0.1772285,-0.07728999,4995,0,0.12708397,1.3709861,-13.243555,4995,0
395640867,-0.30271327,0.012218143,0.030740336,4996,0,1.4464908,1.2383014,-13.489377,4996,0
395660854,-0.36051753,0.433834,-0.06028259,4998,0,1.2221612,0.46623075,-11.473561,4998,0
395680837,0.33175522,0.18575591,-0.07977637,4996,0,-1.0294361,0.3341319,-8.740361,4996,0
395700822,0.7948003,-0.101113394,-0.035277557,4996,0,2.0978913,3.1011834,-12.6547785,4996,0
395720807,0.23013167,-0.35601106,0.015403588,4995,0,1.8494617,2.0869899,-13.687811,4995,0
395740792,-0.44544375,-0.4461375,0.008720394,4996,0,1.6376927,2.2615383,-11.753278,4996,0
395760778,-0.49548793,-0.012806378,-0.008902996,4996,0,1.2476057,1.9943596,-9.728914,4996,0
395780762,0.061338868,0.27339524,0.00040101216,4996,0,1.4210985,1.4348389,-9.470084,4996,0
395800747,0.4714793,0.27625608,-0.014065004,4996,0,-0.21669804,0.43095404,-13.852821,4996,0
395820732,0.14373302,-0.09870184,-0.034084123,4996,0,-0.8755707,-0.070987016,-12.100523,4996,0
395840717,-0.21459642,-0.18431862,0.010830758,4996,0,-0.75331575,-0.675716,-11.917357,4996,0
395860704,-0.21644294,-0.16265966,-0.00060965685,4998,0,-0.23586473,-0.15794992,-12.710169,4998,0
395880687,0.12439727,-0.25359005,-0.09239432,4996,0,1.8735906,1.1478925,-13.830177,4996,0
395900672,0.16114676,-0.1834667,-0.0670821,4996,0,1.6199948,2.7662106,-9.547218,4996,0
395920657,0.014829067,0.15601295,0.03898151,4994,0,-0.5590102,-0.01875519,-8.798883,4994,0
395940642,-0.03953756,0.582025,-0.029862842,4996,0,-0.75356996,-2.2667236,-8.718931,4996,0
395960628,-0.112507604,0.07808884,0.04318767,4997,0,-0.44050696,-2.2875502,-8.142803,4997,0
395980612,-0.4249144,-0.26538628,-0.07832351,4996,0,-1.2568182,-2.5730166,-7.93489,4996,0
396000597,-0.5388206,-0.10399348,0.02718659,4996,0,-1.8169718,-1.6824018,-9.045163,4996,0
396020582,-0.053912636,0.28399968,0.009086182,4996,0,-1.1801664,-0.59768784,-10.54164,4996,0
396040567,0.56967616,0.42763886,-0.08669257,4996,0,-0.5132704,0.47051385,-8.299469,4996,0
396060553,0.37062332,0.31643352,-0.05012746,4997,0,-1.4460156,-0.8529464,-7.4161954,4997,0
396080537,-0.29395124,0.10728953,-0.07997739,4997,0,-0.78211486,-0.5310265,-9.985715,4997,0
396100521,-0.50116074,-0.033126034,0.0055552893,4995,0,1.1905069,2.120449,-10.129811,4995,0
396120509,-0.37450123,-0.07334189,0.034996767,4998,0,1.5795445,1.438575,-9.848046,4998,0
396140493,0.19489688,-0.071427934,-0.04332419,4998,0,1.6317735,1.9598135,-9.528688,4998,0
396160478,0.32429156,0.074900776,-0.08741984,4997,0,1.6077776,1.25434,-11.080219,4997,0
396180462,-0.003513615,-0.054695707,0.025768053,4997,0,0.46646085,2.0544994,-11.411242,4997,0
396200448,-0.628157,0.09949914,-0.020082887,4997,0,-0.04401757,-0.92240715,-7.5058503,4997,0
396220434,-0.47727057,0.18761484,-0.038559582,4996,0,-0.5824689,-1.4284369,-7.2014446,4996,0
396240421,0.097203344,-0.0874509,-0.016795823,4998,0,-0.103454426,1.1897647,-7.1643324,4998,0
396260402,0.25987044,-0.2550754,-0.00077398715,4995,0,1.019489,1.6208458,-10.649505,4995,0
396280387,-0.49917054,-0.17093775,0.0031242461,4997,0,1.2757593,-1.1783544,-6.4735556,4997,0
396300372,-0.87399405,-0.16312169,0.08303086,4996,0,-1.3619277,0.37926173,-7.142709,4996,0
396320357,-0.7354484,0.1323539,-0.01563966,4996,0,0.559416,0.92439646,-8.601923,4996,0
396340342,-0.20428687,0.10022545,0.064153135,4996,0,1.2799765,1.0746123,-11.918099,4996,0
396360327,0.25254968,0.15009628,0.0016550688,4994,0,-2.091711,0.04243024,-8.537897,4994,0
396380312,0.36917883,-0.1414807,-0.059036538,4996,0,1.2723155,0.6939377,-8.834636,4996,0
396400297,-0.15596472,-0.2287839,0.050690778,4997,0,1.2848084,1.6210861,-9.121634,4997,0
396420283,-0.4984557,-0.115320675,-0.0015218098,4997,0,1.9210917,1.5850005,-8.417298,4997,0
396440268,-0.25635284,-0.14582035,0.020710701,4998,0,2.2921362,1.1172655,-11.631685,4998,0
396460251,0.010370152,0.2044215,-0.07448526,4994,0,-1.0297595,-0.215936,-10.708911,4994,0
396480236,-0.14683384,0.35596168,0.0332005,4996,0,-1.6253277,-1.1240803,-8.357768,4996,0
396500221,-0.37594724,0.25185433,0.056105882,4996,0,-1.7063543,-1.4505247,-7.930702,4996,0
396520206,-0.41956607,0.029099602,0.027116966,4995,0,-1.0361396,-0.75462854,-8.407764,4995,0
396540191,-0.035568595,-0.29468265,-0.013676228,4996,0,1.676702,1.748339,-9.499714,4996,0
396560176,0.15955731,-0.21090397,-0.0023330187,4996,0,1.2000285,0.95394313,-13.0471115,4996,0
396580161,-0.011590679,0.15939537,-0.021843912,4996,0,0.26971066,0.31181878,-12.207457,4996,0
396600146,0.010090368,0.52834946,-0.007625025,4996,0,0.057579,0.43496767,-10.943213,4996,0
396620131,0.2955108,0.2966626,0.052042477,4996,0,-0.5233288,-0.106702074,-12.2283535,4996,0
396640116,0.1152658,-0.3245904,0.045008704,4994,0,0.31831914,0.8364193,-10.287418,4994,0
396660101,0.041597713,-0.5693766,0.06242611,4996,0,1.7717446,1.6849195,-11.83315,4996,0
396680086,0.43509597,-0.19348952,0.056991138,4991,0,1.146254,1.2019144,-12.916647,4991,0
396700071,0.45302513,0.19362777,-0.06046721,4996,0,-0.012264563,-0.61326987,-11.6166,4996,0
396720056,0.0082616,0.30136693,0.032836642,4995,0,-0.57794774,1.0911862,-13.268952,4995,0
396740042,-0.28113732,0.24097447,-0.0012047745,4996,0,-0.49383774,-0.28403983,-12.408173,4996,0
396760030,0.107963264,-0.1794903,-0.013798863,5000,0,-0.4589566,1.2965232,-10.805111,5000,0
396780011,0.3558785,-0.11675157,0.065703966,4994,0,0.7588918,0.42118323,-12.737394,4994,0
396799996,0.3902825,0.18393394,-0.008220836,4997,0,-0.90745586,-2.2155938,-9.483394,4997,0
396819981,0.34088504,0.043446317,-0.02507226,4994,0,-1.6922818,-1.8572555,-8.122676,4994,0
396839967,0.2166052,-0.109326646,-0.033499945,4997,0,-0.8337887,-0.40924838,-7.9229426,4997,0
396859952,0.27063823,0.0077092913,0.01124269,4997,0,-0.9823488,-0.41970953,-8.743109,4997,0
396879936,0.39236653,0.10200614,0.00035611473,4989,0,0.06319073,-0.5170353,-10.791382,4989,0
396899922,0.31171227,-0.13044685,0.025693435,4997,0,1.9751074,0.33335084,-10.876299,4997,0
396919906,-0.22864747,-0.36698815,0.00051526725,4996,0,2.4447725,0.6762778,-13.089228,4996,0
396939891,-0.14681347,-0.070392415,-0.03422228,4994,0,-0.53676987,0.075006306,-11.591724,4994,0
396959877,0.42270285,0.4809057,0.041269965,4997,0,-0.9750099,-2.2559972,-9.356889,4997,0
396979862,0.40249905,0.12775066,-0.0066627758,4997,0,1.5865076,0.42771757,-9.096183,4997,0
396999846,-0.0025991811,-0.033421583,-0.08275464,4997,0,1.0291944,-1.9522899,-14.099403,4997,0
397019831,-0.109884694,-0.045668017,0.018780451,4997,0,-1.2826985,-1.4173038,-10.368155,4997,0
397039816,-0.044872373,0.03785674,0.020426024,4995,0,-0.17980708,-0.3463525,-5.5191407,4995,0
397059803,0.2688873,0.2351091,-0.062070742,4998,0,0.8871403,0.33429664,-11.036214,4998,0
397079786,0.43629643,0.25675413,-0.06495485,4994,0,-0.71410257,-1.8709148,-11.547272,4994,0
397099771,0.46339688,-0.29745516,-0.035053916,4996,0,1.9822526,-0.28046072,-8.179402,4996,0
397119756,0.3465929,-0.41696244,-0.06081973,4996,0,1.8595343,1.7119484,-12.129177,4996,0
397139743,0.10082388,-0.26440465,0.03898834,4998,0,1.8034976,2.3496823,-13.793737,4998,0
397159727,0.015370763,-0.004800783,-0.02239564,4997,0,2.5118513,2.3994238,-11.730162,4997,0
397179713,-0.046238616,0.28576767,-0.043811444,4997,0,0.9996288,0.13711868,-10.658555,4997,0
397199696,0.322704,0.17734483,-0.051018715,4995,0,-0.3330301,0.38724837,-7.0095167,4995,0
397219681,0.39165688,-0.24770717,0.01629906,4994,0,0.7299014,2.3948796,-9.342148,4994,0
397239671,0.119683236,-0.12612027,0.030690845,5001,0,1.8020947,1.3782536,-11.947777,5001,0
397259651,-0.18136252,0.03783068,-0.0696751,4994,0,0.24470781,-0.6860614,-13.311761,4994,0
397279636,-0.20243312,-0.01809869,-0.05035623,4996,0,-1.4209241,-1.3555605,-12.411134,4996,0
397299622,-0.00019985982,-0.004461108,8.1078666e-05,4998,0,-0.080983214,1.4709201,-8.367979,4998,0
397319606,0.08287269,0.08036928,-0.017890718,4996,0,2.2517233,2.137312,-9.727085,4996,0
397339590,-0.043312646,-0.122569144,-0.07538039,4995,0,0.035656296,0.15973435,-13.591296,4995,0
397359577,0.049635354,-0.25916213,-0.01927475,4998,0,0.6053585,1.5751979,-9.699835,4998,0
397379561,0.15182781,-0.31916973,-0.050687347,4997,0,2.1860073,1.4261932,-7.779114,4997,0
397399547,-0.22526446,-0.001250421,0.026129086,4998,0,1.3101994,-0.2640355,-10.303741,4998,0
397419530,-0.39557165,0.25909504,-0.030973934,4995,0,0.5621296,-0.9717082,-12.576229,4995,0
397439516,-0.20581439,0.16849871,-0.047722377,4997,0,0.023196783,-1.3459393,-6.8942842,4997,0
397459502,0.21498333,0.10495856,-0.040946543,4998,0,1.1249048,0.30638593,-9.642469,4998,0
397479486,0.1918901,0.13125975,0.056753505,4995,0,-1.2647958,-1.4681807,-9.767773,4995,0
397499473,0.057727393,-0.08512216,-0.12558141,4999,0,2.4769452,1.9618773,-10.936987,4999,0
397519455,-0.15999153,-0.008973378,0.04529412,4996,0,-0.06587661,-0.39135504,-13.113811,4996,0
397539441,-0.0022000875,-0.16028388,-0.006828072,4997,0,0.13999349,0.5808854,-7.596142,4997,0
397559426,-0.051858403,0.041747484,0.05765859,4997,0,1.357179,1.4427049,-10.137637,4997,0
397579411,0.10563584,0.1186725,-0.029234836,4996,0,-1.1590867,-0.47830227,-7.098971,4996,0
397599396,0.17773761,-0.07516021,0.0615771,4996,0,1.6026447,1.8714737,-10.536202,4996,0
397619380,-0.17365769,0.008376589,-0.021677716,4996,0,-1.3108691,-1.5424976,-10.899518,4996,0
397639366,-0.35715592,-0.13652526,0.042823438,4997,0,-0.21523057,-0.65673417,-7.9476576,4997,0
397659351,-0.25662014,-0.10953938,0.048951957,4989,0,0.8677291,-0.2687075,-13.746656,4989,0
397679335,0.069167584,-0.094661936,-0.020372743,4994,0,-0.24621245,-0.19161433,-6.569914,4994,0
397699320,0.056793664,-0.056569543,0.0034633577,4993,0,-0.114829436,-0.5408122,-10.519031,4993,0
397719305,0.04564023,-0.09978234,-0.09313836,4996,0,-0.80009174,-0.11670687,-9.529534,4996,0
397739290,-0.11933764,-0.06829752,0.08470435,4994,0,1.8915054,1.6461717,-11.277822,4994,0
397759277,-0.2547831,0.14929226,-0.050489083,4998,0,0.62086856,-0.11540899,-13.448749,4998,0
397779261,0.14861736,-0.36675403,0.014209496,4995,0,1.2906243,0.92245924,-7.4775753,4995,0
397799245,0.14597964,-0.24701136,-0.12083398,4994,0,0.45854646,-0.34271872,-12.714123,4994,0
397819231,-0.09283605,0.011293182,-0.031273946,4995,0,-0.75257003,-0.94052464,-10.873084,4995,0
397839216,-0.14827645,-0.013173815,-0.06239245,4995,0,-0.21396816,-0.13423784,-7.7756057,4995,0
397859201,0.03317913,-0.14542857,-0.112340346,4997,0,1.4449687,2.1372998,-9.999155,4997,0
