timestamp,gyro_rad[0],gyro_rad[1],gyro_rad[2],gyro_integral_dt,accelerometer_timestamp_relative,accelerometer_m_s2[0],accelerometer_m_s2[1],accelerometer_m_s2[2],accelerometer_integral_dt,accelerometer_clipping
819169997,-0.004015344,-0.00015101947,-0.01097123,4997,0,0.043879557,-0.0752331,-9.811808,4997,0
819174995,-0.0036366414,-0.0016224041,-0.011590416,4998,0,0.031240202,-0.056626823,-9.826278,4998,0
819194980,-0.0051633045,-0.0011248447,-0.009685537,4997,0,0.052429464,-0.03545972,-9.833065,4997,0
819214966,-0.004985371,-0.0024059552,-0.01115644,4996,0,0.049776457,-0.075649835,-9.851336,4996,0
819234953,-0.0059971944,-0.0048490143,-0.022398623,4997,0,0.080941394,-0.19911617,-9.851832,4997,0
819254939,-0.006873411,-0.004817192,-0.04766965,4996,0,0.025455525,-0.047369264,-9.798702,4996,0
819274926,-0.008219352,-0.01043771,0.009630438,4997,0,0.1967367,0.08291222,-9.743046,4997,0
819294912,-0.012361385,-0.005509816,-0.013727113,4997,0,0.18428361,-0.0396214,-9.792221,4997,0
819314900,-0.018862328,-0.00531034,-0.023343282,4998,0,0.07465089,-0.15170449,-9.69474,4998,0
819334885,-0.017994389,-0.0044845105,0.0048871743,4996,0,0.061890513,-0.109430715,-9.758984,4996,0
819354872,-0.005687109,0.004040211,-0.026324252,4997,0,0.032684322,-0.035772517,-9.705064,4997,0
819374858,-0.008036587,0.005482896,-0.0060773524,4997,0,-0.034701638,-0.072023824,-9.681141,4997,0
819394845,-0.004625141,0.016209072,-0.009718325,4997,0,-0.046826974,-0.12724735,-9.587618,4997,0
819414832,-0.0038608627,0.005633485,-0.01971667,4997,0,-0.08642387,-0.014034641,-9.706047,4997,0
819434818,-0.01281755,-0.0006101358,-0.00541009,4997,0,0.01658219,-0.07906876,-9.657657,4997,0
819454805,-0.006520071,-0.0017456145,-0.014669906,4997,0,0.14015545,-0.14914468,-9.660278,4997,0
819474791,-0.008070041,-0.006187083,-0.004611243,4995,0,0.011028526,-0.072381884,-9.773818,4995,0
819494778,-0.0031832037,-0.003934222,-0.027358964,4997,0,0.13914365,-0.13871096,-9.833221,4997,0
819514766,-0.00071271154,0.0011171229,0.0010115365,4998,0,0.13834834,0.14590593,-9.908189,4998,0
819529754,-0.007549877,-0.0003765345,-0.024793712,4997,0,-0.06623885,-0.09544576,-9.758651,4997,0
819554737,-0.007559251,0.0009998449,-0.024806105,4996,0,0.04413204,-0.037702344,-9.814069,4996,0
819574724,-0.0071693887,-0.004094765,-0.011763803,4997,0,0.05368911,-0.10359229,-9.81975,4997,0
819594711,-0.0008809302,0.0028421883,-0.027572865,4994,0,0.048777785,-0.109576255,-9.788209,4994,0
819614699,-0.00044726505,0.002579382,-0.02344994,4999,0,-0.016907392,-0.14874993,-9.816934,4999,0
819634683,0.00928228,0.00015857331,-0.017908651,4996,0,-0.11424721,-0.30049857,-9.904265,4996,0
819654674,-0.009978784,-0.0053334325,-0.0236906,5000,0,0.048161317,-0.3464787,-9.570952,5000,0
819674657,-0.031758875,0.0011957919,-0.015443419,4996,0,-0.3835541,-0.14766277,-9.929107,4996,0
819694643,-0.015204786,0.012915017,-0.042163692,4996,0,-0.39881316,-0.27730194,-9.785863,4996,0
819714630,0.0067625022,-0.02055674,-0.0012571473,4997,0,-0.57449955,0.24235354,-10.04797,4997,0
819734617,0.00651319,0.02176758,-0.004985846,4997,0,0.07972516,1.1447893,-9.757571,4997,0
819754603,0.00016704868,0.00790096,-0.048686266,4997,0,-0.19556579,-0.9871845,-9.752948,4997,0
819774590,0.0007673692,0.023279525,0.07161761,4997,0,0.8594553,0.9764289,-9.701274,4997,0
819794576,0.0019316179,0.0073515126,-0.055452343,4996,0,-0.34304008,-1.5989223,-9.849194,4996,0
819814564,0.0047643916,0.005225832,-0.043301243,4998,0,1.0803403,1.0755986,-9.391224,4998,0
819834552,0.008953195,0.019996027,0.10402537,4999,0,-0.21378462,-1.4509751,-9.841369,4999,0
819854536,-0.012667416,0.009994149,-0.120496474,4997,0,1.1699625,0.8507399,-9.607632,4997,0
819874522,0.003948644,0.01704525,0.01360749,4996,0,-0.49805555,-1.0612855,-9.639797,4996,0
819894509,0.017171998,0.012651023,0.12654841,4997,0,1.1619179,0.72660816,-9.662625,4997,0
819914495,-0.005583444,0.009884857,-0.23042634,4996,0,-0.47776344,-0.9299803,-9.770462,4996,0
819934482,0.023488503,0.0076618227,0.15317391,4996,0,0.6643051,0.8997096,-9.602078,4996,0
819954468,0.00094591646,0.010332003,0.01590615,4996,0,-0.47645608,-0.68130136,-9.785657,4996,0
819974455,-0.011729982,0.0077260113,-0.19979239,4995,0,0.95691097,0.7048905,-9.999002,4995,0
819994442,0.017356843,0.014417235,0.22982146,4997,0,-0.7826165,-0.6749714,-9.632178,4997,0
820014430,0.003225214,0.02443558,-0.151964,4998,0,0.905498,0.5460725,-9.785229,4998,0
820034414,0.007244701,0.020855673,-0.055506475,4996,0,-1.0747097,-0.77460665,-9.786113,4996,0
820054402,0.02130952,0.03281096,0.1951727,4997,0,0.73969215,1.1793691,-9.631152,4997,0
820074388,-0.02997988,-0.0011803791,-0.28442258,4996,0,-1.0973861,-1.1044983,-9.873429,4996,0
820094374,0.031874396,0.015386999,0.1802183,4996,0,0.8722068,1.4198558,-9.931261,4996,0
820114361,-0.013687184,0.012776899,-0.0035556667,4996,0,-0.7084567,-1.3724748,-9.627685,4996,0
820134348,0.0003387223,0.0100923935,-0.20526251,4997,0,1.1763037,1.648388,-9.709022,4997,0
820154334,0.006468565,0.030420154,0.25222823,4996,0,-1.3746775,-1.1191335,-9.600564,4996,0
820174321,0.01693436,0.011884186,-0.20468977,4997,0,1.4116944,1.3635566,-9.838585,4997,0
820194307,0.0091304295,0.02685207,0.002524558,4995,0,-1.7922633,-0.94467163,-9.849588,4995,0
820214294,0.044597268,-0.00054545637,0.16334596,4997,0,1.2870433,1.1188868,-9.76608,4997,0
820234281,-0.030354304,0.04970953,-0.294144,4997,0,-1.7477969,-0.82315415,-9.597239,4997,0
820254267,0.056064382,-0.0059520886,0.21747656,4995,0,0.16185409,1.1097009,-10.0475645,4995,0
820274253,-0.010781628,0.034541346,-0.07970279,4996,0,-1.2620864,0.09116867,-9.497781,4996,0
820294240,0.022647543,-0.010051037,-0.14272183,4996,0,-0.12248814,0.73170984,-10.00587,4996,0
820314228,0.017040098,0.033527385,0.24525033,4995,0,-0.792751,1.1300926,-9.398756,4995,0
820334213,0.009475815,-0.012241012,-0.2668668,4996,0,0.08399762,0.13189454,-9.951908,4996,0
820354200,0.0034527779,0.008818773,0.10962677,4997,0,-0.66381645,2.0198922,-9.743176,4997,0
820374186,0.03253357,0.0035481502,0.03578611,4995,0,-0.23930222,-0.50224364,-10.167694,4995,0
820394173,-0.011040865,0.021076676,-0.23761728,4996,0,-0.5222645,2.0714617,-9.579221,4996,0
820414161,0.03026357,0.0076618367,0.2458208,4998,0,-1.1430448,-0.31917772,-10.166339,4998,0
820434147,-0.019917987,0.008211407,-0.19663881,4998,0,-0.12277151,2.0293024,-9.794657,4998,0
820454133,0.005263509,0.0027027742,-0.018670354,4996,0,-1.8303996,-0.4745401,-10.239389,4996,0
820474119,-0.0121791735,-0.0035374153,0.16349415,4995,0,0.44422403,1.3137197,-10.000023,4995,0
820494107,-0.023701256,0.005906636,-0.29732665,4997,0,-1.8574237,-0.8254305,-9.80363,4997,0
820514093,0.007793203,-0.03132478,0.22514968,4997,0,0.24383582,1.8527573,-10.205164,4997,0
820534079,-0.044042535,-0.00831056,-0.103951715,4996,0,-0.8902387,-1.1220953,-10.043937,4996,0
820554065,-0.01618182,-0.022034973,-0.12621848,4996,0,0.58885425,0.86224896,-9.97954,4996,0
820574052,-0.0040278565,-0.014851812,0.23156427,4996,0,-0.8976258,-0.9097105,-9.93769,4996,0
820594038,-0.018373026,-0.025222523,-0.27175164,4996,0,1.3591129,0.45564845,-10.3657675,4996,0
820614026,-0.012085471,-0.010788152,0.14182948,4994,0,-0.8038767,-0.8258668,-9.835171,4994,0
820634012,-0.0082602715,-0.0003232928,0.041058164,4994,0,1.7327272,-0.041967653,-9.786748,4994,0
820653999,-0.040272046,0.0005085336,-0.21870922,4998,0,-0.83943105,-1.5968761,-9.761139,4998,0
820673985,0.02517532,-0.023146218,0.27743644,4997,0,1.8594345,-0.14526251,-9.915562,4997,0
820693972,-0.04175796,0.006804682,-0.23570934,4997,0,-0.4362769,-1.9590571,-9.737166,4997,0
820713960,0.027569102,-0.016180564,0.06973391,4999,0,1.558955,0.7853145,-9.739051,4999,0
820733945,0.007861295,0.029525952,0.11871277,4997,0,-0.12447314,-1.1976752,-9.559399,4997,0
820753932,0.011017609,-0.017170494,-0.24203673,4997,0,1.4896809,1.0595402,-10.079582,4997,0
820773919,0.019148864,0.04771972,0.24480659,4998,0,-0.9163499,0.12015207,-9.4566555,4998,0
820793904,0.0056063314,-0.008753146,-0.18210776,4996,0,1.3502563,0.5225079,-9.7435,4996,0
820813892,-0.0030269101,0.046306346,-0.029707124,4998,0,-1.3384421,0.39011717,-9.55904,4998,0
820833879,0.02396951,-0.00075382786,0.15738939,4999,0,0.12316168,0.37023136,-10.066943,4999,0
820853864,-0.04693564,0.028215054,-0.29598713,4997,0,-1.3852029,0.7310068,-9.612348,4997,0
820873851,0.0015720528,-0.03436938,0.23559362,4996,0,-0.6990599,-0.143006,-10.0819235,4996,0
820893837,-0.052373305,0.012302415,-0.13034406,4997,0,-0.4416246,0.69785583,-9.699258,4997,0
820913825,-0.015814772,-0.03654042,-0.07418117,4998,0,-0.44795656,-1.2569909,-10.320054,4998,0
820933812,-0.008625968,-0.017683456,0.21085311,4998,0,0.8249435,0.28343675,-9.405954,4998,0
820953797,-0.026925642,-0.036232278,-0.2963544,4997,0,0.20698354,-1.8704321,-10.165187,4997,0
820973784,0.014185152,-0.0042676763,0.227459,4996,0,1.0977428,0.63695866,-9.577272,4996,0
820993772,0.002396185,-0.010436239,-0.07042208,4999,0,0.54585826,-1.848089,-9.906381,4999,0
821013758,-0.0057603484,0.00162167,-0.11214407,4998,0,0.9615895,0.9242532,-9.458546,4998,0
821033744,0.014819638,0.023371857,0.22957933,4998,0,-0.4297588,-0.96797484,-9.588118,4998,0
821053731,-0.006011218,0.0153733725,-0.2937224,4998,0,1.2480074,1.3903861,-10.008323,4998,0
821073718,0.026669564,0.023826856,0.16800922,4997,0,-1.8831154,0.011514851,-9.86324,4997,0
821093703,0.00197887,0.016578417,-0.04190645,4997,0,0.8163981,1.1058549,-10.040251,4997,0
821113690,-0.030580224,-0.00286402,-0.18368778,4997,0,-2.1067312,-0.590607,-9.778875,4997,0
821133677,0.004710236,-0.00961843,0.2572018,4997,0,0.87972575,0.62538725,-10.04018,4997,0
821153662,-0.045578025,-0.009803468,-0.30861616,4995,0,-1.2431878,-1.3062891,-10.022521,4995,0
821173651,-0.012897247,-0.03535863,0.18502654,4998,0,1.5166965,0.58641064,-9.951042,4998,0
821193637,-0.03561775,-0.009700824,-0.012363609,4998,0,-0.24762377,-2.175992,-9.509787,4998,0
821213625,0.00869361,-0.024591386,-0.16386639,5000,0,2.0384617,1.1882303,-10.076328,5000,0
821233610,0.01893936,0.022325547,0.26756987,4998,0,-0.30113682,-1.1450783,-9.48452,4998,0
821253597,0.00592453,-0.017480386,-0.2896887,4998,0,2.0330317,1.3060672,-9.74538,4998,0
821273582,0.0066125225,0.054087624,0.14956297,4997,0,-1.5014617,0.10548272,-9.673165,4997,0
821293575,0.014374095,0.0047475393,-0.018864436,5003,0,1.1779242,0.383887,-9.767521,5003,0
821313557,-0.03674827,0.040713068,-0.20564803,4999,0,-1.9466046,0.8902762,-9.690589,4999,0
821333543,-0.0002058792,-0.025296912,0.26175553,4999,0,-0.11118956,-0.5850383,-10.053066,4999,0
821353529,-0.055139106,0.011128273,-0.29905942,4998,0,-0.64248765,0.42511335,-9.691094,4998,0
821373516,0.012353015,-0.035313673,0.17836146,4997,0,-0.05880894,-1.3631454,-10.254803,4997,0
821393506,-0.035305638,-0.0017139126,0.001846929,5002,0,0.9174711,0.23032503,-9.600323,5002,0
821413488,-0.009636044,-0.018224142,-0.17981002,4997,0,0.03620426,-1.5798205,-9.990868,4997,0
821433474,0.034628175,0.013352856,0.29331976,4997,0,1.2333049,0.6436732,-9.49461,4997,0
821453460,-0.020150334,0.0002706593,-0.31899786,4995,0,0.10216194,-0.81176114,-9.501107,4995,0
821473450,0.033638805,0.016028244,0.21515535,5000,0,0.22276644,1.5679386,-9.892214,5000,0
821493435,0.0071582342,0.013315361,-0.081212826,4998,0,-0.69968235,-0.37962914,-9.923885,4998,0
821513421,-0.02454368,-0.0003902436,-0.14086866,4998,0,-0.32495248,1.7818419,-10.182999,4998,0
821533409,-0.023945611,-0.003142072,0.23191752,4999,0,-0.9568774,-1.214424,-9.838502,4999,0
821553395,-0.04464476,-0.014760668,-0.32978442,4998,0,0.779867,0.74516267,-9.923592,4998,0
821573381,0.00939578,-0.0018829013,0.2721952,4998,0,-0.508596,-2.0196545,-9.904335,4998,0
821593367,-0.018155016,-0.012688006,-0.1301626,4994,0,2.2698514,0.58448374,-9.834274,4994,0
821613353,-0.00947633,0.025232652,-0.060752094,4994,0,-1.331282,-2.2516644,-9.891793,4994,0
821633341,0.046875633,0.0036272833,0.211084,4998,0,1.9628124,0.9235161,-9.43575,4998,0
821653329,-0.035879984,0.044616964,-0.34432143,4998,0,-2.0537903,-1.1911073,-9.4841,4998,0
821673313,0.05515768,-0.018217629,0.30872875,4997,0,0.020882139,1.3977116,-10.213371,4997,0
821693301,-0.065574616,0.015608295,-0.20318209,4995,0,-1.7636307,-0.96296424,-10.022171,4995,0
821713287,-0.059658315,-0.011375104,0.016050102,4998,0,1.4266868,2.3480506,-10.163174,4998,0
821733273,-0.048640832,0.06252842,-0.04837902,4997,0,0.50197756,-1.275025,-9.782989,4997,0
821753260,0.013432977,-0.062181324,-0.19100127,4998,0,1.4224243,-2.2790177,-8.992763,4998,0
821773246,0.04975407,0.04989544,0.23933627,4997,0,-0.028489372,1.3446703,-10.399134,4997,0
821793233,0.026166033,0.005136902,-0.18077761,4997,0,-0.8392164,1.5075488,-9.628253,4997,0
821813219,-0.061622996,-0.062406056,0.10879526,4997,0,-0.5232705,-0.81286687,-10.181128,4997,0
821833208,-0.018521076,0.029386982,-0.0878224,4999,0,0.78324556,-0.69399095,-9.729913,4999,0
821853192,0.06092777,0.002614971,0.0004108716,4995,0,0.44221207,0.24636278,-8.991422,4995,0
821873179,-0.020221112,0.012870495,0.058452968,4997,0,-0.15241498,-0.8408998,-9.83936,4997,0
821893165,-0.05660045,-0.0036779074,-0.12957993,4997,0,-0.12138628,-0.4097906,-9.896192,4997,0
821913152,0.019207215,-0.046548795,0.13340575,4997,0,-0.31701884,1.5124836,-10.069848,4997,0
821933138,-0.0031912865,0.021712497,-0.14644821,4997,0,-0.30141592,0.23320512,-9.779838,4997,0
821953126,-0.06059613,0.006690628,0.06786265,4998,0,0.07488316,-0.714106,-9.907018,4998,0
821973111,-0.004325994,-0.018860374,0.0131552005,4996,0,0.92009217,-0.20075971,-9.841451,4996,0
821993098,0.010525977,-0.0043492303,-0.09771364,4997,0,-0.40956607,0.47756767,-10.0703125,4997,0
822013085,-0.016092304,0.0076159392,0.08830133,4997,0,0.08051645,-0.59571403,-9.603155,4997,0
822033071,-0.07419075,0.010144706,-0.13256045,4997,0,0.7032657,-0.25103283,-10.124073,4997,0
822053059,0.047700483,-0.0416218,0.075723656,4998,0,-0.06354978,0.6084007,-9.99275,4998,0
822073045,0.058101133,0.0081088,-0.034318395,4998,0,0.057804044,1.3299354,-10.004587,4998,0
822093031,-0.049529407,-0.0040341453,-0.03276142,4997,0,-0.6575707,-0.005706121,-9.754055,4997,0
822113017,-0.038054515,-0.006325845,0.08249377,4996,0,0.44258928,0.4147431,-10.770296,4996,0
822133004,0.0601705,-0.015408183,-0.118531555,4997,0,0.31688705,0.60410124,-9.717622,4997,0
822152991,0.07576587,-0.031512905,0.13445146,4996,0,-0.07376533,0.2252951,-9.099644,4996,0
822172977,-0.09327689,0.035406057,-0.11650899,4997,0,0.1372961,-0.45443144,-9.735623,4997,0
822192966,-0.027865814,-0.01567098,0.04857844,4997,0,-0.0017767178,-0.17889625,-10.777558,4997,0
822212950,0.042322468,-0.0019233595,-0.019243417,4993,0,0.5839442,0.6636645,-9.736265,4993,0
822232938,0.035056666,-0.01458535,-0.037056156,4998,0,-0.2984222,0.61817986,-9.219094,4998,0
822252925,-0.027477285,-0.042179715,0.052765664,4998,0,0.51566285,-0.17725524,-9.340089,4998,0
822272910,-0.06779275,-0.021236014,-0.10064694,4997,0,-0.0070132054,-0.38760114,-10.444781,4997,0
822292898,-0.0027358935,0.014530699,0.031651698,4998,0,-0.002153974,0.06755978,-9.883254,4998,0
822312883,-0.025688374,0.007810364,-0.07691212,4996,0,-0.05051374,0.30367026,-9.915678,4996,0
822337867,-0.0119324215,-0.026015425,-0.066827886,4997,0,0.06726412,0.39863393,-9.880029,4997,0
822352858,0.0010665735,-0.016906574,0.031190652,4998,0,-0.08746751,-0.44108713,-10.260774,4998,0
822372844,-0.010694115,-0.004135837,-0.081684306,4998,0,-0.11213503,0.024326272,-9.419489,4998,0
822392829,0.023205094,-0.033927415,0.05587969,4995,0,0.024270104,0.16039628,-9.342094,4995,0
822412817,-0.017078793,0.007921248,-0.10026376,4998,0,0.40711504,0.19188143,-9.948342,4998,0
822432804,-0.023181377,-0.030377438,0.04177103,4998,0,0.26083663,-0.08184813,-10.434097,4998,0
822452790,-0.04768878,0.0032242115,-0.027134804,4998,0,0.12267726,-0.20881939,-10.328417,4998,0
822472776,0.03069833,-0.0014826849,-0.03336242,4997,0,-0.47297594,0.04817265,-9.356684,4997,0
822492763,0.037829254,0.013701279,0.047396325,4998,0,0.07367392,0.0059446623,-10.116989,4998,0
822512748,-0.048932165,0.006133767,-0.07226123,4996,0,-0.1461911,-0.34503838,-10.000602,4996,0
822532735,-0.005085783,-0.04921977,0.03668181,4996,0,0.21603489,-0.12087972,-9.993092,4996,0
822552722,-0.032575965,-0.028407715,-0.082422994,4997,0,0.017130822,-0.26112697,-10.163131,4997,0
822572710,-0.08623504,-0.04881777,0.07583622,4997,0,-0.11566694,0.057522554,-10.183662,4997,0
822592697,-0.17756271,-0.010915317,0.041570716,4999,0,-0.10913733,0.33393267,-9.91252,4999,0
822617681,-0.2474062,-0.061482906,0.036222246,4998,0,0.6157948,0.17776659,-10.078462,4998,0
822632668,-0.22511812,-0.06627163,0.015832366,4997,0,-0.07034136,0.30804086,-10.1318,4997,0
822652656,-0.23884223,-0.09118976,0.07146283,4997,0,-0.20668703,-0.0943028,-9.658964,4997,0
822672641,-0.18579476,-0.15899001,0.111678354,4996,0,-0.6579473,0.5745768,-10.862083,4996,0
822692628,-0.3606966,-0.29037476,0.11070646,4997,0,-0.6642935,0.3902883,-10.188425,4997,0
822712616,-0.043020487,-0.28372303,0.106071465,4998,0,-0.36585596,0.7517235,-9.902954,4998,0
822732603,0.0766527,-0.2645886,0.053920683,4999,0,-0.993056,0.2127652,-10.137034,4999,0
822757584,-0.046817016,-0.15354781,0.10112906,4996,0,-1.4200326,-0.077409044,-10.947291,4996,0
822772574,-0.18584716,-0.22426072,0.07415262,4996,0,-0.40410587,-0.087694824,-12.043062,4996,0
822792561,-0.14519563,-0.17700031,0.1017884,4997,0,-0.32854187,1.0381387,-10.573928,4997,0
822812549,-0.19377291,-0.04584521,0.091288075,4998,0,-0.27768376,0.7771536,-9.766172,4998,0
822832534,-0.08629832,-0.091939725,0.050026987,4997,0,-0.24975964,1.007778,-11.044116,4997,0
822852521,-0.12036817,-0.11335085,0.06147722,4997,0,-0.5250853,0.6380256,-11.592707,4997,0
822872508,-0.009351422,-0.21164876,0.07696848,4998,0,-0.78341186,0.8609018,-12.388195,4998,0
822892495,0.06956416,-0.28860798,0.08361463,4998,0,-0.44490573,1.3014424,-10.503488,4998,0
822912480,-0.20528348,-0.0920601,0.044845942,4996,0,-1.6144955,-0.47985706,-9.978272,4996,0
822932468,-0.2611178,-0.15448457,0.035599552,4998,0,0.094765365,0.17913674,-13.135388,4998,0
822952455,-0.08892786,-0.19424641,0.040472757,4998,0,-0.18372163,0.9627748,-10.174887,4998,0
822972442,0.09115514,-0.10818622,0.011913023,4999,0,-1.3272686,0.71497226,-10.556663,4999,0
822992432,-0.028696807,-0.14727826,-0.01706233,5002,0,-0.21619889,-0.7303755,-11.554024,5002,0
823012414,-0.09252923,-0.41549948,-0.033348512,4998,0,0.44668758,0.93950033,-10.729754,4998,0
823037396,-0.40134087,-0.12880704,-0.0151999965,4995,0,-1.5762812,-0.9314195,-10.831744,4995,0
823052388,-0.014932238,-0.21034963,-0.01733235,4999,0,0.10864421,1.4417063,-11.627844,4999,0
823072372,0.0962761,0.021501055,-0.03712433,4996,0,-1.5196568,-0.6133054,-9.366603,4996,0
823097356,0.29188034,-0.07665302,-0.04034173,4995,0,0.21825892,1.214406,-10.706562,4995,0
823112346,0.016051928,-0.06578821,-0.043997183,4997,0,-0.78353536,0.2539131,-8.770121,4997,0
823132333,-0.08123653,-0.10770292,0.020204801,4997,0,0.38067287,1.169535,-12.578028,4997,0
823152319,-0.112144865,-0.024173189,0.013315068,4997,0,-1.1118709,-0.06589278,-8.309884,4997,0
823172308,0.22868906,0.010754886,-0.040722854,4999,0,-0.8188373,0.5858406,-12.032736,4999,0
823192295,0.25204203,-0.063235484,-0.0046582045,5000,0,-0.28324312,1.0303502,-8.935088,5000,0
823212279,0.105336316,0.11930669,-0.03767871,4996,0,-1.1604922,-0.11334876,-10.3935175,4996,0
823237262,-0.095387876,0.055070113,0.0059253206,4995,0,-0.1879706,0.4765624,-8.507978,4995,0
823252254,-0.055739954,0.12056572,-0.017656522,4999,0,-0.86550784,0.22417681,-11.182316,4999,0
823272240,-0.00012608839,-0.012342448,-0.016458308,4998,0,0.15517752,0.16794385,-9.816239,4998,0
823292227,0.29812226,-0.12723607,-0.02813845,4999,0,-0.38139787,1.2854248,-9.2462015,4999,0
823317208,0.0047583566,0.04977304,-0.008641525,4996,0,-0.5765624,0.46131495,-10.746637,4996,0
823332198,0.08147698,-0.039554313,0.014092097,4997,0,0.2209413,1.2525008,-9.442253,4997,0
823352187,-0.16655311,0.14946674,-0.0019875318,4998,0,-1.0576243,-0.8508035,-10.886059,4998,0
823377168,0.1516122,-0.071143866,-0.025445146,4988,0,0.0081345495,1.6292322,-9.776021,4988,0
823392160,0.028146429,0.03583374,-0.0356258,4998,0,-1.3719686,-0.24338488,-8.426055,4998,0
823412145,0.1946914,-0.07943487,-0.021844434,4997,0,0.2988277,1.282088,-12.43258,4997,0
823432132,-0.0914908,-0.02177671,-0.0033617837,4998,0,-1.3757498,-0.5792239,-8.754146,4998,0
823452120,-0.018665632,-0.0005682817,0.003917634,4999,0,0.23655196,1.6357037,-11.534551,4999,0
823472106,-0.16185804,0.1198562,-0.011018023,4997,0,-1.6065445,-0.37121677,-8.542756,4997,0
823492092,0.12785055,-0.033984408,-0.020735253,4998,0,-0.18310611,1.2351054,-12.248288,4998,0
823517075,0.11426684,0.010092677,-0.03140481,4996,0,-1.3619283,0.32015982,-10.70054,4996,0
823532069,0.013746401,0.050534733,-0.009661513,5002,0,-0.6521464,0.5849057,-10.14529,5002,0
823552054,0.054792617,0.023731638,0.01392843,4999,0,-1.2023189,0.5365197,-10.640388,4999,0
823572038,-0.14107005,-0.0058219833,0.016395343,4997,0,0.1781309,0.49501202,-10.293996,4997,0
823592024,0.0044622105,0.025989784,-0.025054038,4997,0,-1.536558,0.4606384,-9.60665,4997,0
823612009,-0.08151878,0.010912435,-0.010318578,4996,0,-0.091972604,1.025556,-10.564774,4996,0
823631998,0.06480404,0.017783869,0.0025118245,4998,0,-1.2540451,-0.0073144026,-9.951871,4998,0
823656980,0.04087469,-0.06908441,0.018238446,4995,0,0.3685759,1.7243705,-10.732643,4995,0
823671972,-0.041993305,0.005803146,-0.0069945157,4998,0,-1.4823107,0.22863613,-8.210536,4998,0
823691958,-0.028757168,-0.050744828,-0.006373191,4998,0,-0.27890515,1.1768311,-11.934234,4998,0
823711943,-0.07618159,-0.06809543,-0.007492299,4997,0,-1.0985516,-0.060985297,-8.654905,4997,0
823736928,0.090890795,-0.013216,0.011092731,4997,0,-0.0989799,1.4481908,-11.15439,4997,0
823751916,0.02655776,-0.012303781,0.021810088,4996,0,-1.3590773,0.8816132,-7.8556223,4996,0
823771905,-0.034980427,0.03500247,0.0043415288,4999,0,-1.0044507,0.47716808,-11.201455,4999,0
823796886,-0.14312857,-0.13846906,-0.0007391943,4997,0,-0.34151807,0.7747386,-8.318306,4997,0
823811882,-0.20660478,0.0071030944,0.0026400485,5003,0,-1.3275573,-0.028781349,-9.927784,5003,0
823831867,-0.080558114,-0.024475234,0.019795619,5002,0,-0.56059635,1.2500877,-9.9875,5002,0
823856846,-0.037166234,0.010220637,0.019737994,4997,0,-1.389853,0.9391665,-8.387014,4997,0
823876834,-0.07173973,-0.0064482875,-0.0028898777,4996,0,-1.3494518,0.6045722,-10.324225,4996,0
823891823,-0.15684754,-0.15458459,-0.016165722,4998,0,-0.6995882,1.0097334,-9.63287,4998,0
823916806,-0.10814624,-0.08247862,-0.0012119208,4996,0,-1.5273957,0.44056782,-9.334114,4996,0
823936792,-0.20503253,0.017371954,-0.008825688,4991,0,-0.8419469,0.14140895,-9.865661,4991,0
823951783,-0.06080238,-0.08803701,0.024996623,4997,0,-0.47365454,1.8693713,-9.14147,4997,0
823971770,-0.09910994,-0.046696037,-0.0057433555,4997,0,-1.5268211,0.6191154,-8.731929,4997,0
823996752,-0.17175545,-0.13798775,-0.014951433,4991,0,-0.9636402,1.2979435,-9.941101,4991,0
824011743,-0.006642241,-0.21488972,-0.016915828,4993,0,-0.5289087,2.0563357,-9.130937,4993,0
824031730,-0.2203621,-0.023465315,-0.008409907,4999,0,-1.8273518,-0.09047286,-9.098714,4999,0
824051715,0.013108055,-0.1240702,0.019590866,4997,0,-0.14103526,1.9871616,-10.902548,4997,0
824076698,-0.29057473,0.0070718536,-0.004480909,4997,0,-2.2222118,-0.000957616,-9.028312,4997,0
824091689,-0.13017511,-0.102744766,-0.020143762,4997,0,-0.8673927,1.9304731,-10.865207,4997,0
824111676,-0.17526822,-0.0927686,0.0011311754,4992,0,-1.4131899,0.77434754,-7.6045694,4992,0
824136657,0.012858392,-0.13793303,-0.03397829,4994,0,-0.16617116,1.2969987,-11.737263,4994,0
824156644,-0.123817794,-0.12247262,-0.0041380706,4996,0,-1.5377437,0.38580334,-9.0591755,4996,0
824171634,-0.114630595,-0.12741832,-0.0095617585,4997,0,-1.0582504,0.6930088,-11.245943,4997,0
824191621,-0.16676135,-0.08545422,0.014387988,4998,0,-1.6490833,1.0125251,-8.136019,4998,0
824216604,-0.19777614,-0.1501505,-0.007857379,4997,0,-0.31409243,1.0966989,-9.702842,4997,0
824231596,-0.1729426,-0.059677728,-0.03758629,4999,0,-1.5775468,0.4483959,-10.264003,4999,0
824251580,-0.19612157,-0.09971224,-0.029834872,4996,0,-0.9013822,1.4368197,-8.823721,4996,0
824276563,-0.20675369,-0.060445894,-0.022302236,4997,0,-1.8974847,-0.5894637,-10.942307,4997,0
824296550,0.057421107,-0.17710298,0.0010332979,4997,0,-0.7541334,1.8610878,-9.346579,4997,0
824311545,-0.16990164,0.07255699,-0.036530748,5001,0,-1.9576186,-0.22130708,-9.431389,5001,0
824331526,0.041207097,-0.20576434,-0.012225934,4996,0,-0.5485227,1.269452,-9.985984,4996,0
824356510,-0.25751927,-0.20033863,-0.014113869,4997,0,-0.33971605,1.5952075,-10.383478,4997,0
824371508,-0.15730026,-0.18206505,-0.0386813,5005,0,-1.658772,1.0218667,-8.079086,5005,0
824391486,-0.03858479,-0.12921546,-0.0060625346,4997,0,-0.311456,2.2761645,-11.5147915,4997,0
824416471,-0.14983866,0.0645853,-0.022548115,4998,0,-1.9348323,0.13591409,-9.50927,4998,0
824436456,0.0013149366,-0.19434896,-0.020199545,4997,0,-0.42090002,1.6786882,-8.977438,4997,0
824451446,-0.24453911,-0.027873645,-0.042572215,4997,0,-1.9032184,0.60195297,-8.250194,4997,0
824471441,-0.08985865,-0.23431739,0.00716006,5006,0,-0.6951511,1.7492528,-8.757941,5006,0
824496416,-0.042076852,-0.019047543,-0.02098706,4997,0,-1.4096435,1.0859958,-11.577374,4997,0
824511406,-0.111699104,-0.09530212,-0.012745588,4997,0,-1.0319792,1.2732875,-7.731125,4997,0
824536389,-0.114961855,-0.0236872,-0.047577612,4997,0,-1.4791627,0.99472433,-9.435345,4997,0
824556375,-0.032109756,-0.12625119,1.6599814e-05,4995,0,-1.4401808,1.569751,-9.08273,4995,0
824571371,-0.19034116,-0.037581567,-0.0062678605,5002,0,-1.4428152,-0.030443659,-9.945426,5002,0
824591352,-0.004501204,-0.11604373,-0.011656131,4997,0,-1.3281221,1.2327806,-8.804856,4997,0
824616335,-0.13938817,-0.071187735,-0.021390246,4994,0,-0.8266995,1.5507843,-8.378227,4994,0
824636322,-0.07562756,-0.0029589182,-0.029732253,4989,0,-2.275014,-0.156252,-9.01528,4989,0
824651312,-0.068719395,-0.14692828,0.00959842,4996,0,-0.8044308,1.8173264,-9.877587,4996,0
824676295,-0.19943295,0.0026934892,-0.031161344,4991,0,-2.030693,-0.28280053,-9.372769,4991,0
824696282,0.045257892,-0.17685409,-0.020295735,4993,0,-1.3016301,2.1097627,-8.219909,4993,0
824716269,-0.21920782,-0.07928354,-0.030275686,4989,0,-1.4947672,1.2462425,-9.794346,4989,0
824731258,0.039319303,-0.22743027,-0.02964365,4997,0,-1.4185987,1.5994455,-9.172826,4997,0
824756241,0.12600076,-0.20213458,0.008209929,4996,0,-0.68470633,3.1241703,-10.363948,4996,0
824776228,-0.1768846,0.026612854,-0.026403278,4996,0,-2.1882539,0.68023604,-8.854183,4996,0
824791221,0.09742628,-0.23086649,-0.055014003,5000,0,-0.8500993,2.0831826,-9.171299,5000,0
824816201,0.04532347,-0.20702222,-0.017548345,4992,0,-0.38590062,2.835137,-10.514021,4992,0
824836187,-0.16747124,0.0551866,0.0014790437,4992,0,-1.654159,1.8187219,-9.485099,4992,0
824851177,0.06343859,-0.08411562,-0.033713117,4993,0,-2.020956,0.65455496,-8.131531,4993,0
824871165,0.15174869,-0.231608,-0.03921543,4998,0,-0.34415284,2.7295961,-11.02902,4998,0
824896147,0.10499527,-0.2620913,-0.045594927,4997,0,-0.22761905,2.915297,-11.814406,4997,0
824916135,-0.13052969,-0.10878618,-0.0019623705,4993,0,-0.6483335,2.6263402,-11.600229,4993,0
824931124,-0.17949063,0.01740781,-0.022423102,4997,0,-2.9353917,-0.0646688,-6.6332464,4997,0
824956107,-0.22453438,0.030619822,-0.042004917,4996,0,-2.3548443,-0.9387317,-7.8287363,4996,0
824976094,-0.029010803,-0.14394003,-0.052447286,4997,0,-2.486065,0.7765177,-6.685668,4997,0
824996080,0.014647416,-0.3310127,-0.03237018,4996,0,-0.34434018,1.886842,-10.5422125,4996,0
825011074,-0.14507699,-0.10216056,-0.028802808,5001,0,-1.6537447,2.6335063,-10.827114,5001,0
825036055,0.01750732,-0.059016827,0.014163689,4995,0,-0.54035985,3.0361404,-12.508593,4995,0
825056042,-0.13173564,0.049282677,-0.027330104,4999,0,-1.8015318,2.2273576,-10.689996,4999,0
825071030,-0.1562988,-0.03769622,-0.055474672,4997,0,-2.6891797,-0.096897475,-6.862219,4997,0
825096013,-0.20926541,-0.08346118,-0.02255591,4997,0,-3.487931,0.45329592,-6.7100344,4997,0
825116001,-0.16911739,-0.11446772,-0.015403041,4998,0,-2.9735157,-0.71273094,-7.601816,4998,0
825130989,0.12946437,-0.17903326,0.011810408,4996,0,-1.1627619,3.0919716,-9.53936,4996,0
825150976,0.085278705,-0.07062875,0.011505685,4996,0,-0.10700058,3.704432,-11.299274,4996,0
825175959,0.032006823,-0.14357688,-0.012718377,4996,0,-1.1931584,3.382323,-8.824288,4996,0
825195949,-0.019821301,-0.2358194,-0.017479504,5000,0,-0.19766271,3.1170943,-12.387144,5000,0
825210939,-0.22184789,-0.014873295,-0.044735532,4998,0,-3.0622237,1.2087475,-7.8955307,4998,0
825235920,-0.06867503,-0.057480775,-0.025293691,4998,0,-1.6611108,2.1261926,-12.064846,4998,0
825255905,-0.0998978,0.10008495,-0.02158509,4996,0,-2.3198652,1.7198154,-8.779205,4996,0
825270895,-0.13480505,-0.03681931,0.0037636438,4996,0,-2.7077231,-0.5573748,-7.1554146,4996,0
825290882,-0.059092246,-0.09942563,-0.05707974,4996,0,-2.7781608,0.9093624,-5.8622756,4996,0
825315866,-0.23953244,-0.07894266,-0.026792228,4998,0,-3.3509116,-0.24998604,-6.103594,4998,0
825335853,-0.10096942,-0.08104957,0.0009340263,4998,0,-2.944939,-0.35049105,-6.853842,4998,0
825350842,0.1836518,-0.20857094,-0.0029685348,4997,0,-1.1108539,2.9071848,-9.628656,4997,0
825375825,-0.011053883,-0.17018445,-0.022547139,4995,0,-2.3594894,0.5800808,-8.898053,4995,0
825395813,-0.066582605,-0.15675816,-0.05037908,4996,0,-2.5355592,1.3960409,-7.6480494,4996,0
825410801,-0.045148343,-0.25823948,-0.007676752,4995,0,-0.5047712,3.838811,-10.9667845,4995,0
825430788,0.14208257,-0.15452366,0.0056913095,4997,0,-0.66816163,4.364092,-11.017745,4997,0
825455771,0.20776007,-0.10117037,-0.06521516,4997,0,-2.7924,1.9589003,-7.34234,4997,0
825475757,0.14281909,-0.18498583,-0.03935611,4995,0,-2.2814758,1.0530434,-9.565073,4995,0
825490748,0.14310679,-0.21253744,-0.021847183,4996,0,-0.51084524,3.575738,-11.089412,4996,0
825515731,-0.22648057,0.044551805,-0.039263323,4997,0,-3.1527321,-0.39841107,-7.528556,4997,0
825535718,-0.22477804,0.056226242,-0.06193631,4997,0,-3.4991121,-0.123398095,-6.8941913,4997,0
825550707,0.063027196,-0.13941893,-0.06835629,4996,0,-2.5468354,0.14742722,-10.466492,4996,0
825570695,-0.09737363,-0.006210027,-0.041637234,4998,0,-2.960557,-0.1564462,-7.7764735,4998,0
825595677,-0.08293064,-0.0073661297,0.0022256572,4997,0,-0.7750962,3.4666276,-9.1967535,4997,0
825615665,0.009312415,-0.11102711,-0.034700193,4998,0,-1.2249795,4.5371766,-8.866349,4998,0
825630654,-0.22464679,-0.11950134,-0.023874559,4997,0,-0.8366501,2.6352906,-11.631509,4997,0
825655636,0.08925371,-0.14164406,-0.0044307564,4996,0,-2.987013,0.7871746,-11.370565,4996,0
825675625,-0.0008307752,0.035421405,-0.019056208,4997,0,-2.9686503,-0.23205869,-10.078552,4997,0
825690613,0.106777325,0.010758539,-0.03552863,4997,0,-3.5468712,1.2888905,-7.6685934,4997,0
825710600,-0.11183557,0.0015876889,-0.035213448,4997,0,-3.5023267,0.49086082,-10.058856,4997,0
825735583,-0.15085097,-0.1304676,-0.00372348,4996,0,-2.528485,2.4480433,-6.696777,4996,0
825755571,-0.03126595,-0.0010235342,0.0213362,4998,0,-2.9237528,1.2349325,-9.542295,4998,0
825770561,0.002097784,0.05803303,-0.0032865813,4998,0,-2.0517035,1.8442999,-6.8403254,4998,0
825795542,-0.038282376,0.06764145,-0.04302967,4995,0,-1.2187991,1.8268605,-11.322992,4995,0
825815531,-0.09788055,-0.08002939,-0.04175405,4998,0,-0.81220263,2.5277476,-8.600863,4998,0
825830519,-0.023137527,-0.047242496,0.006588977,4996,0,-1.8814743,2.575544,-9.873318,4996,0
825850506,0.07928293,-0.1465092,0.009308798,4997,0,-0.6827407,1.5311844,-9.553993,4997,0
825875490,-0.038711227,0.06355683,-0.027639266,4998,0,-3.3149023,1.0753736,-10.815375,4998,0
825895477,-0.015610604,-0.033742815,-0.04118772,4998,0,-1.2839423,2.7777805,-13.667497,4998,0
825910465,-0.1526156,0.066385135,-0.017026622,4995,0,-2.2693415,2.1694047,-10.033127,4995,0
825935449,0.05179013,-0.05312907,0.012730906,4997,0,-2.3491488,0.4141988,-7.521616,4997,0
825955435,-0.15407194,0.16583516,-0.021551412,4996,0,-3.8453057,-0.11645223,-5.7353563,4996,0
825970426,-0.069730274,0.03621958,-0.007325915,4996,0,-3.9544523,-0.22493297,-6.9437413,4996,0
825990412,-0.28134972,0.08119878,-0.019846464,4997,0,-3.4194317,0.6288658,-8.71316,4997,0
826015396,0.21288453,-0.1271634,-0.005911823,4997,0,-2.5608206,3.043479,-8.94252,4997,0
826035381,0.017351873,0.050330576,0.00014697746,4996,0,-3.8577938,-0.43627644,-8.774091,4996,0
826050372,0.13047718,0.04106449,-0.0055021294,4997,0,-3.014458,0.10144503,-9.165508,4997,0
826075357,-0.07101008,-0.11018971,-0.008216807,4999,0,-0.47339678,2.9219935,-10.989341,4999,0
826095341,0.0015948627,-0.1496264,-0.034035385,4996,0,-2.0777721,2.432126,-11.19894,4996,0
826110331,-0.047851656,-0.07512817,0.011063032,4996,0,-2.489677,2.838228,-6.97079,4996,0
826135314,-0.05376002,0.05215897,0.020347757,4996,0,-1.1951996,1.6612864,-9.0146055,4996,0
826155301,0.0065666395,-0.038368087,-0.022941127,4994,0,-1.7083657,2.2155359,-6.215484,4994,0
826175288,-0.114923395,0.023729742,-0.04136528,4994,0,-3.1610694,1.4703022,-7.3542285,4994,0
826190277,-0.13410833,0.016920846,-0.029252356,4996,0,-4.183218,1.5612216,-6.5482183,4996,0
826215262,0.011601782,-0.1308622,0.0075660744,4998,0,-1.630101,1.6357522,-7.7961745,4998,0
826235248,-0.17277293,0.10921,-0.011834351,4998,0,-3.8978748,0.14645144,-6.4522796,4998,0
826250238,-0.13891609,0.097725876,-0.038169038,4995,0,-4.21226,0.096744075,-6.0642447,4995,0
826275220,0.07877592,-0.20286691,-0.050567776,4996,0,-1.8666832,1.7923778,-10.0120945,4996,0
826295207,-0.3438228,0.05209713,0.013409764,4997,0,-2.7224844,-0.60473436,-8.4391575,4997,0
826315194,-0.033283338,-0.0695023,0.015907872,4997,0,-0.975358,3.89711,-10.541795,4997,0
826330183,0.027822662,-0.042683005,-0.018436648,4996,0,-1.3751625,3.9176006,-7.8163652,4996,0
826355166,-0.21037388,-0.053153336,-0.018118376,4995,0,-1.3591701,0.9382903,-10.902888,4995,0
826375154,-0.010432076,-0.16366756,-0.024416085,4992,0,-2.3844285,2.8108711,-11.386094,4992,0
826390143,-0.09839904,-0.042269483,-0.001485261,4995,0,-2.3666642,1.4170539,-9.678584,4995,0
826415127,0.07615076,-0.082705736,0.026300967,4997,0,-2.0733845,1.6161246,-9.495949,4997,0
826435114,-0.07975434,0.13421582,-0.0014345695,4998,0,-3.8267102,2.139532,-9.977443,4998,0
826455099,0.14265683,-0.14837858,-0.057100404,4996,0,-1.5291528,4.2743587,-10.352722,4996,0
826470091,0.13029109,-0.2294569,-0.021061514,4998,0,-1.7989181,4.457652,-11.898915,4998,0
826495072,-0.053645495,-0.0030809103,0.0025615455,4996,0,-1.7174155,3.8700345,-7.994701,4996,0
826515061,0.2545741,0.049280696,-0.026169095,4997,0,-3.5612586,1.8145435,-7.9160004,4997,0
826535046,-0.14616309,0.082859136,-0.0045768833,4997,0,-1.9328535,1.1265413,-6.5585146,4997,0
826555032,-0.14943942,-0.10930248,-0.022346877,4996,0,-2.5274086,1.7636611,-7.3624873,4996,0
826575019,-0.17110822,-0.06474755,-0.036730435,4996,0,-1.8488842,2.269888,-11.708327,4996,0
826595005,0.03392504,-0.15074465,0.015385196,4996,0,-1.7038931,1.1563921,-9.943795,4996,0
826609995,0.13919635,0.043048743,-0.011612514,4996,0,-2.9983556,1.2039467,-6.4494886,4996,0
826634978,0.20578277,-0.045851592,-0.023505006,4996,0,-0.81652635,4.1769485,-11.952446,4996,0
826654965,-0.083488815,-0.08841631,-0.018517777,4996,0,-3.5757978,-0.27047822,-10.010101,4996,0
826669955,-0.23141266,-0.11277232,-0.023161815,4996,0,-3.080824,-0.3642137,-9.722087,4996,0
826694939,0.14383867,-0.085288346,-0.0017558414,4996,0,-3.860306,3.3615794,-9.876558,4996,0
826714925,0.13834955,0.07156217,-0.017554654,4996,0,-2.0976164,2.2134352,-11.447197,4996,0
826734913,0.12570792,-0.122196816,-0.019559378,4998,0,-2.5747313,1.7780409,-8.662155,4998,0
826749901,-0.037445355,-0.17006463,-0.031122591,4996,0,-2.72469,0.53086567,-9.545358,4996,0
826774885,0.09249125,-0.14344455,-0.008705313,4995,0,-1.9245783,4.6009727,-9.063082,4995,0
826794871,-0.034569513,0.089834176,-0.009101822,4996,0,-3.9004602,0.40164268,-6.232906,4996,0
826809861,0.027396424,0.10442866,-0.0338569,4996,0,-3.632752,0.28841135,-9.086965,4996,0
826834844,0.10678241,0.045776933,-0.061459787,4996,0,-3.6884665,2.5605488,-7.3127136,4996,0
826854833,-0.132864,-0.084202364,-0.027203873,4997,0,-1.3574749,1.8742378,-8.952803,4997,0
826874818,-0.2446695,-0.036449175,-0.015557659,4997,0,-3.1234314,-0.04493273,-7.4456043,4997,0
826894804,-0.0064394553,0.044609588,0.0028551386,4996,0,-1.1405675,3.6342616,-11.157348,4996,0
826914792,0.09183547,-0.051207155,-0.002960197,4998,0,-2.7816925,0.13417715,-9.962148,4998,0
826934777,-0.2525096,-0.053859323,-0.013820625,4996,0,-2.0449061,2.5825522,-10.206808,4996,0
826949768,-0.2566566,-0.17685603,-0.01578604,4994,0,-1.2232219,3.144991,-10.769655,4994,0
826974750,-0.107086316,-0.0376494,-0.03200598,4995,0,-2.2154303,2.115229,-6.9300704,4995,0
826994738,0.020192683,0.13583614,-0.02091911,4997,0,-3.3601294,2.0248764,-7.5291047,4997,0
827014725,0.18695678,-0.020023672,-0.030316267,4996,0,-1.5417982,2.3037643,-8.630295,4996,0
827034710,-0.27225342,0.064973645,0.011226258,4996,0,-2.2242248,0.7627291,-9.406199,4996,0
827054698,0.077842996,-0.21260743,-0.06734247,4998,0,-3.2589197,3.0413861,-12.263316,4998,0
827074684,-0.24414222,-0.0675849,-0.044830777,4995,0,-2.4654126,2.4483929,-7.1535363,4995,0
827089673,-0.02684981,-0.08687037,-0.0070211273,4996,0,-2.492611,3.5403821,-8.732135,4996,0
827114657,0.084472425,0.07015876,-0.019833222,4997,0,-1.1628146,1.586038,-6.941373,4997,0
827134645,-0.068933636,0.07878866,-0.0545541,4998,0,-2.2149346,1.9014615,-11.22467,4998,0
827154629,-0.0085820025,-0.1685568,-0.046241473,4996,0,-3.0813804,1.8776501,-10.0233135,4996,0
827174616,-0.016688555,-0.02618318,0.006332323,4996,0,-1.8865315,4.3926487,-9.0123625,4996,0
827194604,0.059984934,0.09333398,-0.035334192,4996,0,-3.834626,0.42990538,-6.90319,4996,0
827214591,0.066241376,-0.004777809,-0.07219898,4999,0,-1.2757151,3.2397342,-8.224708,4999,0
827234577,-0.031125655,0.023607608,-0.0008588104,4998,0,-2.0624359,1.1032716,-11.281075,4998,0
827254563,-0.099168,-0.036331516,0.029772103,4996,0,-3.4328158,1.389748,-9.899588,4996,0
827274549,0.10306374,-0.07120321,-0.015727594,4997,0,-1.8881162,4.7859564,-11.3998375,4997,0
827294535,-0.0724582,0.027439928,-0.03188779,4996,0,-4.0392847,0.7241992,-6.6153355,4996,0
827314524,0.0837347,-0.050401576,-0.01989181,4999,0,-1.6472911,4.3212857,-8.229688,4999,0
827334511,-0.006761279,0.10167055,-0.0038149543,4998,0,-3.0522313,0.57894933,-6.9731846,4998,0
827354495,-0.06810531,-0.03976948,0.007567399,4995,0,-1.7030231,2.3155506,-6.8029532,4995,0
827369487,-0.09853387,-0.00012914476,-0.04655157,4999,0,-3.2561743,1.511844,-4.8447294,4999,0
827394469,0.04229378,-0.17460813,-0.023911381,4997,0,-2.1227033,1.592108,-10.612747,4997,0
827414455,-0.18916906,0.0733831,0.044831734,4996,0,-3.0619726,2.1848178,-9.293201,4996,0
827434442,0.29952514,-0.08298509,-0.0037072871,4997,0,-2.787216,3.6474402,-11.088069,4997,0
827454428,-0.088833265,0.078445934,-0.04390317,4994,0,-3.2818928,1.5980079,-7.217125,4994,0
827474415,-0.017192356,-0.008718059,-0.01851707,4997,0,-3.4097335,2.7886984,-6.1459146,4997,0
827494402,0.05632367,0.049199633,0.0025073546,4993,0,-1.8207015,3.543076,-8.434129,4993,0
827514388,-0.060220025,0.06749889,0.00356449,4996,0,-3.3972328,0.11459211,-5.57892,4996,0
827534375,-0.05430935,-0.047718566,-0.016928835,4996,0,-1.1706607,3.4625406,-9.561214,4996,0
827554362,-0.09160743,-0.08493473,-0.034877095,4997,0,-3.3482842,0.24678193,-10.461865,4997,0
827574347,-0.061112,-0.100909024,0.011789566,4996,0,-2.5737836,3.4316597,-10.069398,4996,0
827594334,0.10807886,0.10181945,0.015501653,4997,0,-3.3281405,3.1668763,-10.3345585,4997,0
827614321,0.06024202,-0.0054450035,-0.037137773,4996,0,-3.5064075,1.7798012,-6.252897,4996,0
827634307,0.0047418154,-0.06829184,-0.056916565,4996,0,-1.2238276,3.4518383,-9.456087,4996,0
827654294,-0.18737178,-0.1038031,0.0048017567,4995,0,-3.2089248,-0.37474522,-8.933061,4995,0
827674281,0.07820813,-0.084050745,0.0183282,4997,0,-2.0400634,3.935446,-12.247865,4997,0
827694267,0.0066592502,0.11503714,-0.050700024,4996,0,-2.4981897,2.5700276,-9.658736,4996,0
827714254,-0.057233077,0.10968523,-0.032910295,4997,0,-4.005981,1.965521,-7.353833,4997,0
827734240,0.04797647,-0.10898343,-0.0064104297,4996,0,-0.807126,1.8722633,-9.463319,4996,0
827754227,-0.17020513,0.005502386,0.0005794535,4997,0,-2.3904655,2.3479686,-11.031572,4997,0
827774214,0.09457143,-0.04444635,-0.052471112,4995,0,-4.0412784,1.7109587,-10.254521,4995,0
827794200,0.020948207,-0.04780994,-0.022955816,4997,0,-1.8123146,3.519999,-8.826616,4997,0
827814187,-0.14646158,0.044184785,0.019192927,4997,0,-1.2778167,1.0033721,-8.741779,4997,0
827834175,-0.05381184,0.0617986,-0.011364749,4999,0,-3.6201982,2.0296867,-12.149679,4999,0
827854160,0.11756778,-0.08641105,-0.044631593,4996,0,-2.9999142,2.649761,-9.118386,4996,0
827874146,0.00060077553,-0.00778028,-0.028340096,4994,0,-1.5390458,3.548873,-9.00271,4994,0
827894133,-0.18087769,0.06441031,0.036793575,4997,0,-2.9665978,-0.4406798,-8.197326,4997,0
827914120,0.1268397,-0.07950995,-0.04108641,4997,0,-2.7820153,3.4462655,-12.678096,4997,0
827934106,-0.040492035,0.009644019,-0.039249863,4991,0,-2.40603,2.7117057,-7.494275,4991,0
827954093,-0.016528612,0.11908266,0.029879596,4997,0,-2.94509,2.6490755,-8.336069,4997,0
827974079,-0.070316225,-0.040015418,-0.029933607,4996,0,-2.7533503,0.20827001,-7.45444,4996,0
827994066,0.00047498147,-0.06377034,-0.034139417,4996,0,-1.1760286,3.7408655,-11.887724,4996,0
828014054,-0.046068422,0.06917332,0.020138688,4997,0,-4.3073773,1.0187013,-8.549329,4997,0
828034039,0.16357046,0.02696064,-0.009771356,4995,0,-3.4310977,3.9861882,-8.962913,4995,0
828054026,-0.042790778,0.056770246,-0.06515263,4996,0,-1.705043,2.6233559,-6.952648,4996,0
828074012,-0.20066777,0.06724387,0.030418811,4997,0,-3.3946345,0.6518004,-7.8673477,4997,0
828093999,0.18867774,-0.14374477,0.028596854,4997,0,-1.4920882,2.5204825,-11.46153,4997,0
828113985,-0.22439513,0.0447387,0.004545983,4997,0,-3.5298433,1.4643714,-8.939863,4997,0
828133972,0.19296154,-0.08652805,-0.020858277,4996,0,-3.3323493,4.027237,-10.73939,4996,0
828153959,-0.049797893,0.064468004,0.017295944,4996,0,-2.6041782,2.6819794,-6.397667,4996,0
828173945,-0.047748674,0.15636835,0.02435755,4997,0,-4.3860826,2.2599592,-5.8068275,4997,0
828193932,0.17006283,-0.06771466,-0.008862551,4998,0,-1.0048584,3.7764902,-8.757551,4998,0
828213920,-0.30389518,0.0056312014,0.0069627087,4999,0,-3.6476927,-0.62172097,-7.036993,4999,0
828233905,0.011468869,-0.1468968,0.01330957,4997,0,-1.408021,3.6490684,-11.513221,4997,0
828253892,-0.019834269,0.058457237,0.044270825,4997,0,-3.358876,1.7615459,-10.770676,4997,0
828273878,-0.0062575596,0.02299948,-0.017959,4997,0,-3.3979526,1.9814807,-8.196139,4997,0
828293865,0.09731201,0.017558686,-0.04932437,4997,0,-2.033557,4.2901807,-9.39096,4997,0
828313851,-0.10145728,-0.0012925752,0.031825308,4997,0,-3.629949,0.19338724,-6.127885,4997,0
828333838,0.007999049,-0.1590191,-0.028742904,4997,0,-1.1725292,3.4855022,-10.142123,4997,0
828353828,-0.14036657,-0.0381495,-0.03132334,5000,0,-2.6901376,0.7243624,-10.096606,5000,0
828373814,0.073408455,0.010568379,7.9257756e-05,5000,0,-4.0988035,2.8412688,-9.88116,5000,0
828393797,0.19181213,-0.026681338,-0.014658953,4997,0,-2.3662539,3.3875268,-8.257333,4997,0
828413785,-0.18568297,0.057305913,-0.03766193,4998,0,-2.0864017,1.9153782,-7.467621,4998,0
828433771,-0.016693136,-0.15827593,-0.028071122,4997,0,-3.3663507,0.48877707,-11.320262,4997,0
828453757,0.04025072,-0.07676436,0.01480007,4996,0,-2.2897565,4.1557565,-10.096763,4996,0
828473744,0.07643347,0.07656788,-0.021644607,4997,0,-2.8822532,2.8948143,-7.577026,4997,0
828493730,-0.1500295,0.09613415,-0.03446875,4996,0,-2.8569202,0.9342706,-8.234515,4996,0
828513717,0.0414311,-0.15185082,-0.0411806,4997,0,-2.871946,1.4321758,-11.565524,4997,0
828533707,0.045083284,-0.021643188,0.02194206,5000,0,-2.2290235,5.171006,-10.378868,5000,0
828553694,-0.07201508,0.08425589,-0.015081117,4999,0,-2.984062,1.266865,-6.718618,4999,0
828573677,0.0013309763,-0.037596326,-0.07589882,4996,0,-2.860444,1.4253818,-11.01384,4996,0
828593663,-0.028502004,-0.13438755,-0.0010776947,4997,0,-2.3620355,1.9097165,-10.660927,4997,0
828613655,0.15347238,0.006920074,0.015546417,5002,0,-2.744774,4.8015637,-10.690806,5002,0
828633636,-0.18013354,0.10966809,-0.03068628,4997,0,-3.2037597,0.7707239,-6.3228426,4997,0
828653622,0.050407883,-0.097367585,-0.05199024,4994,0,-2.721435,1.3402932,-11.47983,4994,0
828673610,-0.07858589,-0.056784626,0.06168409,4997,0,-1.5719471,2.7654064,-10.300919,4997,0
828693597,0.1337722,0.07174766,-0.026815865,4997,0,-3.1227329,3.6074347,-10.442522,4997,0
828713582,-0.081484325,0.055639517,-0.03862551,4996,0,-3.7829475,1.0308158,-6.1408224,4996,0
828733571,0.15009336,-0.1010606,0.016834276,4998,0,-0.91024417,2.7996218,-10.715178,4998,0
828753561,-0.2604575,0.06281052,0.03332874,5000,0,-2.2795656,1.3145987,-8.633523,5000,0
828773542,0.15995337,-0.011406953,-0.06181847,4996,0,-3.8234587,2.9545486,-11.81937,4996,0
828793529,0.039374694,-0.025545474,0.022594264,4997,0,-2.476558,2.5183842,-6.230272,4997,0
828813515,0.015635604,0.1290783,0.014532921,4996,0,-3.000776,3.5246067,-7.441204,4996,0
828833503,0.022792004,-0.055069398,-0.044374637,4998,0,-2.7715921,1.059097,-7.1579804,4998,0
828853490,-0.20981507,-0.021229504,0.046039414,4998,0,-1.4799086,2.0779736,-9.167598,4998,0
828873475,0.091634095,0.011591044,0.015947333,4996,0,-3.7713296,1.8862208,-11.710724,4996,0
828893465,0.00045298642,-0.09147598,-0.011717806,5000,0,-2.5807328,2.4515376,-8.6536455,5000,0
828913449,-0.05411763,0.12601727,3.706748e-05,4997,0,-3.6231136,3.4033182,-8.142591,4997,0
828933435,0.19583881,0.0025897853,0.014519338,4997,0,-3.2641044,2.963868,-7.324438,4997,0
828953422,-0.16009092,0.09963551,-0.01049369,4997,0,-2.0000632,2.0995922,-5.652449,4997,0
828973410,0.0648395,-0.05769867,-0.034227822,4998,0,-2.8862717,1.9958674,-9.632492,4998,0
828993394,-0.0903928,-0.1160059,0.036556285,4996,0,-1.2504406,1.9020002,-9.927682,4996,0
829013386,-0.13510963,0.058201127,0.004590855,5001,0,-3.7445216,1.4661018,-10.332077,5001,0
829033367,0.22242782,-0.14445485,-0.041184712,4994,0,-2.4941256,4.074679,-11.656356,4994,0
829053354,-0.12624885,0.11448719,-0.0012775699,4995,0,-3.6493516,2.1144338,-6.750175,4995,0
829073342,0.10865344,0.03797538,0.016999269,4998,0,-3.9303434,3.4074342,-8.171519,4998,0
829093327,-0.059518725,-0.02748154,-0.039176457,4996,0,-1.1504904,2.318869,-7.0799775,4996,0
829113314,-0.2655771,0.022995122,-0.04444922,4997,0,-3.0810337,1.0897619,-9.34822,4997,0
829133300,0.19363701,-0.1596178,-0.004287345,4996,0,-2.5694368,2.4752877,-11.935446,4996,0
829153289,0.0021970684,0.027173828,0.015125456,4996,0,-2.0509825,3.91393,-9.590151,4996,0
829173274,-0.004389259,0.06938658,-0.080406785,4996,0,-3.6675348,1.6307611,-8.383945,4996,0
829193260,-0.21629144,-0.048547372,-0.012353137,4996,0,-2.4585648,1.0482092,-9.09778,4996,0
829213248,0.112771176,-0.116669305,0.037472025,4997,0,-1.733342,3.4230494,-12.356012,4997,0
829233233,0.030729787,0.06040951,-0.03156154,4996,0,-2.693708,3.8939607,-9.820357,4996,0
829253221,-0.026828995,0.008660823,-0.045125347,4996,0,-3.4990423,-0.08845658,-8.251043,4996,0
829273207,-0.0267352,-0.08713922,-0.03190053,4997,0,-2.4449928,2.7294488,-12.505988,4997,0
829293195,0.04343921,-0.02752909,-0.0016186491,4998,0,-2.7928066,2.8559034,-8.444271,4998,0
829313184,0.10261081,0.044197742,-0.023940558,4997,0,-1.5379835,3.5670464,-9.485675,4997,0
829333166,-0.26235095,0.019382065,-0.036917347,4994,0,-2.8799837,0.012860479,-9.102605,4994,0
829353153,0.19827291,-0.059401896,-0.032673143,4996,0,-4.19056,3.2679083,-11.984525,4996,0
829373141,0.04459554,-0.005818524,0.009958671,4997,0,-2.3476908,2.7274456,-7.5711803,4997,0
829393126,0.012840146,-0.009923181,-0.004103744,4997,0,-1.089382,1.7361989,-9.491939,4997,0
829413113,-0.19103652,0.09321008,-0.009250854,4997,0,-2.952343,2.5077882,-10.601834,4997,0
829433099,0.16285126,-0.011537393,-0.0062035583,4996,0,-4.326286,2.2332568,-9.356176,4996,0
829453086,0.026236722,-0.011963109,0.026719281,4997,0,-1.5552953,3.1713474,-7.4527493,4997,0
829473076,-0.008814756,0.026387384,0.010999676,4995,0,-1.7677243,1.5403831,-10.090989,4995,0
829493061,-0.15336758,0.0037734457,-0.013209611,4999,0,-3.7047923,0.7167885,-9.3656,4999,0
829513048,0.19788432,-0.046229076,0.03264426,5000,0,-2.141575,5.2992196,-10.898358,5000,0
829533032,-0.083732,0.13023381,0.0165432,4996,0,-3.598151,1.0287831,-5.9023595,4996,0
829553019,-0.03076463,-0.01909674,-0.04372691,4997,0,-2.418735,2.7203703,-6.708969,4997,0
829573005,-0.029219124,-0.013134373,0.035584513,4997,0,-1.5170776,2.695468,-10.607631,4997,0
829592992,-0.057274405,0.01484238,0.03334655,4997,0,-3.541626,-0.044649925,-8.029,4997,0
829612980,-0.07529025,-0.00041391526,0.003455488,4998,0,-1.3161644,3.5472236,-10.355437,4998,0
829632967,0.1388432,-0.004809,-0.015349899,4998,0,-4.0879154,2.5420277,-10.813156,4998,0
829652952,0.06683288,-0.027642254,0.03952772,4996,0,-2.0970926,3.0860825,-8.239782,4996,0
829677935,0.017740764,0.06487896,-0.014425358,4996,0,-1.7017561,4.3853364,-7.960626,4996,0
829692925,0.10323382,-0.02074365,-0.026904266,4997,0,-1.752545,5.3810654,-8.321497,4997,0
829712912,0.09944329,0.08119298,0.038104784,4997,0,-4.2826,1.2344707,-6.3953013,4997,0
829732898,-0.08177193,-0.016606228,-0.0048954734,4997,0,-1.9434087,2.3146386,-5.4873414,4997,0
829757881,0.015382759,-0.09383364,-0.0012780895,4995,0,-1.4560797,4.0848303,-12.16862,4995,0
829772873,0.089788936,-0.107629806,0.018680217,4999,0,-1.1334713,4.1787777,-11.505895,4999,0
829792859,-0.068739586,0.10639639,0.031077003,4996,0,-3.259478,0.035784163,-9.261522,4996,0
829812845,0.10003561,-0.072957695,-0.01916272,4996,0,-2.4085677,4.0122,-10.413529,4996,0
829832832,0.12477415,0.07491099,-0.014680905,4998,0,-3.2754097,3.8544188,-9.340684,4998,0
829852818,0.0055012717,0.006831766,0.019819718,4997,0,-3.4558375,0.61377937,-6.369987,4997,0
829872804,-0.111924596,-0.032082934,-0.040405296,4996,0,-1.4389485,3.1766298,-9.812917,4996,0
829897787,0.011959495,0.069568045,0.01852488,4996,0,-2.3357146,3.0884824,-7.0725307,4996,0
829912779,0.110910855,0.09898057,0.027358046,4998,0,-4.004224,2.9326985,-8.664624,4998,0
829932765,0.16903888,0.008567551,-0.063042216,4997,0,-1.1591523,2.7862945,-9.616461,4997,0
829957747,0.28090546,-0.012239138,0.025484385,4991,0,-3.3132007,4.7227397,-11.66495,4991,0
829972738,0.17865574,0.1067841,-0.011462859,4995,0,-4.3838253,2.3876877,-10.716764,4995,0
829992724,0.04131924,0.06309524,-0.042042103,4996,0,-2.0373511,2.415361,-9.241012,4996,0
830012712,0.05912433,0.00023441022,-0.020332081,4998,0,-1.9289882,2.3044038,-11.685535,4998,0
830037693,0.02753752,0.055045146,0.0029045006,4996,0,-2.6977377,0.34813574,-10.105426,4996,0
830052685,-0.17676324,0.20552401,0.027444536,4997,0,-2.8496115,-0.30166185,-8.798966,4997,0
830072673,0.24438658,0.10226694,-0.08184062,5000,0,-4.330645,3.2494426,-12.760917,5000,0
830097657,0.07660127,0.056102213,0.03574475,4997,0,-3.0223033,1.5562934,-12.535143,4997,0
830112643,-0.015834693,-0.040399726,0.01893242,4997,0,-1.6167743,1.926808,-10.4587965,4997,0
830132631,0.18296008,0.14172785,-0.020965751,4997,0,-2.5168707,4.819084,-11.1893635,4997,0
830152616,-0.021735065,0.2651913,0.017270762,4997,0,-3.4045937,0.035290953,-7.286088,4997,0
830177599,0.035949163,0.19781832,0.019036686,4995,0,-2.526369,3.2349734,-8.602706,4995,0
830192590,0.20195389,0.053351443,-0.0058189123,4998,0,-2.3097014,4.8934364,-11.005598,4998,0
830212578,0.113987215,0.17474452,0.0057663964,4999,0,-2.8785813,2.278845,-7.201426,4999,0
830237563,0.1741532,0.06320049,0.05388603,5001,0,-1.6949859,3.5948787,-12.231027,5001,0
830252549,0.22783993,0.028730983,-0.01175432,4995,0,-1.7355777,2.4504745,-9.684726,4995,0
830272536,-0.13798842,0.21934056,0.020156445,4996,0,-2.6440609,1.6375816,-9.141572,4996,0
830292524,0.37080082,0.009928457,0.022951603,4999,0,-3.4219534,3.4481697,-12.057966,4999,0
830317505,0.3499867,0.14479774,0.041319583,4995,0,-3.4612582,4.579478,-8.135452,4995,0
830332496,0.25587055,0.16904888,0.03359044,4998,0,-4.2845387,2.909046,-10.466701,4998,0
830352483,0.24911945,0.08770803,-0.039262332,4998,0,-2.0966837,4.123299,-10.688103,4998,0
830377465,0.06543906,0.15098962,0.05496509,4995,0,-2.5650227,4.212737,-7.813363,4995,0
830392456,0.28085762,0.0709208,0.025269177,4998,0,-2.199795,5.7341475,-9.190701,4998,0
830412441,0.26209584,0.14552508,-0.006903563,4997,0,-4.0686164,1.2574553,-7.421479,4997,0
830432428,0.035585262,0.089462996,-0.012447646,4997,0,-2.4994044,3.4461443,-6.454883,4997,0
830452415,0.08452799,0.20301223,0.011997638,4997,0,-4.5520973,3.287555,-7.2636333,4997,0
830472402,0.21153307,0.026478512,0.024051117,4996,0,-2.3135676,3.4750116,-6.869277,4996,0
830492389,-0.07748078,0.21413204,-0.033668716,4999,0,-3.9742043,1.30683,-5.6085196,4999,0
830517372,-0.053252142,0.13135654,0.01851619,4997,0,-3.5172584,-0.3864539,-9.030825,4997,0
830532361,-0.09931754,0.19110206,0.028083103,4997,0,-2.3323185,0.7123339,-6.9914355,4997,0
830552348,0.10258874,0.061526343,-0.011660549,4996,0,-2.5961056,2.1771603,-10.339268,4996,0
830572334,0.054643285,-0.04148678,-0.023937792,4997,0,-0.9717932,2.593962,-12.006236,4997,0
830592321,-0.08945718,0.1350121,0.008100289,4997,0,-3.7630196,2.4016178,-11.124156,4997,0
830612310,0.28401443,0.05437468,-0.023962565,5000,0,-3.3188443,2.68175,-10.044239,5000,0
830632294,0.1146874,0.14688306,-0.023028744,4994,0,-2.2616787,4.382513,-8.754795,4994,0
830657277,-0.089134924,-0.005171799,-0.018970259,4997,0,-0.87655497,2.9457006,-10.455441,4997,0
830672268,0.03694006,-0.017035414,-0.061276462,4998,0,-1.7756537,2.514592,-11.036026,4998,0
830692255,0.02904205,0.010478593,0.07094977,4998,0,-1.5250393,2.0492337,-11.528041,4998,0
830712242,0.17444283,0.16306014,-0.023696028,4996,0,-2.56064,3.1865873,-13.300203,4996,0
830732227,0.18676966,0.1182763,-0.052831303,4996,0,-3.8096354,1.4285493,-8.771698,4996,0
830752214,0.2968057,0.054152697,-0.00454921,4996,0,-1.1845592,3.603549,-10.439087,4996,0
830772201,-0.14667824,0.17063513,0.021741474,4998,0,-0.9537992,0.9062005,-8.349411,4998,0
830797183,-0.0023263025,0.16098352,-0.027790008,4995,0,-1.9672095,2.4886954,-9.255619,4995,0
830812174,0.12433109,0.055285312,-0.017546406,4996,0,-1.6442813,3.658517,-11.773816,4996,0
830832160,0.20831469,0.19385087,0.029355358,4995,0,-2.4434857,2.528483,-9.728076,4995,0
830852147,0.10844942,0.2220094,-0.026991524,4996,0,-3.913021,1.8587694,-7.561662,4996,0
830872134,0.22909167,0.045362215,-0.053164504,4998,0,-0.9025176,2.7059593,-8.63422,4998,0
830892121,-0.099854805,0.1914884,0.0040445095,4997,0,-2.7282925,-0.0013793207,-7.7311687,4997,0
830912107,0.42461044,0.09096727,0.018338379,4998,0,-1.1296451,3.099156,-10.491685,4998,0
830937089,0.21619613,0.12352955,-0.0095169665,4997,0,-0.63770366,3.4935894,-11.708145,4997,0
830952081,0.12433429,0.09009607,-0.029869266,4999,0,-1.2738358,2.3242555,-8.766148,4999,0
830972065,0.1682832,0.2846239,0.04473655,4995,0,-1.6565194,1.8703831,-9.877298,4995,0
830992054,0.30188578,0.21587145,-0.01644836,4999,0,-1.7747493,2.012742,-5.3308377,4999,0
831012039,0.18260045,0.39227533,-0.02015515,4997,0,-3.5153356,0.4656001,-5.3094645,4997,0
831032025,0.21623226,0.2911661,0.023265855,4996,0,-1.2043769,3.8977237,-9.443662,4996,0
831052012,0.40916178,0.112538435,0.02097695,4997,0,-1.9422477,2.8661654,-10.375422,4997,0
831076996,0.06328303,0.19681458,0.02372819,4997,0,-0.8854511,1.2609223,-8.482882,4997,0
831091986,0.14337505,0.24451028,-0.02156898,4998,0,-0.9386287,1.2717294,-9.422264,4998,0
831111973,0.23995507,0.159694,0.020108156,4998,0,-1.1067128,2.3880126,-5.2830334,4998,0
831136955,0.07635473,0.3824842,0.026544342,4997,0,-2.7158263,1.9334941,-6.848404,4997,0
831151946,-0.06089516,0.305744,-0.0008354983,4998,0,-2.7235305,-0.25246933,-8.939547,4998,0
831171931,-0.0268239,0.14824845,0.021520125,4996,0,0.17745239,1.981552,-10.537987,4996,0
831191919,0.23828469,0.07675486,0.048491806,4997,0,-0.71626043,2.8991492,-8.885282,4997,0
831216903,0.23468196,0.40169328,-0.025759712,4997,0,-1.5924994,1.0916995,-8.753388,4997,0
831231891,0.26772904,0.35791776,-0.030198142,4997,0,-2.0335493,1.0487423,-11.709118,4997,0
831251879,0.2568934,0.2159381,-0.0141291395,4998,0,0.40708062,2.014761,-13.279685,4998,0
831276862,-0.096509166,0.2625194,0.026760934,4998,0,-3.0103729,-1.4300318,-8.8361,4998,0
831291851,-0.060484644,0.21012497,-0.007796784,4997,0,-2.895299,-1.0873785,-7.1964498,4997,0
831311839,-0.14312862,0.2515764,-0.048035774,4999,0,-1.3418859,0.0031066167,-7.117473,4999,0
831331824,0.14775833,0.12234256,-0.0035491355,4997,0,0.1541243,2.7245646,-8.59448,4997,0
831356809,0.09530726,0.3364019,-0.019617205,4998,0,-1.6246753,0.18492898,-8.233771,4998,0
831371797,0.13656731,0.22918275,-0.031916644,4997,0,-1.148346,0.99000776,-13.019981,4997,0
831391785,0.14734513,0.007350081,-0.01192271,4999,0,0.37580895,1.2840677,-12.540938,4999,0
831416768,0.09424019,0.2788291,0.0022952135,4997,0,-1.0386422,1.671175,-11.827388,4997,0
831431757,0.011498971,0.25832152,-0.007809618,4994,0,-0.3056541,0.4380258,-12.453744,4994,0
831451745,0.3558523,0.031971615,-0.06959834,4998,0,1.1985985,2.2007995,-12.870337,4998,0
831471732,0.22775914,0.10024487,-0.030465335,4999,0,-1.5391357,-0.6751996,-10.2176,4999,0
831496714,0.1017627,0.051380657,0.040044338,4992,0,0.7382061,1.2640789,-11.67916,4992,0
831511703,0.080299474,0.13618934,-0.017841008,4995,0,0.2127245,1.0914377,-7.0748415,4995,0
831531690,0.1254981,0.13424978,-0.021180516,4997,0,-1.9388433,0.42675844,-7.0086436,4997,0
831556673,0.27636325,0.12705053,-0.0147351,4997,0,0.77653533,2.415017,-10.725654,4997,0
831571663,0.18747453,0.22863999,0.010934154,4997,0,0.8094199,1.7001917,-13.273683,4997,0
831591652,0.37730673,0.21776678,-0.006551882,4997,0,1.21602,2.4805844,-10.667519,4997,0
831611636,0.3145271,0.18764727,-0.034319527,4997,0,0.052365124,2.1761994,-8.310652,4997,0
831636620,0.18847369,0.23591734,-0.01112541,4997,0,-1.5277618,-0.2976106,-9.906477,4997,0
831651614,0.18846403,0.1610417,0.020424172,5001,0,-0.73390585,0.83125216,-7.2570047,5001,0
831671597,0.1250482,0.15017968,0.015488579,4998,0,-0.7018066,-0.27578595,-6.0303307,4998,0
831696579,0.13410473,0.30759758,-0.025744477,4992,0,-1.4031938,-1.316544,-6.2874675,4992,0
831711569,0.32901973,0.11582517,0.02896045,4997,0,0.9758859,1.447513,-9.974176,4997,0
831731559,0.12515773,0.28776196,0.061106596,5000,0,0.11063413,1.5435344,-8.594269,5000,0
831751543,0.0055616694,0.30225432,-0.028317861,4997,0,-0.75750434,-1.4124365,-8.448691,4997,0
831776525,0.18701696,0.2538701,-0.0071654157,4996,0,-1.3682649,-0.95794195,-7.5221543,4996,0
831791522,0.17854898,0.1973973,0.04006432,5004,0,0.37777868,0.8082376,-6.764412,5004,0
831811503,0.23724718,0.2779731,-0.0031661887,4998,0,-0.51588345,-0.29404914,-9.278024,4998,0
831836484,-0.03159433,0.22283542,-0.01989593,4996,0,-1.004302,-1.4526924,-7.1798267,4996,0
831851475,0.10120104,0.095534906,0.025997201,4996,0,0.5636213,0.8020023,-9.5335655,4996,0
831871463,-0.06556219,0.19242482,0.00865009,4998,0,-1.075447,-1.3704163,-6.8261786,4998,0
831891448,0.25719112,-0.056758195,-0.016151661,4995,0,0.6715877,1.3078763,-8.765731,4995,0
831911438,-0.06402679,0.08632168,-0.010565603,5000,0,-0.062855445,-1.4503114,-9.740701,5000,0
831931430,0.18648031,0.0662801,0.0018348064,5005,0,-0.879483,-0.54131967,-8.756766,5005,0
831951410,0.045171525,-0.06269639,0.017732589,4999,0,0.1036633,0.18798849,-8.585638,4999,0
831976391,-0.12492251,-0.09726251,-0.030222667,4997,0,0.017893374,0.02678675,-6.6079583,4997,0
831991380,0.056430742,-0.043084648,0.016356362,4995,0,0.9783671,0.7669211,-13.236693,4995,0
832011369,-0.084490016,0.07923918,-0.016969247,4998,0,-0.50282216,-0.8821408,-11.316377,4998,0
832036350,-0.027934123,0.12685016,-0.06122263,4996,0,-0.008341914,-0.47137737,-11.091359,4996,0
832056337,-0.17785421,0.0778555,-0.033525985,4996,0,-1.317833,-2.2739778,-8.814211,4996,0
832071327,0.1510694,-0.09466598,-0.02568075,4996,0,-0.149788,0.529557,-10.184921,4996,0
832091314,0.014728485,-0.15684539,-0.019136617,4997,0,1.1770364,0.9698611,-11.217544,4997,0
832116298,0.17439863,-0.124280155,-0.051892422,4997,0,0.12219823,0.6730055,-11.483836,4997,0
