timestamp,q[0],q[1],q[2],q[3],delta_q_reset[0],delta_q_reset[1],delta_q_reset[2],delta_q_reset[3],quat_reset_counter
819169997,0.7251609,0.00079092867,0.0035725348,0.68856984,0.99968505,-2.974825e-10,4.4255995e-11,0.025098499,4
819174995,0.7251617,0.0007934825,0.0035729832,0.688569,0.99968505,-2.974825e-10,4.4255995e-11,0.025098499,4
819194980,0.72515756,0.000790077,0.0035684342,0.68857336,0.99968505,-2.974825e-10,4.4255995e-11,0.025098499,4
819214966,0.72515655,0.0007911671,0.0035617026,0.68857443,0.99968505,-2.974825e-10,4.4255995e-11,0.025098499,4
819234953,0.7251964,0.0007978307,0.003574915,0.6885323,0.99968505,-2.974825e-10,4.4255995e-11,0.025098499,4
819254939,0.7251885,0.000802115,0.0035626474,0.6885408,0.99968505,-2.974825e-10,4.4255995e-11,0.025098499,4
819274926,0.72509646,0.000802673,0.003555172,0.6886377,0.99968505,-2.974825e-10,4.4255995e-11,0.025098499,4
819294912,0.72521144,0.0007943587,0.0035635894,0.68851656,0.99968505,-2.974825e-10,4.4255995e-11,0.025098499,4
819314900,0.72513896,0.00080479274,0.0035585705,0.6885929,0.99968505,-2.974825e-10,4.4255995e-11,0.025098499,4
819334885,0.72515947,0.00078139524,0.0035354248,0.6885715,0.99968505,-2.974825e-10,4.4255995e-11,0.025098499,4
819354872,0.7251903,0.0008035158,0.0035748216,0.6885388,0.99968505,-2.974825e-10,4.4255995e-11,0.025098499,4
819374858,0.72514987,0.0008016674,0.0035791527,0.6885814,0.99968505,-2.974825e-10,4.4255995e-11,0.025098499,4
819394845,0.7251909,0.00080245815,0.0035926437,0.6885381,0.99968505,-2.974825e-10,4.4255995e-11,0.025098499,4
819414832,0.7251726,0.00079735526,0.003573598,0.68855745,0.99968505,-2.974825e-10,4.4255995e-11,0.025098499,4
819434818,0.72518307,0.0007923028,0.0035801968,0.6885464,0.99968505,-2.974825e-10,4.4255995e-11,0.025098499,4
819454805,0.72517776,0.0007939934,0.0035803807,0.6885519,0.99968505,-2.974825e-10,4.4255995e-11,0.025098499,4
819474791,0.7251862,0.0007980459,0.0035727043,0.68854314,0.99968505,-2.974825e-10,4.4255995e-11,0.025098499,4
819494778,0.72519886,0.00079491956,0.0035756195,0.68852973,0.99968505,-2.974825e-10,4.4255995e-11,0.025098499,4
819514766,0.72514564,0.00078359543,0.0035874404,0.6885858,0.99968505,-2.974825e-10,4.4255995e-11,0.025098499,4
819534751,0.7252115,0.00079238147,0.0035728496,0.68851644,0.99968505,-2.974825e-10,4.4255995e-11,0.025098499,4
819554737,0.72519803,0.0007897307,0.003581766,0.6885306,0.99968505,-2.974825e-10,4.4255995e-11,0.025098499,4
819574724,0.7251884,0.00079175044,0.0035782382,0.6885408,0.99968505,-2.974825e-10,4.4255995e-11,0.025098499,4
819594711,0.72521144,0.00079136994,0.003597237,0.68851644,0.99968505,-2.974825e-10,4.4255995e-11,0.025098499,4
819614699,0.72519225,0.0007810289,0.0035882872,0.6885367,0.99968505,-2.974825e-10,4.4255995e-11,0.025098499,4
819634683,0.7252099,0.0007942422,0.0036060135,0.688518,0.99968505,-2.974825e-10,4.4255995e-11,0.025098499,4
819654674,0.7252128,0.00079503574,0.003584886,0.688515,0.99968505,-2.974825e-10,4.4255995e-11,0.025098499,4
819674657,0.7252518,0.0007565717,0.003541628,0.68847424,0.99968505,-2.974825e-10,4.4255995e-11,0.025098499,4
819694643,0.72523516,0.00074158265,0.0035216487,0.6884919,0.99968505,-2.974825e-10,4.4255995e-11,0.025098499,4
819714630,0.7251919,0.00079271366,0.0035070437,0.6885375,0.99968505,-2.974825e-10,4.4255995e-11,0.025098499,4
819734617,0.72526366,0.0006979518,0.003555534,0.6884617,0.99968505,-2.974825e-10,4.4255995e-11,0.025098499,4
819754603,0.72521484,0.0007318457,0.003539758,0.6885132,0.99968505,-2.974825e-10,4.4255995e-11,0.025098499,4
819774590,0.7251434,0.00072640204,0.0035233877,0.6885886,0.99968505,-2.974825e-10,4.4255995e-11,0.025098499,4
819794576,0.72540057,0.00071611954,0.003531512,0.6883176,0.99968505,-2.974825e-10,4.4255995e-11,0.025098499,4
819814564,0.72511727,0.000722557,0.003488337,0.6886162,0.99968505,-2.974825e-10,4.4255995e-11,0.025098499,4
819834552,0.72516215,0.0007184672,0.0035411944,0.6885687,0.99968505,-2.974825e-10,4.4255995e-11,0.025098499,4
819854536,0.72548085,0.0007006053,0.0034824759,0.6882333,0.99968505,-2.974825e-10,4.4255995e-11,0.025098499,4
819874522,0.7248887,0.00073521596,0.0035548876,0.6888565,0.99968505,-2.974825e-10,4.4255995e-11,0.025098499,4
819894509,0.7253457,0.00070661114,0.0034922133,0.6883757,0.99968505,-2.974825e-10,4.4255995e-11,0.025098499,4
819914495,0.7254075,0.00072009093,0.0034640422,0.6883107,0.99968505,-2.974825e-10,4.4255995e-11,0.025098499,4
819934482,0.72479975,0.0007460753,0.0035286774,0.6889502,0.99968505,-2.974825e-10,4.4255995e-11,0.025098499,4
819954468,0.7256008,0.0007197763,0.0034331128,0.68810695,0.99968505,-2.974825e-10,4.4255995e-11,0.025098499,4
819974455,0.72513026,0.0007326876,0.0034897425,0.6886026,0.99968505,-2.974825e-10,4.4255995e-11,0.025098499,4
819994442,0.7249543,0.0007075627,0.0035151963,0.68878776,0.99968505,-2.974825e-10,4.4255995e-11,0.025098499,4
820014430,0.72567046,0.0006886553,0.0034847877,0.68803334,0.99968505,-2.974825e-10,4.4255995e-11,0.025098499,4
820034414,0.72485083,0.0007396204,0.0035373368,0.6888965,0.99968505,-2.974825e-10,4.4255995e-11,0.025098499,4
820054402,0.725319,0.00065488217,0.0034780025,0.6884039,0.99968505,-2.974825e-10,4.4255995e-11,0.025098499,4
820074388,0.7254942,0.00071246346,0.0034239148,0.6882194,0.99968505,-2.974825e-10,4.4255995e-11,0.025098499,4
820094374,0.72473943,0.00072530744,0.003514122,0.6890138,0.99968505,-2.974825e-10,4.4255995e-11,0.025098499,4
820114361,0.72566366,0.000638157,0.0034683074,0.68804055,0.99968505,-2.974825e-10,4.4255995e-11,0.025098499,4
820134348,0.72508365,0.00072234817,0.0035160454,0.6886515,0.99968505,-2.974825e-10,4.4255995e-11,0.025098499,4
820154334,0.72500217,0.000689419,0.003475635,0.6887375,0.99968505,-2.974825e-10,4.4255995e-11,0.025098499,4
820174321,0.72569704,0.00067811314,0.00347498,0.68800527,0.99968505,-2.974825e-10,4.4255995e-11,0.025098499,4
820194307,0.72475076,0.00070430484,0.0035123026,0.68900186,0.99968505,-2.974825e-10,4.4255995e-11,0.025098499,4
820214294,0.72542596,0.0007300309,0.0034826566,0.68829113,0.99968505,-2.974825e-10,4.4255995e-11,0.025098499,4
820234281,0.7253811,0.0006674228,0.0034803825,0.6883385,0.99968505,-2.974825e-10,4.4255995e-11,0.025098499,4
820254267,0.72476596,0.0007552356,0.0034601637,0.68898606,0.99968505,-2.974825e-10,4.4255995e-11,0.025098499,4
820274253,0.72570175,0.0006301935,0.003389561,0.68800086,0.99968505,-2.974825e-10,4.4255995e-11,0.025098499,4
820294240,0.7249382,0.00077402126,0.0034785697,0.68880475,0.99968505,-2.974825e-10,4.4255995e-11,0.025098499,4
820314228,0.72513944,0.0006543435,0.0034033032,0.6885934,0.99968505,-2.974825e-10,4.4255995e-11,0.025098499,4
820334213,0.7255983,0.0007166422,0.0034082285,0.68810976,0.99968505,-2.974825e-10,4.4255995e-11,0.025098499,4
820354200,0.7247286,0.0006767738,0.0034384874,0.68902564,0.99968505,-2.974825e-10,4.4255995e-11,0.025098499,4
820374186,0.7255814,0.00066771626,0.0034190712,0.6881276,0.99968505,-2.974825e-10,4.4255995e-11,0.025098499,4
820394173,0.7251469,0.0006745985,0.0034621356,0.6885853,0.99968505,-2.974825e-10,4.4255995e-11,0.025098499,4
820414161,0.7249276,0.00068634545,0.003443185,0.68881613,0.99968505,-2.974825e-10,4.4255995e-11,0.025098499,4
820434147,0.7257044,0.00061988656,0.0033422497,0.68799835,0.99968505,-2.974825e-10,4.4255995e-11,0.025098499,4
820454133,0.7247435,0.00072487217,0.0034658758,0.68900967,0.99968505,-2.974825e-10,4.4255995e-11,0.025098499,4
820474119,0.72538,0.0006396592,0.0033537813,0.6883402,0.99968505,-2.974825e-10,4.4255995e-11,0.025098499,4
820494107,0.7253623,0.00069846533,0.0034331952,0.6883585,0.99968505,-2.974825e-10,4.4255995e-11,0.025098499,4
820514093,0.72476083,0.00073624414,0.0034206493,0.6889918,0.99968505,-2.974825e-10,4.4255995e-11,0.025098499,4
820534079,0.7257063,0.0006381457,0.003289827,0.68799645,0.99968505,-2.974825e-10,4.4255995e-11,0.025098499,4
820554065,0.7248923,0.00070540555,0.0034802365,0.6888531,0.99968505,-2.974825e-10,4.4255995e-11,0.025098499,4
820574052,0.7251782,0.00067263114,0.0033699973,0.68855274,0.99968505,-2.974825e-10,4.4255995e-11,0.025098499,4
820594038,0.7255561,0.00069122715,0.0033998592,0.68815434,0.99968505,-2.974825e-10,4.4255995e-11,0.025098499,4
820614026,0.72469765,0.000704434,0.0034528964,0.689058,0.99968505,-2.974825e-10,4.4255995e-11,0.025098499,4
820634012,0.72559714,0.00064769894,0.0034200205,0.68811107,0.99968505,-2.974825e-10,4.4255995e-11,0.025098499,4
820653999,0.72503763,0.0006806564,0.0034335929,0.6887004,0.99968505,-2.974825e-10,4.4255995e-11,0.025098499,4
820673985,0.72497904,0.00074568385,0.00349028,0.6887618,0.99968505,-2.974825e-10,4.4255995e-11,0.025098499,4
820693972,0.72565705,0.0006555764,0.0034471147,0.6880477,0.99968505,-2.974825e-10,4.4255995e-11,0.025098499,4
820713960,0.7247017,0.0007397553,0.003525835,0.68905336,0.99968505,-2.974825e-10,4.4255995e-11,0.025098499,4
820733945,0.72548336,0.00064505805,0.003531124,0.68823045,0.99968505,-2.974825e-10,4.4255995e-11,0.025098499,4
820753932,0.72521675,0.0007215512,0.0035164584,0.6885113,0.99968505,-2.974825e-10,4.4255995e-11,0.025098499,4
820773919,0.72488964,0.00067031436,0.0035236483,0.6888557,0.99968505,-2.974825e-10,4.4255995e-11,0.025098499,4
820793904,0.72571105,0.00066590344,0.0034687892,0.6879906,0.99968505,-2.974825e-10,4.4255995e-11,0.025098499,4
820813892,0.7247666,0.0006747689,0.0035585682,0.688985,0.99968505,-2.974825e-10,4.4255995e-11,0.025098499,4
820833879,0.7254066,0.0006710728,0.0034271302,0.6883119,0.99968505,-2.974825e-10,4.4255995e-11,0.025098499,4
820853864,0.7253491,0.0006419569,0.0034358334,0.6883723,0.99968505,-2.974825e-10,4.4255995e-11,0.025098499,4
820873851,0.72478503,0.00072755385,0.0034192442,0.6889662,0.99968505,-2.974825e-10,4.4255995e-11,0.025098499,4
820893837,0.7257064,0.0005956066,0.0033432934,0.68799615,0.99968505,-2.974825e-10,4.4255995e-11,0.025098499,4
820913825,0.7247946,0.0007396641,0.0034388578,0.68895614,0.99968505,-2.974825e-10,4.4255995e-11,0.025098499,4
820933812,0.7252731,0.00065358356,0.003449138,0.68845236,0.99968505,-2.974825e-10,4.4255995e-11,0.025098499,4
820953797,0.72542644,0.00071924244,0.0034126858,0.6882909,0.99968505,-2.974825e-10,4.4255995e-11,0.025098499,4
820973784,0.7247316,0.0007047427,0.003512831,0.689022,0.99968505,-2.974825e-10,4.4255995e-11,0.025098499,4
820993772,0.72570086,0.00063795253,0.003465503,0.6880014,0.99968505,-2.974825e-10,4.4255995e-11,0.025098499,4
821013758,0.72486997,0.00071147433,0.0034817643,0.6888766,0.99968505,-2.974825e-10,4.4255995e-11,0.025098499,4
821033744,0.7252218,0.00065137626,0.0034626212,0.68850636,0.99968505,-2.974825e-10,4.4255995e-11,0.025098499,4
821053731,0.7255156,0.000609578,0.003474368,0.68819666,0.99968505,-2.974825e-10,4.4255995e-11,0.025098499,4
821073718,0.7247112,0.00074110343,0.0034665603,0.6890437,0.99968505,-2.974825e-10,4.4255995e-11,0.025098499,4
821093703,0.7256874,0.0006295989,0.0033777345,0.688016,0.99968505,-2.974825e-10,4.4255995e-11,0.025098499,4
821113690,0.7249274,0.0007088731,0.0033981518,0.68881655,0.99968505,-2.974825e-10,4.4255995e-11,0.025098499,4
821133677,0.7251233,0.00068936334,0.003377115,0.68861043,0.99968505,-2.974825e-10,4.4255995e-11,0.025098499,4
821153662,0.72560364,0.0006689576,0.0033670932,0.6881044,0.99968505,-2.974825e-10,4.4255995e-11,0.025098499,4
821173651,0.72462106,0.00070901425,0.0034495387,0.68913865,0.99968505,-2.974825e-10,4.4255995e-11,0.025098499,4
821193637,0.72565883,0.0006285551,0.0033576468,0.6880462,0.99968505,-2.974825e-10,4.4255995e-11,0.025098499,4
821213625,0.72492695,0.00071801525,0.0034606522,0.6888168,0.99968505,-2.974825e-10,4.4255995e-11,0.025098499,4
821233610,0.72514886,0.00067872665,0.0034988548,0.68858296,0.99968505,-2.974825e-10,4.4255995e-11,0.025098499,4
821253597,0.7256094,0.0006635534,0.0033778856,0.6880983,0.99968505,-2.974825e-10,4.4255995e-11,0.025098499,4
821273582,0.72469145,0.0006887223,0.0035217416,0.6890642,0.99968505,-2.974825e-10,4.4255995e-11,0.025098499,4
821293575,0.7256877,0.0006372256,0.0033777351,0.68801576,0.99968505,-2.974825e-10,4.4255995e-11,0.025098499,4
821313557,0.72497255,0.0006753814,0.0034216985,0.68876904,0.99968505,-2.974825e-10,4.4255995e-11,0.025098499,4
821333543,0.72508913,0.0007008215,0.0033353455,0.6886466,0.99968505,-2.974825e-10,4.4255995e-11,0.025098499,4
821353529,0.72560084,0.0006423622,0.0033181335,0.6881076,0.99968505,-2.974825e-10,4.4255995e-11,0.025098499,4
821373516,0.7246057,0.00078493,0.0034303905,0.68915474,0.99968505,-2.974825e-10,4.4255995e-11,0.025098499,4
821393506,0.72568256,0.000618174,0.003325579,0.6880214,0.99968505,-2.974825e-10,4.4255995e-11,0.025098499,4
821413488,0.72487485,0.00074867834,0.0033899965,0.68887186,0.99968505,-2.974825e-10,4.4255995e-11,0.025098499,4
821433474,0.72517735,0.00067455875,0.0034176032,0.68855333,0.99968505,-2.974825e-10,4.4255995e-11,0.025098499,4
821453460,0.72559,0.00065108406,0.0033779256,0.6881188,0.99968505,-2.974825e-10,4.4255995e-11,0.025098499,4
821473450,0.7246579,0.0007290289,0.003406867,0.6891,0.99968505,-2.974825e-10,4.4255995e-11,0.025098499,4
821493435,0.7258379,0.0006104886,0.0033125933,0.68785757,0.99968505,-2.974825e-10,4.4255995e-11,0.025098499,4
821513421,0.7248173,0.0006892937,0.0033343176,0.6889328,0.99968505,-2.974825e-10,4.4255995e-11,0.025098499,4
821533409,0.72532094,0.00064806297,0.003290461,0.6884028,0.99968505,-2.974825e-10,4.4255995e-11,0.025098499,4
821553395,0.7254777,0.0006603285,0.0032698668,0.6882377,0.99968505,-2.974825e-10,4.4255995e-11,0.025098499,4
821573381,0.72469294,0.00074198167,0.0034497995,0.68906295,0.99968505,-2.974825e-10,4.4255995e-11,0.025098499,4
821593367,0.7258142,0.0006404026,0.0033000107,0.68788266,0.99968505,-2.974825e-10,4.4255995e-11,0.025098499,4
821613353,0.72472006,0.0007366661,0.003440115,0.6890345,0.99968505,-2.974825e-10,4.4255995e-11,0.025098499,4
821633341,0.72549814,0.0006836538,0.0033906028,0.6882155,0.99968505,-2.974825e-10,4.4255995e-11,0.025098499,4
821653329,0.7253504,0.00064826454,0.003326144,0.68837154,0.99968505,-2.974825e-10,4.4255995e-11,0.025098499,4
821673313,0.72481966,0.0007927322,0.003322703,0.6889302,0.99968505,-2.974825e-10,4.4255995e-11,0.025098499,4
821693301,0.7256765,0.00061026285,0.0032597596,0.6880282,0.99968505,-2.974825e-10,4.4255995e-11,0.025098499,4
821713287,0.7245858,0.00060578034,0.0033005783,0.68917656,0.99968505,-2.974825e-10,4.4255995e-11,0.025098499,4
821733273,0.7256577,0.00047964844,0.0033311648,0.6880477,0.99968505,-2.974825e-10,4.4255995e-11,0.025098499,4
821753260,0.72466975,0.0008742729,0.0034894063,0.689087,0.99968505,-2.974825e-10,4.4255995e-11,0.025098499,4
821773246,0.7251157,0.0003040803,0.003011345,0.6886205,0.99968505,-2.974825e-10,4.4255995e-11,0.025098499,4
821793233,0.7252776,0.000567372,0.0032389744,0.6884488,0.99968505,-2.974825e-10,4.4255995e-11,0.025098499,4
821813219,0.7249275,0.0006557507,0.0030958394,0.688818,0.99968505,-2.974825e-10,4.4255995e-11,0.025098499,4
821833208,0.7254575,0.00015700462,0.0029713062,0.6882606,0.99968505,-2.974825e-10,4.4255995e-11,0.025098499,4
821853192,0.72472775,0.00061450276,0.0031687054,0.68902785,0.99968505,-2.974825e-10,4.4255995e-11,0.025098499,4
821873179,0.72527933,0.00059088576,0.0032151963,0.68844694,0.99968505,-2.974825e-10,4.4255995e-11,0.025098499,4
821893165,0.72510177,0.00039781642,0.0030526682,0.6886349,0.99968505,-2.974825e-10,4.4255995e-11,0.025098499,4
821913152,0.724869,0.0003700123,0.0028555656,0.6888808,0.99968505,-2.974825e-10,4.4255995e-11,0.025098499,4
821933138,0.72529936,0.0006523732,0.003000391,0.6884268,0.99968505,-2.974825e-10,4.4255995e-11,0.025098499,4
821953126,0.7248186,0.00039217543,0.003077424,0.68893284,0.99968505,-2.974825e-10,4.4255995e-11,0.025098499,4
821973111,0.7251996,0.000104695806,0.0027850845,0.6885332,0.99968505,-2.974825e-10,4.4255995e-11,0.025098499,4
821993098,0.7249068,0.0005964953,0.0028592674,0.6888408,0.99968505,-2.974825e-10,4.4255995e-11,0.025098499,4
822013085,0.7250908,0.00061213586,0.0030682217,0.6886462,0.99968505,-2.974825e-10,4.4255995e-11,0.025098499,4
822033071,0.7251755,0.00020292704,0.002931061,0.6885579,0.99968505,-2.974825e-10,4.4255995e-11,0.025098499,4
822053059,0.72472644,0.00029421973,0.002738697,0.68903124,0.99968505,-2.974825e-10,4.4255995e-11,0.025098499,4
822073045,0.7252817,0.00059803005,0.0029064282,0.68844587,0.99968505,-2.974825e-10,4.4255995e-11,0.025098499,4
822093031,0.72477376,0.0005782153,0.0029412748,0.6889805,0.99968505,-2.974825e-10,4.4255995e-11,0.025098499,4
822113017,0.72511435,-7.024653e-05,0.002566723,0.68862367,0.99968505,-2.974825e-10,4.4255995e-11,0.025098499,4
822133004,0.72497123,0.00026989062,0.0026266295,0.6887741,0.99968505,-2.974825e-10,4.4255995e-11,0.025098499,4
822152991,0.72479063,0.0007368913,0.0030110974,0.6889622,0.99968505,-2.974825e-10,4.4255995e-11,0.025098499,4
822172977,0.72509897,0.00042335532,0.0028774366,0.6886386,0.99968505,-2.974825e-10,4.4255995e-11,0.025098499,4
822192966,0.7247076,-8.045729e-05,0.0023989917,0.68905234,0.99968505,-2.974825e-10,4.4255995e-11,0.025098499,4
822212950,0.72512096,-6.394164e-05,0.002578026,0.68861675,0.99968505,-2.974825e-10,4.4255995e-11,0.025098499,4
822232938,0.7248155,0.0004649018,0.003008373,0.6889364,0.99968505,-2.974825e-10,4.4255995e-11,0.025098499,4
822252925,0.724935,0.0005686322,0.0030089845,0.6888106,0.99968505,-2.974825e-10,4.4255995e-11,0.025098499,4
822272910,0.7249111,0.0003746955,0.002505504,0.6888378,0.99968505,-2.974825e-10,4.4255995e-11,0.025098499,4
822292898,0.7248211,0.000145391,0.0023945814,0.688933,0.99968505,-2.974825e-10,4.4255995e-11,0.025098499,4
822312883,0.72514206,4.8729096e-05,0.0026253795,0.6885943,0.99968505,-2.974825e-10,4.4255995e-11,0.025098499,4
822337867,0.7248025,0.00012885923,0.0026174225,0.68895185,0.99968505,-2.974825e-10,4.4255995e-11,0.025098499,4
822352858,0.7249522,0.00013175506,0.0026011243,0.6887943,0.99968505,-2.974825e-10,4.4255995e-11,0.025098499,4
822372844,0.7248343,0.00042721553,0.0025301103,0.6889185,0.99968505,-2.974825e-10,4.4255995e-11,0.025098499,4
822392829,0.7247874,0.00047198488,0.0027577565,0.688967,0.99968505,-2.974825e-10,4.4255995e-11,0.025098499,4
822412817,0.7249573,0.00030882953,0.0026622596,0.6887886,0.99968505,-2.974825e-10,4.4255995e-11,0.025098499,4
822432804,0.7246945,0.00018713281,0.0023413887,0.68906635,0.99968505,-2.974825e-10,4.4255995e-11,0.025098499,4
822452790,0.72508144,-8.368531e-05,0.0021324728,0.6886599,0.99968505,-2.974825e-10,4.4255995e-11,0.025098499,4
822472776,0.7247306,6.371391e-05,0.0020944364,0.6890292,0.99968505,-2.974825e-10,4.4255995e-11,0.025098499,4
822492763,0.7249123,-8.254577e-06,0.0024631217,0.6888369,0.99968505,-2.974825e-10,4.4255995e-11,0.025098499,4
822512748,0.7247975,-4.0862447e-05,0.0023796507,0.6889579,0.99968505,-2.974825e-10,4.4255995e-11,0.025098499,4
822532735,0.7247487,-2.0051182e-05,0.0022511366,0.68900967,0.99968505,-2.974825e-10,4.4255995e-11,0.025098499,4
822552722,0.7248795,-0.0002016224,0.0018476044,0.68887323,0.99968505,-2.974825e-10,4.4255995e-11,0.025098499,4
822572710,0.72453654,-0.0007251572,0.0010648303,0.6892352,0.99968505,-2.974825e-10,4.4255995e-11,0.025098499,4
822592697,0.72405726,-0.0015082547,-0.000496568,0.68973804,0.99968505,-2.974825e-10,4.4255995e-11,0.025098499,4
822617681,0.7237898,-0.0032566465,-0.002621472,0.6900079,0.99968505,-2.974825e-10,4.4255995e-11,0.025098499,4
822632668,0.7235824,-0.004141582,-0.004206299,0.6902128,0.99968505,-2.974825e-10,4.4255995e-11,0.025098499,4
822652656,0.7231857,-0.005101851,-0.0066603455,0.6906027,0.99968505,-2.974825e-10,4.4255995e-11,0.025098499,4
822672641,0.722346,-0.005804184,-0.008730739,0.69145244,0.99968505,-2.974825e-10,4.4255995e-11,0.025098499,4
822692628,0.72168005,-0.006586976,-0.012803922,0.69207704,0.99968505,-2.974825e-10,4.4255995e-11,0.025098499,4
822712616,0.72067875,-0.0059137517,-0.015924467,0.69306105,0.99968505,-2.974825e-10,4.4255995e-11,0.025098499,4
822732603,0.72001785,-0.0035972209,-0.017632782,0.6937222,0.99968505,-2.974825e-10,4.4255995e-11,0.025098499,4
822757584,0.71914697,-0.0015958337,-0.019229904,0.6945901,0.99968505,-2.974825e-10,4.4255995e-11,0.025098499,4
822772574,0.718593,-0.0013339798,-0.021063633,0.69511056,0.99968505,-2.974825e-10,4.4255995e-11,0.025098499,4
822792561,0.717774,-0.0010196017,-0.023541948,0.69587743,0.99968505,-2.974825e-10,4.4255995e-11,0.025098499,4
822812549,0.716994,-0.0015503864,-0.025169244,0.6966231,0.99968505,-2.974825e-10,4.4255995e-11,0.025098499,4
822832534,0.7164292,-0.002062644,-0.02656681,0.6971509,0.99968505,-2.974825e-10,4.4255995e-11,0.025098499,4
822852521,0.7159245,-0.0020333002,-0.027989494,0.6976135,0.99968505,-2.974825e-10,4.4255995e-11,0.025098499,4
822872508,0.7152149,-0.0013164617,-0.029663106,0.69827366,0.99968505,-2.974825e-10,4.4255995e-11,0.025098499,4
822892495,0.7145146,0.0011014765,-0.031097995,0.69892824,0.99968505,-2.974825e-10,4.4255995e-11,0.025098499,4
822912480,0.71393967,0.0018226216,-0.033030707,0.69942534,0.99968505,-2.974825e-10,4.4255995e-11,0.025098499,4
822932468,0.7135354,0.00056263,-0.0358286,0.6997022,0.99968505,-2.974825e-10,4.4255995e-11,0.025098499,4
822952455,0.71317744,0.0011182646,-0.03809369,0.6999469,0.99968505,-2.974825e-10,4.4255995e-11,0.025098499,4
822972442,0.71284693,0.0017963634,-0.03906608,0.70022845,0.99968505,-2.974825e-10,4.4255995e-11,0.025098499,4
822992432,0.71273714,0.003162691,-0.039171897,0.7003295,0.99968505,-2.974825e-10,4.4255995e-11,0.025098499,4
823012414,0.7125801,0.0047462806,-0.04177616,0.7003299,0.99968505,-2.974825e-10,4.4255995e-11,0.025098499,4
823037396,0.71255845,0.0043479595,-0.046519604,0.70005536,0.99968505,-2.974825e-10,4.4255995e-11,0.025098499,4
823052388,0.7124873,0.0044251066,-0.048396718,0.7000001,0.99968505,-2.974825e-10,4.4255995e-11,0.025098499,4
823072372,0.7125432,0.0059099086,-0.04810089,0.6999526,0.99968505,-2.974825e-10,4.4255995e-11,0.025098499,4
823097356,0.7126341,0.008053636,-0.045722134,0.69999814,0.99968505,-2.974825e-10,4.4255995e-11,0.025098499,4
823112346,0.7127338,0.00913742,-0.045583922,0.6998923,0.99968505,-2.974825e-10,4.4255995e-11,0.025098499,4
823132333,0.7127588,0.008647748,-0.046505086,0.6998125,0.99968505,-2.974825e-10,4.4255995e-11,0.025098499,4
823152319,0.7124498,0.009061451,-0.04767652,0.700043,0.99968505,-2.974825e-10,4.4255995e-11,0.025098499,4
823172308,0.7125778,0.009353559,-0.046902586,0.6999611,0.99968505,-2.974825e-10,4.4255995e-11,0.025098499,4
823192295,0.7126443,0.011491601,-0.045355283,0.6999636,0.99968505,-2.974825e-10,4.4255995e-11,0.025098499,4
823212279,0.71267444,0.012728477,-0.043650065,0.7000199,0.99968505,-2.974825e-10,4.4255995e-11,0.025098499,4
823237262,0.7126516,0.012021258,-0.043363277,0.7000735,0.99968505,-2.974825e-10,4.4255995e-11,0.025098499,4
823252254,0.71268225,0.010909455,-0.043271903,0.70006615,0.99968505,-2.974825e-10,4.4255995e-11,0.025098499,4
823272240,0.71279305,0.0106550725,-0.04289316,0.69998056,0.99968505,-2.974825e-10,4.4255995e-11,0.025098499,4
823292227,0.71279705,0.01279303,-0.04224616,0.69998,0.99968505,-2.974825e-10,4.4255995e-11,0.025098499,4
823317208,0.7129256,0.013395877,-0.0411482,0.69990325,0.99968505,-2.974825e-10,4.4255995e-11,0.025098499,4
823332198,0.71276176,0.013966935,-0.040893484,0.70007384,0.99968505,-2.974825e-10,4.4255995e-11,0.025098499,4
823352187,0.7127212,0.012871869,-0.040663496,0.70014954,0.99968505,-2.974825e-10,4.4255995e-11,0.025098499,4
823377168,0.7126855,0.012431205,-0.040810417,0.70018524,0.99968505,-2.974825e-10,4.4255995e-11,0.025098499,4
823392160,0.71279705,0.0130347535,-0.04031919,0.70008916,0.99968505,-2.974825e-10,4.4255995e-11,0.025098499,4
823412145,0.7129286,0.013705737,-0.039541654,0.69998676,0.99968505,-2.974825e-10,4.4255995e-11,0.025098499,4
823432132,0.7128638,0.015136013,-0.03970058,0.7000143,0.99968505,-2.974825e-10,4.4255995e-11,0.025098499,4
823452120,0.7128049,0.013952095,-0.040058628,0.7000785,0.99968505,-2.974825e-10,4.4255995e-11,0.025098499,4
823472106,0.71273595,0.013192025,-0.04031223,0.7001489,0.99968505,-2.974825e-10,4.4255995e-11,0.025098499,4
823492092,0.71283555,0.012733564,-0.039794944,0.7000856,0.99968505,-2.974825e-10,4.4255995e-11,0.025098499,4
823517075,0.7128282,0.013987789,-0.03954576,0.70008314,0.99968505,-2.974825e-10,4.4255995e-11,0.025098499,4
823532069,0.7129084,0.014057213,-0.03895468,0.7000333,0.99968505,-2.974825e-10,4.4255995e-11,0.025098499,4
823552054,0.71274114,0.014319157,-0.038667858,0.7002142,0.99968505,-2.974825e-10,4.4255995e-11,0.025098499,4
823572038,0.712606,0.0133861555,-0.038989656,0.7003523,0.99968505,-2.974825e-10,4.4255995e-11,0.025098499,4
823592024,0.71250725,0.013435155,-0.03921754,0.70043916,0.99968505,-2.974825e-10,4.4255995e-11,0.025098499,4
823612009,0.7126078,0.012263969,-0.039478302,0.7003437,0.99968505,-2.974825e-10,4.4255995e-11,0.025098499,4
823631998,0.71251774,0.0132334195,-0.038992252,0.7004448,0.99968505,-2.974825e-10,4.4255995e-11,0.025098499,4
823656980,0.71237296,0.012075602,-0.039151315,0.7006042,0.99968505,-2.974825e-10,4.4255995e-11,0.025098499,4
823671972,0.71228063,0.012610889,-0.03921655,0.70068496,0.99968505,-2.974825e-10,4.4255995e-11,0.025098499,4
823691958,0.7122724,0.011449011,-0.039845135,0.7006779,0.99968505,-2.974825e-10,4.4255995e-11,0.025098499,4
823711943,0.71214825,0.012518864,-0.04049847,0.70074826,0.99968505,-2.974825e-10,4.4255995e-11,0.025098499,4
823736928,0.7120152,0.011668971,-0.0406544,0.70088905,0.99968505,-2.974825e-10,4.4255995e-11,0.025098499,4
823751916,0.7118402,0.012293666,-0.040444233,0.7010682,0.99968505,-2.974825e-10,4.4255995e-11,0.025098499,4
823771905,0.71167976,0.011558148,-0.040399957,0.7012462,0.99968505,-2.974825e-10,4.4255995e-11,0.025098499,4
823796886,0.7115122,0.01218921,-0.041882563,0.7013185,0.99968505,-2.974825e-10,4.4255995e-11,0.025098499,4
823811882,0.7114023,0.011339911,-0.04312687,0.701369,0.99968505,-2.974825e-10,4.4255995e-11,0.025098499,4
823831867,0.71123344,0.010509488,-0.043902557,0.7015049,0.99968505,-2.974825e-10,4.4255995e-11,0.025098499,4
823856846,0.7110292,0.010058512,-0.04469062,0.70166886,0.99968505,-2.974825e-10,4.4255995e-11,0.025098499,4
823876834,0.7109555,0.009777786,-0.044801306,0.70174044,0.99968505,-2.974825e-10,4.4255995e-11,0.025098499,4
823891823,0.7109257,0.009591152,-0.046104245,0.70168877,0.99968505,-2.974825e-10,4.4255995e-11,0.025098499,4
823916806,0.71070397,0.00997341,-0.048359253,0.7017563,0.99968505,-2.974825e-10,4.4255995e-11,0.025098499,4
823936792,0.7106201,0.0088014975,-0.04949589,0.70177764,0.99968505,-2.974825e-10,4.4255995e-11,0.025098499,4
823951783,0.7105022,0.008419291,-0.050459538,0.701833,0.99968505,-2.974825e-10,4.4255995e-11,0.025098499,4
823971770,0.7102874,0.008620434,-0.051189974,0.70199513,0.99968505,-2.974825e-10,4.4255995e-11,0.025098499,4
823996752,0.71030957,0.00739885,-0.053568974,0.70180917,0.99968505,-2.974825e-10,4.4255995e-11,0.025098499,4
824011743,0.7102228,0.008207903,-0.054850563,0.70178896,0.99968505,-2.974825e-10,4.4255995e-11,0.025098499,4
824031730,0.71022904,0.008095224,-0.05637646,0.701663,0.99968505,-2.974825e-10,4.4255995e-11,0.025098499,4
824051715,0.7100901,0.007676862,-0.05744308,0.7017217,0.99968505,-2.974825e-10,4.4255995e-11,0.025098499,4
824076698,0.70983654,0.0074440264,-0.05937838,0.7018198,0.99968505,-2.974825e-10,4.4255995e-11,0.025098499,4
824091689,0.7098465,0.0065291966,-0.060702927,0.70170546,0.99968505,-2.974825e-10,4.4255995e-11,0.025098499,4
824111676,0.70979035,0.006793261,-0.062471695,0.70160455,0.99968505,-2.974825e-10,4.4255995e-11,0.025098499,4
824136657,0.7099063,0.006449362,-0.06365356,0.7013842,0.99968505,-2.974825e-10,4.4255995e-11,0.025098499,4
824156644,0.7097756,0.0071762037,-0.065383516,0.7013503,0.99968505,-2.974825e-10,4.4255995e-11,0.025098499,4
824171634,0.70969695,0.007157397,-0.06648569,0.7013265,0.99968505,-2.974825e-10,4.4255995e-11,0.025098499,4
824191621,0.7094678,0.0070747477,-0.06846837,0.70136833,0.99968505,-2.974825e-10,4.4255995e-11,0.025098499,4
824216604,0.70936906,0.0061823656,-0.07051915,0.70127344,0.99968505,-2.974825e-10,4.4255995e-11,0.025098499,4
824231596,0.7094114,0.0056749675,-0.072024696,0.7010819,0.99968505,-2.974825e-10,4.4255995e-11,0.025098499,4
824251580,0.7095423,0.0049136463,-0.07369438,0.7007816,0.99968505,-2.974825e-10,4.4255995e-11,0.025098499,4
824276563,0.7094604,0.0052474374,-0.07568212,0.7006503,0.99968505,-2.974825e-10,4.4255995e-11,0.025098499,4
824296550,0.70928663,0.0054981434,-0.07744783,0.7006312,0.99968505,-2.974825e-10,4.4255995e-11,0.025098499,4
824311545,0.709362,0.0051285997,-0.07779851,0.7005189,0.99968505,-2.974825e-10,4.4255995e-11,0.025098499,4
824331526,0.70924747,0.0057260296,-0.078630544,0.7005373,0.99968505,-2.974825e-10,4.4255995e-11,0.025098499,4
824356510,0.7092911,0.004635165,-0.08200746,0.7001139,0.99968505,-2.974825e-10,4.4255995e-11,0.025098499,4
824371508,0.70923316,0.005237363,-0.083934754,0.69993997,0.99968505,-2.974825e-10,4.4255995e-11,0.025098499,4
824391486,0.70920193,0.004218367,-0.08587171,0.6997435,0.99968505,-2.974825e-10,4.4255995e-11,0.025098499,4
824416471,0.7091592,0.004863361,-0.08653536,0.6997009,0.99968505,-2.974825e-10,4.4255995e-11,0.025098499,4
824436456,0.70919865,0.0054169283,-0.08728413,0.6995638,0.99968505,-2.974825e-10,4.4255995e-11,0.025098499,4
824451446,0.7092576,0.0049367864,-0.08868284,0.6993316,0.99968505,-2.974825e-10,4.4255995e-11,0.025098499,4
824471441,0.7091172,0.0051499694,-0.09061606,0.6992246,0.99968505,-2.974825e-10,4.4255995e-11,0.025098499,4
824496416,0.7090548,0.004498709,-0.0923022,0.69907176,0.99968505,-2.974825e-10,4.4255995e-11,0.025098499,4
824511406,0.7090482,0.00451284,-0.09309614,0.69897306,0.99968505,-2.974825e-10,4.4255995e-11,0.025098499,4
824536389,0.70921934,0.0039935126,-0.09388295,0.6986974,0.99968505,-2.974825e-10,4.4255995e-11,0.025098499,4
824556375,0.7090577,0.0041463342,-0.095251784,0.6986753,0.99968505,-2.974825e-10,4.4255995e-11,0.025098499,4
824571371,0.7090248,0.0038786808,-0.09609613,0.6985946,0.99968505,-2.974825e-10,4.4255995e-11,0.025098499,4
824591352,0.70877147,0.004113898,-0.09763855,0.6986365,0.99968505,-2.974825e-10,4.4255995e-11,0.025098499,4
824616335,0.70892185,0.002930501,-0.09893934,0.6983067,0.99968505,-2.974825e-10,4.4255995e-11,0.025098499,4
824636322,0.7090062,0.0034566505,-0.09949486,0.6981397,0.99968505,-2.974825e-10,4.4255995e-11,0.025098499,4
824651312,0.70890117,0.0030029053,-0.100651346,0.6980827,0.99968505,-2.974825e-10,4.4255995e-11,0.025098499,4
824676295,0.70876193,0.0037935835,-0.10168053,0.6980711,0.99968505,-2.974825e-10,4.4255995e-11,0.025098499,4
824696282,0.7086943,0.0043550152,-0.10297677,0.6979465,0.99968505,-2.974825e-10,4.4255995e-11,0.025098499,4
824716269,0.70887756,0.0034667277,-0.104604654,0.6975231,0.99968505,-2.974825e-10,4.4255995e-11,0.025098499,4
824731258,0.70874393,0.0046245717,-0.10572583,0.6974832,0.99968505,-2.974825e-10,4.4255995e-11,0.025098499,4
824756241,0.70858884,0.0048149712,-0.1072777,0.69740254,0.99968505,-2.974825e-10,4.4255995e-11,0.025098499,4
824776228,0.7085733,0.005067105,-0.108024016,0.69730127,0.99968505,-2.974825e-10,4.4255995e-11,0.025098499,4
824791221,0.7085803,0.0062792073,-0.10858002,0.6971979,0.99968505,-2.974825e-10,4.4255995e-11,0.025098499,4
824816201,0.708672,0.0061143455,-0.110587925,0.6967906,0.99968505,-2.974825e-10,4.4255995e-11,0.025098499,4
824836187,0.7086445,0.005501531,-0.11143093,0.6966892,0.99968505,-2.974825e-10,4.4255995e-11,0.025098499,4
824851177,0.7086256,0.0066842474,-0.11133376,0.6967137,0.99968505,-2.974825e-10,4.4255995e-11,0.025098499,4
824871165,0.708682,0.006846008,-0.11212714,0.6965274,0.99968505,-2.974825e-10,4.4255995e-11,0.025098499,4
824896147,0.7088571,0.007790719,-0.11364985,0.6960925,0.99968505,-2.974825e-10,4.4255995e-11,0.025098499,4
824916135,0.70880854,0.0077976724,-0.115801215,0.69578713,0.99968505,-2.974825e-10,4.4255995e-11,0.025098499,4
824931124,0.7087209,0.008308536,-0.11648312,0.6957567,0.99968505,-2.974825e-10,4.4255995e-11,0.025098499,4
824956107,0.70877415,0.00804999,-0.117172115,0.6955897,0.99968505,-2.974825e-10,4.4255995e-11,0.025098499,4
824976094,0.7088446,0.0085892975,-0.118064545,0.69536054,0.99968505,-2.974825e-10,4.4255995e-11,0.025098499,4
824996080,0.7088539,0.009013218,-0.11988554,0.6950341,0.99968505,-2.974825e-10,4.4255995e-11,0.025098499,4
825011074,0.70882213,0.008643373,-0.12175952,0.69474536,0.99968505,-2.974825e-10,4.4255995e-11,0.025098499,4
825036055,0.708717,0.008751989,-0.1230261,0.69462824,0.99968505,-2.974825e-10,4.4255995e-11,0.025098499,4
825056042,0.7087188,0.0084154075,-0.123876765,0.6944793,0.99968505,-2.974825e-10,4.4255995e-11,0.025098499,4
825071030,0.7087709,0.008975516,-0.124315016,0.69434077,0.99968505,-2.974825e-10,4.4255995e-11,0.025098499,4
825096013,0.7087682,0.009469109,-0.12645392,0.6939506,0.99968505,-2.974825e-10,4.4255995e-11,0.025098499,4
825116001,0.7085948,0.010416513,-0.12778948,0.6938695,0.99968505,-2.974825e-10,4.4255995e-11,0.025098499,4
825130989,0.7084554,0.010744158,-0.12843971,0.69388676,0.99968505,-2.974825e-10,4.4255995e-11,0.025098499,4
825150976,0.70853055,0.009941902,-0.12864669,0.69378364,0.99968505,-2.974825e-10,4.4255995e-11,0.025098499,4
825175959,0.70857114,0.008960473,-0.12996213,0.69351035,0.99968505,-2.974825e-10,4.4255995e-11,0.025098499,4
825195949,0.7086431,0.0081727095,-0.1315946,0.69313854,0.99968505,-2.974825e-10,4.4255995e-11,0.025098499,4
825210939,0.7086558,0.008182052,-0.13297099,0.6928628,0.99968505,-2.974825e-10,4.4255995e-11,0.025098499,4
825235920,0.7086428,0.009128473,-0.1340998,0.6926466,0.99968505,-2.974825e-10,4.4255995e-11,0.025098499,4
825255905,0.7085488,0.009507742,-0.13449283,0.69266146,0.99968505,-2.974825e-10,4.4255995e-11,0.025098499,4
825270895,0.708404,0.010197262,-0.13473493,0.6927528,0.99968505,-2.974825e-10,4.4255995e-11,0.025098499,4
825290882,0.7085076,0.010196522,-0.13572672,0.69245315,0.99968505,-2.974825e-10,4.4255995e-11,0.025098499,4
825315866,0.7085376,0.00997944,-0.1379197,0.69199216,0.99968505,-2.974825e-10,4.4255995e-11,0.025098499,4
825335853,0.70832217,0.010520173,-0.13889247,0.6920101,0.99968505,-2.974825e-10,4.4255995e-11,0.025098499,4
825350842,0.708244,0.011100205,-0.13932337,0.69199437,0.99968505,-2.974825e-10,4.4255995e-11,0.025098499,4
825375825,0.70821494,0.011840107,-0.13987531,0.69190055,0.99968505,-2.974825e-10,4.4255995e-11,0.025098499,4
825395813,0.70827806,0.011637058,-0.1414759,0.6915139,0.99968505,-2.974825e-10,4.4255995e-11,0.025098499,4
825410801,0.70829064,0.010989613,-0.14333995,0.6911276,0.99968505,-2.974825e-10,4.4255995e-11,0.025098499,4
825430788,0.7081382,0.010724026,-0.14452697,0.6910407,0.99968505,-2.974825e-10,4.4255995e-11,0.025098499,4
825455771,0.70814,0.011940484,-0.14457747,0.6910084,0.99968505,-2.974825e-10,4.4255995e-11,0.025098499,4
825475757,0.7083459,0.012886549,-0.1447795,0.690738,0.99968505,-2.974825e-10,4.4255995e-11,0.025098499,4
825490748,0.70842004,0.012869406,-0.14547524,0.6905161,0.99968505,-2.974825e-10,4.4255995e-11,0.025098499,4
825515731,0.70827293,0.012185451,-0.14727873,0.690297,0.99968505,-2.974825e-10,4.4255995e-11,0.025098499,4
825535718,0.70834404,0.011884673,-0.14835843,0.689998,0.99968505,-2.974825e-10,4.4255995e-11,0.025098499,4
825550707,0.70851386,0.012438317,-0.14875895,0.6897276,0.99968505,-2.974825e-10,4.4255995e-11,0.025098499,4
825570695,0.7086718,0.012490603,-0.1495016,0.6894037,0.99968505,-2.974825e-10,4.4255995e-11,0.025098499,4
825595677,0.7085729,0.012446285,-0.15042843,0.6893046,0.99968505,-2.974825e-10,4.4255995e-11,0.025098499,4
825615665,0.70855284,0.012777105,-0.15121336,0.6891474,0.99968505,-2.974825e-10,4.4255995e-11,0.025098499,4
825630654,0.70865905,0.012205187,-0.1523547,0.6887972,0.99968505,-2.974825e-10,4.4255995e-11,0.025098499,4
825655636,0.7086865,0.012420094,-0.15375935,0.68845296,0.99968505,-2.974825e-10,4.4255995e-11,0.025098499,4
825675625,0.7086998,0.012326495,-0.15408388,0.6883683,0.99968505,-2.974825e-10,4.4255995e-11,0.025098499,4
825690613,0.7085803,0.012940281,-0.15415329,0.68846446,0.99968505,-2.974825e-10,4.4255995e-11,0.025098499,4
825710600,0.7086275,0.013021491,-0.154819,0.6882649,0.99968505,-2.974825e-10,4.4255995e-11,0.025098499,4
825735583,0.7086795,0.012542688,-0.15671821,0.6877903,0.99968505,-2.974825e-10,4.4255995e-11,0.025098499,4
825755571,0.70855856,0.0120174885,-0.15733369,0.6877838,0.99968505,-2.974825e-10,4.4255995e-11,0.025098499,4
825770561,0.7086158,0.011552044,-0.15698177,0.6878133,0.99968505,-2.974825e-10,4.4255995e-11,0.025098499,4
825795542,0.7088566,0.011077381,-0.15641508,0.68770206,0.99968505,-2.974825e-10,4.4255995e-11,0.025098499,4
825815531,0.7089508,0.010720385,-0.15738682,0.6873887,0.99968505,-2.974825e-10,4.4255995e-11,0.025098499,4
825830519,0.70880836,0.010419289,-0.15821028,0.6873512,0.99968505,-2.974825e-10,4.4255995e-11,0.025098499,4
825850506,0.70867777,0.010607591,-0.15849839,0.68741655,0.99968505,-2.974825e-10,4.4255995e-11,0.025098499,4
825875490,0.7087715,0.010769117,-0.15815744,0.687396,0.99968505,-2.974825e-10,4.4255995e-11,0.025098499,4
825895477,0.7088902,0.010798765,-0.15838693,0.6872203,0.99968505,-2.974825e-10,4.4255995e-11,0.025098499,4
825910465,0.7089661,0.01058854,-0.15892603,0.6870208,0.99968505,-2.974825e-10,4.4255995e-11,0.025098499,4
825935449,0.7087278,0.011124335,-0.15926805,0.687179,0.99968505,-2.974825e-10,4.4255995e-11,0.025098499,4
825955435,0.70879674,0.010699146,-0.1587805,0.6872274,0.99968505,-2.974825e-10,4.4255995e-11,0.025098499,4
825970426,0.7087528,0.010943926,-0.15857743,0.68731576,0.99968505,-2.974825e-10,4.4255995e-11,0.025098499,4
825990412,0.7088488,0.0104064075,-0.15911944,0.6870998,0.99968505,-2.974825e-10,4.4255995e-11,0.025098499,4
826015396,0.70867896,0.010862826,-0.15982452,0.6871043,0.99968505,-2.974825e-10,4.4255995e-11,0.025098499,4
826035381,0.7085778,0.010705502,-0.15976542,0.6872248,0.99968505,-2.974825e-10,4.4255995e-11,0.025098499,4
826050372,0.7085903,0.010897769,-0.15917623,0.6873456,0.99968505,-2.974825e-10,4.4255995e-11,0.025098499,4
826075357,0.70859504,0.010612637,-0.15921484,0.68733627,0.99968505,-2.974825e-10,4.4255995e-11,0.025098499,4
826095341,0.7086877,0.010664459,-0.15994467,0.68707037,0.99968505,-2.974825e-10,4.4255995e-11,0.025098499,4
826110331,0.70867676,0.010266521,-0.16068591,0.6869149,0.99968505,-2.974825e-10,4.4255995e-11,0.025098499,4
826135314,0.70850277,0.010020392,-0.16054761,0.6871302,0.99968505,-2.974825e-10,4.4255995e-11,0.025098499,4
826155301,0.7084582,0.010576018,-0.16002285,0.6872903,0.99968505,-2.974825e-10,4.4255995e-11,0.025098499,4
826175288,0.70858675,0.010723239,-0.16015913,0.6871237,0.99968505,-2.974825e-10,4.4255995e-11,0.025098499,4
826190277,0.7085734,0.010767025,-0.16093719,0.6869549,0.99968505,-2.974825e-10,4.4255995e-11,0.025098499,4
826215262,0.70820934,0.0108382935,-0.16213773,0.6870469,0.99968505,-2.974825e-10,4.4255995e-11,0.025098499,4
826235248,0.70811677,0.010451696,-0.16226049,0.6871193,0.99968505,-2.974825e-10,4.4255995e-11,0.025098499,4
826250238,0.7081819,0.010657142,-0.16219108,0.6870654,0.99968505,-2.974825e-10,4.4255995e-11,0.025098499,4
826275220,0.7082351,0.0111997295,-0.16290328,0.6868335,0.99968505,-2.974825e-10,4.4255995e-11,0.025098499,4
826295207,0.7081869,0.010365547,-0.16406915,0.6866186,0.99968505,-2.974825e-10,4.4255995e-11,0.025098499,4
826315194,0.70805275,0.010269606,-0.16446163,0.6866646,0.99968505,-2.974825e-10,4.4255995e-11,0.025098499,4
826330183,0.7080518,0.010389406,-0.16424385,0.6867159,0.99968505,-2.974825e-10,4.4255995e-11,0.025098499,4
826355166,0.70820117,0.010362644,-0.16451266,0.6864979,0.99968505,-2.974825e-10,4.4255995e-11,0.025098499,4
826375154,0.7082554,0.010849923,-0.1653346,0.68623686,0.99968505,-2.974825e-10,4.4255995e-11,0.025098499,4
826390143,0.7082503,0.010714639,-0.16563578,0.6861717,0.99968505,-2.974825e-10,4.4255995e-11,0.025098499,4
826415127,0.7081286,0.010874299,-0.16521592,0.68639594,0.99968505,-2.974825e-10,4.4255995e-11,0.025098499,4
826435114,0.70820177,0.010387787,-0.16476199,0.68643713,0.99968505,-2.974825e-10,4.4255995e-11,0.025098499,4
826455099,0.7082567,0.010718051,-0.16517136,0.6862769,0.99968505,-2.974825e-10,4.4255995e-11,0.025098499,4
826470091,0.70826,0.010700033,-0.16629596,0.6860022,0.99968505,-2.974825e-10,4.4255995e-11,0.025098499,4
826495072,0.70818126,0.010554502,-0.16746113,0.6858022,0.99968505,-2.974825e-10,4.4255995e-11,0.025098499,4
826515061,0.70805067,0.011449843,-0.16661128,0.6861297,0.99968505,-2.974825e-10,4.4255995e-11,0.025098499,4
826535046,0.70805997,0.011216195,-0.16612534,0.6862417,0.99968505,-2.974825e-10,4.4255995e-11,0.025098499,4
826555032,0.7080641,0.011357341,-0.16682869,0.6860646,0.99968505,-2.974825e-10,4.4255995e-11,0.025098499,4
826575019,0.7080713,0.011176351,-0.1684267,0.6856694,0.99968505,-2.974825e-10,4.4255995e-11,0.025098499,4
826595005,0.7078434,0.0115871625,-0.16933776,0.6856736,0.99968505,-2.974825e-10,4.4255995e-11,0.025098499,4
826609995,0.7078656,0.0115977,-0.16860843,0.68583024,0.99968505,-2.974825e-10,4.4255995e-11,0.025098499,4
826634978,0.70801914,0.011581264,-0.16687764,0.6860953,0.99968505,-2.974825e-10,4.4255995e-11,0.025098499,4
826654965,0.70804167,0.0117461085,-0.16715114,0.6860026,0.99968505,-2.974825e-10,4.4255995e-11,0.025098499,4
826669955,0.70801264,0.011541523,-0.1685472,0.6856944,0.99968505,-2.974825e-10,4.4255995e-11,0.025098499,4
826694939,0.7077032,0.011578758,-0.17003217,0.68564665,0.99968505,-2.974825e-10,4.4255995e-11,0.025098499,4
826714925,0.7077217,0.011692167,-0.16925889,0.6858169,0.99968505,-2.974825e-10,4.4255995e-11,0.025098499,4
826734913,0.70780236,0.0124046495,-0.16857493,0.68588954,0.99968505,-2.974825e-10,4.4255995e-11,0.025098499,4
826749901,0.70788234,0.012453996,-0.1688816,0.6857307,0.99968505,-2.974825e-10,4.4255995e-11,0.025098499,4
826774885,0.7078071,0.011860343,-0.17050439,0.6854172,0.99968505,-2.974825e-10,4.4255995e-11,0.025098499,4
826794871,0.707637,0.01130926,-0.17116167,0.6854383,0.99968505,-2.974825e-10,4.4255995e-11,0.025098499,4
826809861,0.7076192,0.011417707,-0.17085432,0.68553156,0.99968505,-2.974825e-10,4.4255995e-11,0.025098499,4
826834844,0.7078113,0.011882583,-0.17017841,0.6854935,0.99968505,-2.974825e-10,4.4255995e-11,0.025098499,4
826854833,0.7079088,0.011696829,-0.17116176,0.6851511,0.99968505,-2.974825e-10,4.4255995e-11,0.025098499,4
826874818,0.7078903,0.011141785,-0.17276539,0.68477696,0.99968505,-2.974825e-10,4.4255995e-11,0.025098499,4
826894804,0.7078635,0.010777425,-0.17274934,0.6848144,0.99968505,-2.974825e-10,4.4255995e-11,0.025098499,4
826914792,0.7078452,0.011388325,-0.17194752,0.6850252,0.99968505,-2.974825e-10,4.4255995e-11,0.025098499,4
826934777,0.70787144,0.011002086,-0.17249142,0.6848677,0.99968505,-2.974825e-10,4.4255995e-11,0.025098499,4
826949768,0.707857,0.011052687,-0.1736175,0.6845972,0.99968505,-2.974825e-10,4.4255995e-11,0.025098499,4
826974750,0.7080689,0.01108852,-0.17501718,0.6840209,0.99968505,-2.974825e-10,4.4255995e-11,0.025098499,4
826994738,0.7081401,0.011201647,-0.17483903,0.6839909,0.99968505,-2.974825e-10,4.4255995e-11,0.025098499,4
827014725,0.70817506,0.0117382575,-0.17365779,0.6842466,0.99968505,-2.974825e-10,4.4255995e-11,0.025098499,4
827034710,0.7083546,0.01138091,-0.17338997,0.68413466,0.99968505,-2.974825e-10,4.4255995e-11,0.025098499,4
827054698,0.7082603,0.011914118,-0.17443627,0.6839572,0.99968505,-2.974825e-10,4.4255995e-11,0.025098499,4
827074684,0.70832324,0.01154928,-0.1765897,0.6833455,0.99968505,-2.974825e-10,4.4255995e-11,0.025098499,4
827089673,0.70825315,0.011892431,-0.17747042,0.683184,0.99968505,-2.974825e-10,4.4255995e-11,0.025098499,4
827114657,0.7082903,0.01237209,-0.1760315,0.68350923,0.99968505,-2.974825e-10,4.4255995e-11,0.025098499,4
827134645,0.70869154,0.012375006,-0.17495254,0.68337023,0.99968505,-2.974825e-10,4.4255995e-11,0.025098499,4
827154629,0.7088753,0.01292423,-0.17564142,0.6829926,0.99968505,-2.974825e-10,4.4255995e-11,0.025098499,4
827174616,0.7086563,0.012710079,-0.17676574,0.6829339,0.99968505,-2.974825e-10,4.4255995e-11,0.025098499,4
827194604,0.7085854,0.012993054,-0.17662972,0.6830374,0.99968505,-2.974825e-10,4.4255995e-11,0.025098499,4
827214591,0.708957,0.013290965,-0.17602803,0.68280125,0.99968505,-2.974825e-10,4.4255995e-11,0.025098499,4
827234577,0.7091808,0.013452119,-0.17547087,0.68270916,0.99968505,-2.974825e-10,4.4255995e-11,0.025098499,4
827254563,0.70905554,0.013292916,-0.1756741,0.68279004,0.99968505,-2.974825e-10,4.4255995e-11,0.025098499,4
827274549,0.70897204,0.013167897,-0.1758972,0.68282175,0.99968505,-2.974825e-10,4.4255995e-11,0.025098499,4
827294535,0.7089807,0.012980329,-0.17641068,0.6826838,0.99968505,-2.974825e-10,4.4255995e-11,0.025098499,4
827314524,0.709025,0.013103226,-0.17676863,0.6825428,0.99968505,-2.974825e-10,4.4255995e-11,0.025098499,4
827334511,0.70891947,0.013246419,-0.17651267,0.68271595,0.99968505,-2.974825e-10,4.4255995e-11,0.025098499,4
827354495,0.70876956,0.013160877,-0.17645992,0.6828869,0.99968505,-2.974825e-10,4.4255995e-11,0.025098499,4
827369487,0.7089074,0.013150241,-0.1764171,0.68275505,0.99968505,-2.974825e-10,4.4255995e-11,0.025098499,4
827394469,0.7089392,0.013226574,-0.1770252,0.6825632,0.99968505,-2.974825e-10,4.4255995e-11,0.025098499,4
827414455,0.7088631,0.012658872,-0.17735654,0.68256694,0.99968505,-2.974825e-10,4.4255995e-11,0.025098499,4
827434442,0.70868576,0.013343013,-0.17682762,0.68287516,0.99968505,-2.974825e-10,4.4255995e-11,0.025098499,4
827454428,0.70880526,0.0131738195,-0.17663608,0.68280405,0.99968505,-2.974825e-10,4.4255995e-11,0.025098499,4
827474415,0.70888895,0.013255788,-0.176959,0.6826319,0.99968505,-2.974825e-10,4.4255995e-11,0.025098499,4
827494402,0.7088728,0.012953111,-0.17708765,0.6826212,0.99968505,-2.974825e-10,4.4255995e-11,0.025098499,4
827514388,0.7087714,0.012781532,-0.17686072,0.6827885,0.99968505,-2.974825e-10,4.4255995e-11,0.025098499,4
827534375,0.7087692,0.012786931,-0.1768447,0.68279487,0.99968505,-2.974825e-10,4.4255995e-11,0.025098499,4
827554362,0.7088921,0.013243651,-0.17747414,0.6824951,0.99968505,-2.974825e-10,4.4255995e-11,0.025098499,4
827574347,0.7087815,0.013039279,-0.17842884,0.68236494,0.99968505,-2.974825e-10,4.4255995e-11,0.025098499,4
827594334,0.7086916,0.0129258325,-0.17795476,0.6825843,0.99968505,-2.974825e-10,4.4255995e-11,0.025098499,4
827614321,0.70881766,0.0130668795,-0.1775297,0.6825614,0.99968505,-2.974825e-10,4.4255995e-11,0.025098499,4
827634307,0.7089817,0.01338485,-0.1778235,0.6823084,0.99968505,-2.974825e-10,4.4255995e-11,0.025098499,4
827654294,0.7088417,0.013999409,-0.17896986,0.6821417,0.99968505,-2.974825e-10,4.4255995e-11,0.025098499,4
827674281,0.7085888,0.014200686,-0.17928833,0.6823167,0.99968505,-2.974825e-10,4.4255995e-11,0.025098499,4
827694267,0.708806,0.0138438,-0.17870545,0.68225133,0.99968505,-2.974825e-10,4.4255995e-11,0.025098499,4
827714254,0.7091103,0.013243112,-0.17852952,0.68199307,0.99968505,-2.974825e-10,4.4255995e-11,0.025098499,4
827734240,0.7091078,0.013277941,-0.17871436,0.6819465,0.99968505,-2.974825e-10,4.4255995e-11,0.025098499,4
827754227,0.70898885,0.013066991,-0.17905241,0.68198556,0.99968505,-2.974825e-10,4.4255995e-11,0.025098499,4
827774214,0.7090298,0.0137958815,-0.17909689,0.681917,0.99968505,-2.974825e-10,4.4255995e-11,0.025098499,4
827794200,0.7091781,0.013692033,-0.17962956,0.68162477,0.99968505,-2.974825e-10,4.4255995e-11,0.025098499,4
827814187,0.7090861,0.013224377,-0.17972112,0.68170553,0.99968505,-2.974825e-10,4.4255995e-11,0.025098499,4
827834175,0.7091281,0.012911018,-0.1793956,0.68175364,0.99968505,-2.974825e-10,4.4255995e-11,0.025098499,4
827854160,0.70935005,0.013205636,-0.17933357,0.68153334,0.99968505,-2.974825e-10,4.4255995e-11,0.025098499,4
827874146,0.7093927,0.01310095,-0.17971718,0.6813898,0.99968505,-2.974825e-10,4.4255995e-11,0.025098499,4
827894133,0.70917916,0.013074103,-0.17981306,0.68158734,0.99968505,-2.974825e-10,4.4255995e-11,0.025098499,4
827914120,0.7092662,0.013299412,-0.17963247,0.68154013,0.99968505,-2.974825e-10,4.4255995e-11,0.025098499,4
827934106,0.7095202,0.013131838,-0.17966957,0.68126905,0.99968505,-2.974825e-10,4.4255995e-11,0.025098499,4
827954093,0.7093431,0.012835909,-0.17966366,0.6814608,0.99968505,-2.974825e-10,4.4255995e-11,0.025098499,4
827974079,0.7092352,0.012942546,-0.1797695,0.68154305,0.99968505,-2.974825e-10,4.4255995e-11,0.025098499,4
827994066,0.7094362,0.01294645,-0.17989942,0.68129945,0.99968505,-2.974825e-10,4.4255995e-11,0.025098499,4
828014054,0.70938915,0.013124643,-0.17977345,0.6813783,0.99968505,-2.974825e-10,4.4255995e-11,0.025098499,4
828034039,0.7092326,0.013121156,-0.1793853,0.6816436,0.99968505,-2.974825e-10,4.4255995e-11,0.025098499,4
828054026,0.7094273,0.0125552565,-0.17928898,0.6814769,0.99968505,-2.974825e-10,4.4255995e-11,0.025098499,4
828074012,0.7094684,0.011950559,-0.17965391,0.68134886,0.99968505,-2.974825e-10,4.4255995e-11,0.025098499,4
828093999,0.70918524,0.012517297,-0.17941082,0.6816975,0.99968505,-2.974825e-10,4.4255995e-11,0.025098499,4
828113985,0.70906466,0.012397171,-0.179477,0.6818077,0.99968505,-2.974825e-10,4.4255995e-11,0.025098499,4
828133972,0.709076,0.013066538,-0.17956315,0.68176067,0.99968505,-2.974825e-10,4.4255995e-11,0.025098499,4
828153959,0.7089737,0.012322923,-0.17986758,0.6818007,0.99968505,-2.974825e-10,4.4255995e-11,0.025098499,4
828173945,0.7087712,0.011794788,-0.17955026,0.6821042,0.99968505,-2.974825e-10,4.4255995e-11,0.025098499,4
828193932,0.7087427,0.011994316,-0.17914087,0.68223786,0.99968505,-2.974825e-10,4.4255995e-11,0.025098499,4
828213920,0.7086799,0.011651706,-0.17984855,0.6821228,0.99968505,-2.974825e-10,4.4255995e-11,0.025098499,4
828233905,0.7084198,0.011833748,-0.18073282,0.68215626,0.99968505,-2.974825e-10,4.4255995e-11,0.025098499,4
828253892,0.70828176,0.011496687,-0.1807041,0.6823129,0.99968505,-2.974825e-10,4.4255995e-11,0.025098499,4
828273878,0.7082892,0.011059318,-0.18042727,0.6823857,0.99968505,-2.974825e-10,4.4255995e-11,0.025098499,4
828293865,0.70855075,0.010788659,-0.18017288,0.6821857,0.99968505,-2.974825e-10,4.4255995e-11,0.025098499,4
828313851,0.7083319,0.010774807,-0.1807379,0.6822637,0.99968505,-2.974825e-10,4.4255995e-11,0.025098499,4
828333838,0.70812786,0.011096145,-0.18156496,0.68225074,0.99968505,-2.974825e-10,4.4255995e-11,0.025098499,4
828353828,0.7082208,0.01139047,-0.1823147,0.6819494,0.99968505,-2.974825e-10,4.4255995e-11,0.025098499,4
828373814,0.70823866,0.011612484,-0.18245085,0.6818907,0.99968505,-2.974825e-10,4.4255995e-11,0.025098499,4
828393797,0.7082076,0.011760759,-0.18184417,0.6820825,0.99968505,-2.974825e-10,4.4255995e-11,0.025098499,4
828413785,0.7082531,0.011436653,-0.1819701,0.68200713,0.99968505,-2.974825e-10,4.4255995e-11,0.025098499,4
828433771,0.7083016,0.012219046,-0.18278828,0.6817243,0.99968505,-2.974825e-10,4.4255995e-11,0.025098499,4
828453757,0.70814675,0.012313699,-0.18354528,0.68168014,0.99968505,-2.974825e-10,4.4255995e-11,0.025098499,4
828473744,0.70810574,0.012345955,-0.18305153,0.68185484,0.99968505,-2.974825e-10,4.4255995e-11,0.025098499,4
828493730,0.70840216,0.012076413,-0.1828225,0.6816132,0.99968505,-2.974825e-10,4.4255995e-11,0.025098499,4
828513717,0.7085128,0.012521759,-0.18311691,0.6814111,0.99968505,-2.974825e-10,4.4255995e-11,0.025098499,4
828533707,0.7084326,0.012229725,-0.18362677,0.68136257,0.99968505,-2.974825e-10,4.4255995e-11,0.025098499,4
828553694,0.7084011,0.0121134985,-0.18368126,0.6813827,0.99968505,-2.974825e-10,4.4255995e-11,0.025098499,4
828573677,0.7087007,0.01240763,-0.18374965,0.6810474,0.99968505,-2.974825e-10,4.4255995e-11,0.025098499,4
828593663,0.7087211,0.012693109,-0.18408386,0.68093055,0.99968505,-2.974825e-10,4.4255995e-11,0.025098499,4
828613655,0.708611,0.012727018,-0.18386409,0.6811039,0.99968505,-2.974825e-10,4.4255995e-11,0.025098499,4
828633636,0.708701,0.0122626,-0.18398905,0.68098503,0.99968505,-2.974825e-10,4.4255995e-11,0.025098499,4
828653622,0.7088463,0.012615338,-0.18426594,0.6807525,0.99968505,-2.974825e-10,4.4255995e-11,0.025098499,4
828673610,0.70865226,0.012302491,-0.18452369,0.68089044,0.99968505,-2.974825e-10,4.4255995e-11,0.025098499,4
828693597,0.70861304,0.012461411,-0.1837754,0.68113065,0.99968505,-2.974825e-10,4.4255995e-11,0.025098499,4
828713582,0.7087843,0.012550428,-0.18375003,0.6809576,0.99968505,-2.974825e-10,4.4255995e-11,0.025098499,4
828733571,0.7086932,0.012886956,-0.18374787,0.68104666,0.99968505,-2.974825e-10,4.4255995e-11,0.025098499,4
828753561,0.70845884,0.012204544,-0.18373238,0.6813073,0.99968505,-2.974825e-10,4.4255995e-11,0.025098499,4
828773542,0.7086069,0.012670277,-0.18333004,0.68125325,0.99968505,-2.974825e-10,4.4255995e-11,0.025098499,4
828793529,0.7086155,0.01269393,-0.1833637,0.68123484,0.99968505,-2.974825e-10,4.4255995e-11,0.025098499,4
828813515,0.7083265,0.012547747,-0.18302177,0.68162984,0.99968505,-2.974825e-10,4.4255995e-11,0.025098499,4
828833503,0.7083042,0.012951831,-0.18292794,0.6816706,0.99968505,-2.974825e-10,4.4255995e-11,0.025098499,4
828853490,0.7083228,0.012517047,-0.18338856,0.68153554,0.99968505,-2.974825e-10,4.4255995e-11,0.025098499,4
828873475,0.70802534,0.012948239,-0.18306796,0.68192273,0.99968505,-2.974825e-10,4.4255995e-11,0.025098499,4
828893465,0.70795894,0.012828675,-0.18311386,0.6819817,0.99968505,-2.974825e-10,4.4255995e-11,0.025098499,4
828913449,0.7081359,0.012348964,-0.1831218,0.6818046,0.99968505,-2.974825e-10,4.4255995e-11,0.025098499,4
828933435,0.707829,0.012467159,-0.18279041,0.6822099,0.99968505,-2.974825e-10,4.4255995e-11,0.025098499,4
828953422,0.7078489,0.011706559,-0.18263125,0.68224543,0.99968505,-2.974825e-10,4.4255995e-11,0.025098499,4
828973410,0.70799816,0.012133272,-0.18263023,0.68208337,0.99968505,-2.974825e-10,4.4255995e-11,0.025098499,4
828993394,0.7077232,0.01198927,-0.18321086,0.68221545,0.99968505,-2.974825e-10,4.4255995e-11,0.025098499,4
829013386,0.70761156,0.01176949,-0.18332607,0.68230414,0.99968505,-2.974825e-10,4.4255995e-11,0.025098499,4
829033367,0.7077085,0.012495305,-0.18326679,0.6822067,0.99968505,-2.974825e-10,4.4255995e-11,0.025098499,4
829053354,0.7078018,0.012127487,-0.18333557,0.682098,0.99968505,-2.974825e-10,4.4255995e-11,0.025098499,4
829073342,0.70772743,0.012062273,-0.18322818,0.6822052,0.99968505,-2.974825e-10,4.4255995e-11,0.025098499,4
829093327,0.70766187,0.011519022,-0.18354437,0.68219763,0.99968505,-2.974825e-10,4.4255995e-11,0.025098499,4
829113314,0.70792156,0.011010725,-0.18430859,0.6817303,0.99968505,-2.974825e-10,4.4255995e-11,0.025098499,4
829133300,0.70786756,0.012067723,-0.1843985,0.68174416,0.99968505,-2.974825e-10,4.4255995e-11,0.025098499,4
829153289,0.707615,0.012196177,-0.18414721,0.6820719,0.99968505,-2.974825e-10,4.4255995e-11,0.025098499,4
829173274,0.70789737,0.0123726325,-0.1840375,0.6818053,0.99968505,-2.974825e-10,4.4255995e-11,0.025098499,4
829193260,0.707964,0.011743621,-0.18518065,0.6814376,0.99968505,-2.974825e-10,4.4255995e-11,0.025098499,4
829213248,0.7078314,0.011694022,-0.18538792,0.6815199,0.99968505,-2.974825e-10,4.4255995e-11,0.025098499,4
829233233,0.7078202,0.011796635,-0.18510723,0.6816061,0.99968505,-2.974825e-10,4.4255995e-11,0.025098499,4
829253221,0.70795614,0.012379652,-0.1850813,0.6814615,0.99968505,-2.974825e-10,4.4255995e-11,0.025098499,4
829273207,0.7080786,0.012326116,-0.18574443,0.6811548,0.99968505,-2.974825e-10,4.4255995e-11,0.025098499,4
829293195,0.7079623,0.012244322,-0.18570524,0.6812879,0.99968505,-2.974825e-10,4.4255995e-11,0.025098499,4
829313184,0.70802516,0.012124782,-0.18539335,0.6813096,0.99968505,-2.974825e-10,4.4255995e-11,0.025098499,4
829333166,0.7081506,0.012064167,-0.18577586,0.681076,0.99968505,-2.974825e-10,4.4255995e-11,0.025098499,4
829353153,0.7081428,0.0128691215,-0.18585154,0.6810488,0.99968505,-2.974825e-10,4.4255995e-11,0.025098499,4
829373141,0.70813626,0.0128735285,-0.18583232,0.68106073,0.99968505,-2.974825e-10,4.4255995e-11,0.025098499,4
829393126,0.70800996,0.012866016,-0.18526529,0.6813466,0.99968505,-2.974825e-10,4.4255995e-11,0.025098499,4
829413113,0.7081157,0.012330338,-0.18513277,0.68128264,0.99968505,-2.974825e-10,4.4255995e-11,0.025098499,4
829433099,0.7081757,0.012651198,-0.18502411,0.68124396,0.99968505,-2.974825e-10,4.4255995e-11,0.025098499,4
829453086,0.7078986,0.012453851,-0.18511467,0.6815109,0.99968505,-2.974825e-10,4.4255995e-11,0.025098499,4
829473076,0.70778096,0.012566055,-0.18467139,0.6817513,0.99968505,-2.974825e-10,4.4255995e-11,0.025098499,4
829493061,0.70782167,0.012605419,-0.18472709,0.68169314,0.99968505,-2.974825e-10,4.4255995e-11,0.025098499,4
829513048,0.70760787,0.012658896,-0.18453056,0.68196726,0.99968505,-2.974825e-10,4.4255995e-11,0.025098499,4
829533032,0.7073981,0.01212867,-0.18427676,0.68226314,0.99968505,-2.974825e-10,4.4255995e-11,0.025098499,4
829553019,0.7074281,0.012084885,-0.18431902,0.6822214,0.99968505,-2.974825e-10,4.4255995e-11,0.025098499,4
829573005,0.70734996,0.011792529,-0.18458019,0.68223697,0.99968505,-2.974825e-10,4.4255995e-11,0.025098499,4
829592992,0.70707864,0.011772074,-0.18436468,0.68257666,0.99968505,-2.974825e-10,4.4255995e-11,0.025098499,4
829612980,0.70697564,0.011603728,-0.18388219,0.6828164,0.99968505,-2.974825e-10,4.4255995e-11,0.025098499,4
829632967,0.70707124,0.012016098,-0.18343024,0.6828318,0.99968505,-2.974825e-10,4.4255995e-11,0.025098499,4
829652952,0.7067476,0.011753229,-0.18333827,0.68319607,0.99968505,-2.974825e-10,4.4255995e-11,0.025098499,4
829677935,0.7067125,0.011073995,-0.18312958,0.68329966,0.99968505,-2.974825e-10,4.4255995e-11,0.025098499,4
829692925,0.7067272,0.011179582,-0.18313988,0.68327993,0.99968505,-2.974825e-10,4.4255995e-11,0.025098499,4
829712912,0.7064945,0.011184889,-0.18289213,0.68358684,0.99968505,-2.974825e-10,4.4255995e-11,0.025098499,4
829732898,0.70622796,0.010793307,-0.18302199,0.6838337,0.99968505,-2.974825e-10,4.4255995e-11,0.025098499,4
829757881,0.70616496,0.010561743,-0.18365027,0.68373406,0.99968505,-2.974825e-10,4.4255995e-11,0.025098499,4
829772873,0.7060757,0.0104969,-0.18380244,0.6837863,0.99968505,-2.974825e-10,4.4255995e-11,0.025098499,4
829792859,0.70583975,0.01025594,-0.18334804,0.68415546,0.99968505,-2.974825e-10,4.4255995e-11,0.025098499,4
829812845,0.70598894,0.010609972,-0.18269996,0.6841694,0.99968505,-2.974825e-10,4.4255995e-11,0.025098499,4
829832832,0.70611113,0.010766595,-0.1820928,0.68420273,0.99968505,-2.974825e-10,4.4255995e-11,0.025098499,4
829852818,0.7057944,0.010883588,-0.18212445,0.68451923,0.99968505,-2.974825e-10,4.4255995e-11,0.025098499,4
829872804,0.70587003,0.010446221,-0.18238245,0.68437934,0.99968505,-2.974825e-10,4.4255995e-11,0.025098499,4
829897787,0.70588976,0.010268668,-0.18173711,0.6845333,0.99968505,-2.974825e-10,4.4255995e-11,0.025098499,4
829912779,0.7058047,0.010166337,-0.18097639,0.6848241,0.99968505,-2.974825e-10,4.4255995e-11,0.025098499,4
829932765,0.7060382,0.010166256,-0.17985916,0.6848777,0.99968505,-2.974825e-10,4.4255995e-11,0.025098499,4
829957747,0.70614177,0.009940657,-0.1792392,0.6849368,0.99968505,-2.974825e-10,4.4255995e-11,0.025098499,4
829972738,0.70606893,0.009647029,-0.1787342,0.685148,0.99968505,-2.974825e-10,4.4255995e-11,0.025098499,4
829992724,0.70622075,0.00941834,-0.17791618,0.6852076,0.99968505,-2.974825e-10,4.4255995e-11,0.025098499,4
830012712,0.70651394,0.009365888,-0.17687969,0.6851744,0.99968505,-2.974825e-10,4.4255995e-11,0.025098499,4
830037693,0.7066906,0.0087847905,-0.17539115,0.68538254,0.99968505,-2.974825e-10,4.4255995e-11,0.025098499,4
830052685,0.70678014,0.007961214,-0.17440869,0.685551,0.99968505,-2.974825e-10,4.4255995e-11,0.025098499,4
830072673,0.707169,0.007965588,-0.17290914,0.6855298,0.99968505,-2.974825e-10,4.4255995e-11,0.025098499,4
830097657,0.7072971,0.008086916,-0.17161144,0.6857223,0.99968505,-2.974825e-10,4.4255995e-11,0.025098499,4
830112643,0.7071943,0.008308408,-0.17099354,0.68597996,0.99968505,-2.974825e-10,4.4255995e-11,0.025098499,4
830132631,0.7073758,0.008294043,-0.16957888,0.68614405,0.99968505,-2.974825e-10,4.4255995e-11,0.025098499,4
830152616,0.70763344,0.0077780387,-0.16791165,0.6862945,0.99968505,-2.974825e-10,4.4255995e-11,0.025098499,4
830177599,0.70754623,0.007972758,-0.16526394,0.6870245,0.99968505,-2.974825e-10,4.4255995e-11,0.025098499,4
