timestamp,ref_timestamp,ref_lat,ref_lon,x,y,z,delta_xy[0],delta_xy[1],delta_z,vx,vy,vz,z_deriv,delta_vxy[0],delta_vxy[1],delta_vz,ax,ay,az,heading,delta_heading,ref_alt,dist_bottom,eph,epv,evh,evv,vxy_max,vz_max,hagl_min,hagl_max,xy_valid,z_valid,v_xy_valid,v_z_valid,xy_reset_counter,z_reset_counter,vxy_reset_counter,vz_reset_counter,heading_reset_counter,xy_global,z_global,dist_bottom_valid
819165000,0,0.0,0.0,1.0175483,1.020622,-0.07230549,1.1408086,0.91646695,-0.5153563,0.0020708323,-0.0012686598,0.00060649356,0.00059575005,0.0075655105,0.026621034,-0.08130991,-0.018373925,0.019244108,-0.015982933,1.5190542,0.050202265,0.0,0.10001993,0.03343486,0.016892498,0.058594905,0.03348926,inf,inf,inf,inf,1,1,1,1,4,3,2,3,4,0,0,1
819174995,0,0.0,0.0,1.0175408,1.0206236,-0.072296314,1.1408086,0.91646695,-0.5153563,0.002353436,-0.0014129985,0.00078508025,0.0007756555,0.0075655105,0.026621034,-0.08130991,0.02203591,-0.021627747,0.010908885,1.5190527,0.050202265,0.0,0.10001372,0.033885155,0.016892498,0.059038475,0.03348926,inf,inf,inf,inf,1,1,1,1,4,3,2,3,4,0,0,1
819194980,0,0.0,0.0,1.017525,1.020629,-0.07227795,1.1408086,0.91646695,-0.5153563,0.0022378275,-0.001375433,0.00070381,0.0006967858,0.0075655105,0.026621034,-0.08130991,0.0020669322,0.00061321695,0.004170313,1.5190648,0.050202265,0.0,0.10000267,0.032892726,0.0168925,0.05798598,0.033489257,inf,inf,inf,inf,1,1,1,1,4,3,2,3,4,0,0,1
819214966,0,0.0,0.0,1.0175056,1.0206366,-0.072260566,1.1408086,0.91646695,-0.5153563,0.0022406846,-0.0013138968,0.0006075185,0.00060249696,0.0075655105,0.026621034,-0.08130991,0.04203868,-0.004080792,-0.014324879,1.5190676,0.050202265,0.0,0.1,0.03285845,0.016892502,0.057942994,0.03348926,inf,inf,inf,inf,1,1,1,1,4,3,2,3,4,0,0,1
819234953,0,0.0,0.0,1.0174834,1.0206393,-0.072238736,1.1408086,0.91646695,-0.5153563,0.002275808,-0.0015614805,0.0011587234,0.0011554119,0.0075655105,0.026621034,-0.08130991,0.16666944,0.020548025,-0.015704114,1.5189517,0.050202265,0.0,0.1,0.032825537,0.016892504,0.05791136,0.03348926,inf,inf,inf,inf,1,1,1,1,4,3,2,3,4,0,0,1
819254939,0,0.0,0.0,1.0174667,1.0206441,-0.07221888,1.1408086,0.91646695,-0.5153563,0.0023287921,-0.0015987435,0.0007786596,0.0007766723,0.0075655105,0.026621034,-0.08130991,0.012710524,-0.026571793,0.03857932,1.5189749,0.050202265,0.0,0.1,0.032794,0.016892506,0.05788979,0.033489257,inf,inf,inf,inf,1,1,1,1,4,3,2,3,4,0,0,1
819274926,0,0.0,0.0,1.0174568,1.0206467,-0.07220348,1.1408086,0.91646695,-0.5153563,0.0019400996,-0.0010712225,0.000773156,0.0007722403,0.0075655105,0.026621034,-0.08130991,-0.1081225,0.15152606,0.094328,1.519242,0.050202265,0.0,0.1,0.032763854,0.016892506,0.057878215,0.03348926,inf,inf,inf,inf,1,1,1,1,4,3,2,3,4,0,0,1
819294912,0,0.0,0.0,1.0174304,1.0206492,-0.07217721,1.1408086,0.91646695,-0.5153563,0.0024898315,-0.0014629047,0.0013669694,0.0013671395,0.0075655105,0.026621034,-0.08130991,0.013340498,0.13234259,0.044460405,1.5189081,0.050202265,0.0,0.1,0.03273511,0.016892506,0.05787614,0.03348926,inf,inf,inf,inf,1,1,1,1,4,3,2,3,4,0,0,1
819314900,0,0.0,0.0,1.0174108,1.0206572,-0.07215621,1.1408086,0.91646695,-0.5153563,0.0022589152,-0.0013203586,0.0013078238,0.0013088982,0.0075655105,0.026621034,-0.08130991,0.120116845,0.017654438,0.14170176,1.5191185,0.050202265,0.0,0.1,0.032707796,0.016892506,0.057883985,0.033489265,inf,inf,inf,inf,1,1,1,1,4,3,2,3,4,0,0,1
819334885,0,0.0,0.0,1.0173966,1.0206563,-0.07214285,1.1408086,0.91646695,-0.5153563,0.0028251528,-0.0018271817,0.0006152226,0.0006166539,0.0075655105,0.026621034,-0.08130991,0.07748989,0.006824654,0.0777836,1.5190592,0.050202265,0.0,0.1,0.03268194,0.016892506,0.05790098,0.033489265,inf,inf,inf,inf,1,1,1,1,4,3,2,3,4,0,0,1
819354872,0,0.0,0.0,1.0173761,1.0206546,-0.07212641,1.1408086,0.91646695,-0.5153563,0.0013885584,-0.001845422,0.0012830591,0.0012843963,0.0075655105,0.026621034,-0.08130991,0.0019051796,-0.018545762,0.13225782,1.5189695,0.050202265,0.0,0.1,0.032657553,0.016892506,0.057925787,0.033489265,inf,inf,inf,inf,1,1,1,1,4,3,2,3,4,0,0,1
819374858,0,0.0,0.0,1.0173593,1.0206577,-0.072112784,1.1408086,0.91646695,-0.5153563,0.0023197578,-0.0019534696,0.00116815,0.0011689814,0.0075655105,0.026621034,-0.08130991,0.034739587,-0.08770568,0.15623403,1.5190871,0.050202265,0.0,0.1,0.032634664,0.016892506,0.05795913,0.033489265,inf,inf,inf,inf,1,1,1,1,4,3,2,3,4,0,0,1
819394845,0,0.0,0.0,1.0173445,1.020656,-0.07209598,1.1408086,0.91646695,-0.5153563,0.0017310879,-0.0024686814,0.0015619573,0.0015617403,0.0075655105,0.026621034,-0.08130991,0.08964439,-0.10249961,0.2494699,1.5189679,0.050202265,0.0,0.1,0.032613292,0.016892508,0.057999335,0.033489265,inf,inf,inf,inf,1,1,1,1,4,3,2,3,4,0,0,1
819414832,0,0.0,0.0,1.0173229,1.0206544,-0.072081126,1.1408086,0.91646695,-0.5153563,0.0011739762,-0.002105687,0.0009770881,0.0009751473,0.0075655105,0.026621034,-0.08130991,-0.02587094,-0.13644135,0.13189179,1.5190209,0.050202265,0.0,0.1,0.03259344,0.01689251,0.058047242,0.033489257,inf,inf,inf,inf,1,1,1,1,4,3,2,3,4,0,0,1
819434818,0,0.0,0.0,1.0173116,1.0206547,-0.07207307,1.1408086,0.91646695,-0.5153563,0.0025019639,-0.0019283053,0.0005763432,0.00057207514,0.0075655105,0.026621034,-0.08130991,0.044683874,-0.036919344,0.17946397,1.5189906,0.050202265,0.0,0.1,0.032575145,0.016892511,0.058102287,0.03348925,inf,inf,inf,inf,1,1,1,1,4,3,2,3,4,0,0,1
819454805,0,0.0,0.0,1.0172844,1.0206482,-0.07206884,1.1408086,0.91646695,-0.5153563,0.00086760044,-0.0018950352,0.00038741645,0.00038031285,0.0075655105,0.026621034,-0.08130991,0.12102109,0.082869984,0.1759094,1.5190059,0.050202265,0.0,0.1,0.032558408,0.016892513,0.058161046,0.033489253,inf,inf,inf,inf,1,1,1,1,4,3,2,3,4,0,0,1
819474791,0,0.0,0.0,1.0172696,1.0206497,-0.07206786,1.1408086,0.91646695,-0.5153563,0.0024507076,-0.0021632924,-0.00013081566,-0.00014123479,0.0075655105,0.026621034,-0.08130991,0.037027977,-0.04238248,0.06337841,1.5189815,0.050202265,0.0,0.1,0.032543216,0.016892513,0.058228493,0.033489246,inf,inf,inf,inf,1,1,1,1,4,3,2,3,4,0,0,1
819494778,0,0.0,0.0,1.0172441,1.0206462,-0.072069906,1.1408086,0.91646695,-0.5153563,0.0006647672,-0.0015224712,-9.991891e-05,-0.000114172944,0.0075655105,0.026621034,-0.08130991,0.109524414,0.08181481,0.0030378902,1.5189446,0.050202265,0.0,0.1,0.0325296,0.016892515,0.05830048,0.03348925,inf,inf,inf,inf,1,1,1,1,4,3,2,3,4,0,0,1
819514766,0,0.0,0.0,1.0172309,1.0206413,-0.07207165,1.1408086,0.91646695,-0.5153563,0.0017355307,-0.0021773004,-0.00044229394,-0.00046098419,0.0075655105,0.026621034,-0.08130991,-0.17525338,0.095152736,-0.070204504,1.5190994,0.050202265,0.0,0.1,0.032517564,0.016892515,0.058376104,0.03348925,inf,inf,inf,inf,1,1,1,1,4,3,2,3,4,0,0,1
819534751,0,0.0,0.0,1.0172123,1.020646,-0.0720777,1.1408086,0.91646695,-0.5153563,0.0017349398,-0.002245232,-0.00035417278,-0.00037788958,0.0075655105,0.026621034,-0.08130991,-0.00081796036,-0.065748066,-0.11561302,1.5189079,0.050202265,0.0,0.1,0.032507077,0.016892515,0.05845806,0.033489246,inf,inf,inf,inf,1,1,1,1,4,3,2,3,4,0,0,1
819554737,0,0.0,0.0,1.0171934,1.0206424,-0.07208088,1.1408086,0.91646695,-0.5153563,0.0019942413,-0.0022963893,0.00062139815,0.0005921909,0.0075655105,0.026621034,-0.08130991,0.003836386,-0.007916926,0.023191988,1.5189471,0.050202265,0.0,0.1,0.03249815,0.016892515,0.058541756,0.03348924,inf,inf,inf,inf,1,1,1,1,4,3,2,3,4,0,0,1
819574724,0,0.0,0.0,1.0171728,1.0206429,-0.072086036,1.1408086,0.91646695,-0.5153563,0.0015454326,-0.0014327633,0.00014583314,0.0001107824,0.0075655105,0.026621034,-0.08130991,0.07011355,-0.0017289681,0.01706532,1.5189751,0.050202265,0.0,0.1,0.032490753,0.016892515,0.058629565,0.03348924,inf,inf,inf,inf,1,1,1,1,4,3,2,3,4,0,0,1
819594711,0,0.0,0.0,1.0171474,1.0206351,-0.07209305,1.1408086,0.91646695,-0.5153563,0.0014460364,-0.0021907962,4.0356426e-05,-9.192918e-07,0.0075655105,0.026621034,-0.08130991,0.07578453,-0.0070996424,0.048603263,1.5189081,0.050202265,0.0,0.1,0.03248488,0.016892515,0.058716815,0.03348923,inf,inf,inf,inf,1,1,1,1,4,3,2,3,4,0,0,1
819614699,0,0.0,0.0,1.017127,1.0206279,-0.07209719,1.1408086,0.91646695,-0.5153563,0.0013890143,-0.0018399425,-0.0001286612,-0.0001764922,0.0075655105,0.026621034,-0.08130991,0.111561775,-0.074843735,0.019885022,1.5189639,0.050202265,0.0,0.1,0.032480493,0.016892515,0.058810443,0.03348923,inf,inf,inf,inf,1,1,1,1,4,3,2,3,4,0,0,1
819634683,0,0.0,0.0,1.0171071,1.0206195,-0.0720975,1.1408086,0.91646695,-0.5153563,0.0022288153,-0.0025306444,-0.00013076409,-0.0001854161,0.0075655105,0.026621034,-0.08130991,0.2570825,-0.1803225,-0.06796206,1.5189126,0.050202265,0.0,0.1,0.032477576,0.016892515,0.058904972,0.033489224,inf,inf,inf,inf,1,1,1,1,4,3,2,3,4,0,0,1
819654674,0,0.0,0.0,1.0170919,1.0206138,-0.07211394,1.1408086,0.91646695,-0.5153563,0.003115428,-0.0017621063,-0.0010779998,-0.0011397769,0.0075655105,0.026621034,-0.08130991,0.31379592,-0.018954445,0.2643777,1.5189041,0.050202265,0.0,0.100003794,0.0324761,0.016892515,0.05900191,0.03348922,inf,inf,inf,inf,1,1,1,1,4,3,2,3,4,0,0,1
819674657,0,0.0,0.0,1.0170745,1.0206122,-0.072126105,1.1408086,0.91646695,-0.5153563,0.001120596,-0.0032602653,-0.00019705638,-0.00026618387,0.0075655105,0.026621034,-0.08130991,0.09171765,-0.44110683,-0.09075821,1.5187911,0.050202265,0.0,0.10001596,0.032476027,0.016892515,0.059098825,0.03348921,inf,inf,inf,inf,1,1,1,1,4,3,2,3,4,0,0,1
819694643,0,0.0,0.0,1.0170679,1.0206145,-0.07214652,1.1408086,0.91646695,-0.5153563,0.0034445531,-0.0025446871,-0.00064373645,-0.00072046457,0.0075655105,0.026621034,-0.08130991,0.22177461,-0.46247616,0.05177442,1.5188394,0.050202265,0.0,0.100036375,0.032477308,0.016892515,0.05919734,0.0334892,inf,inf,inf,inf,1,1,1,1,4,3,2,3,4,0,0,1
819714630,0,0.0,0.0,1.0170543,1.0206115,-0.072158344,1.1408086,0.91646695,-0.5153563,-4.615872e-05,-0.00350299,-0.00092685816,-0.0010114578,0.0075655105,0.026621034,-0.08130991,-0.30832413,-0.6110005,-0.20657735,1.518965,0.050202265,0.0,0.1000482,0.032479905,0.016892515,0.059295353,0.033489197,inf,inf,inf,inf,1,1,1,1,4,3,2,3,4,0,0,1
819734617,0,0.0,0.0,1.0170346,1.0205944,-0.072150975,1.1408086,0.91646695,-0.5153563,-0.0023403484,-0.0035082682,0.0017561379,0.0016633921,0.0075655105,0.026621034,-0.08130991,-1.1732361,0.08843728,0.08650467,1.5187567,0.050202265,0.0,0.10004083,0.03248375,0.016892515,0.05939399,0.033489186,inf,inf,inf,inf,1,1,1,1,4,3,2,3,4,0,0,1
819754603,0,0.0,0.0,1.017016,1.0205959,-0.07215643,1.1408086,0.91646695,-0.5153563,0.000426342,-0.004433503,0.00041268067,0.00031166206,0.0075655105,0.026621034,-0.08130991,0.94132614,-0.29658005,0.0796408,1.5188985,0.050202265,0.0,0.100046284,0.03248882,0.016892515,0.05949151,0.033489175,inf,inf,inf,inf,1,1,1,1,4,3,2,3,4,0,0,1
819774590,0,0.0,0.0,1.0169927,1.0205933,-0.07214535,1.1408086,0.91646695,-0.5153563,-0.0022899571,-0.0021771872,0.0014466447,0.0013374067,0.0075655105,0.026621034,-0.08130991,-0.96444285,0.8590651,0.13859685,1.5191061,0.050202265,0.0,0.100035205,0.032495044,0.016892515,0.05958762,0.03348916,inf,inf,inf,inf,1,1,1,1,4,3,2,3,4,0,0,1
819794576,0,0.0,0.0,1.0169655,1.0205895,-0.07213644,1.1408086,0.91646695,-0.5153563,0.0034724853,-0.004481297,0.0008818773,0.0007644284,0.0075655105,0.026621034,-0.08130991,1.5440719,-0.4769307,-0.019563848,1.518359,0.050202265,0.0,0.100026295,0.03250237,0.016892515,0.05968294,0.03348915,inf,inf,inf,inf,1,1,1,1,4,3,2,3,4,0,0,1
819814564,0,0.0,0.0,1.0169648,1.0205778,-0.07214023,1.1408086,0.91646695,-0.5153563,-0.0031791811,-0.0018632433,0.0016322429,0.0015066885,0.0075655105,0.026621034,-0.08130991,-1.0497375,1.086284,0.44829732,1.5191818,0.050202265,0.0,0.10003009,0.03251073,0.016892515,0.059778206,0.033489138,inf,inf,inf,inf,1,1,1,1,4,3,2,3,4,0,0,1
819834552,0,0.0,0.0,1.0169278,1.0205712,-0.07213723,1.1408086,0.91646695,-0.5153563,0.0030713996,-0.004214403,-0.00066255615,-0.00079602725,0.0075655105,0.026621034,-0.08130991,1.4031895,-0.3391617,-0.011441995,1.5190516,0.050202265,0.0,0.100027084,0.032520097,0.016892515,0.059873573,0.03348911,inf,inf,inf,inf,1,1,1,1,4,3,2,3,4,0,0,1
819854536,0,0.0,0.0,1.0169126,1.0205439,-0.0721391,1.1408086,0.91646695,-0.5153563,-0.0029536467,-0.0031535414,0.0016891208,0.0015479892,0.0075655105,0.026621034,-0.08130991,-0.8202509,1.1639787,0.23015013,1.5181258,0.050202265,0.0,0.100028954,0.03253038,0.016892515,0.059965897,0.033489104,inf,inf,inf,inf,1,1,1,1,4,3,2,3,4,0,0,1
819874522,0,0.0,0.0,1.0169014,1.0205466,-0.07214519,1.1408086,0.91646695,-0.5153563,0.0022301234,-0.0044065793,0.0003805762,0.00023213195,0.0075655105,0.026621034,-0.08130991,1.0006187,-0.601244,0.19357407,1.5198456,0.050202265,0.0,0.10003504,0.032541532,0.016892513,0.060054056,0.03348907,inf,inf,inf,inf,1,1,1,1,4,3,2,3,4,0,0,1
819894509,0,0.0,0.0,1.0168859,1.0205182,-0.07215202,1.1408086,0.91646695,-0.5153563,-0.0018328066,-0.0028483146,-1.6618887e-05,-0.00017191835,0.0075655105,0.026621034,-0.08130991,-0.6977271,1.1488967,0.17448324,1.5185186,0.050202265,0.0,0.100041874,0.03255347,0.016892513,0.060139704,0.033489067,inf,inf,inf,inf,1,1,1,1,4,3,2,3,4,0,0,1
819914495,0,0.0,0.0,1.0168748,1.0205013,-0.07215296,1.1408086,0.91646695,-0.5153563,0.0002445274,-0.006136667,0.0007692224,0.00060745806,0.0075655105,0.026621034,-0.08130991,0.8703573,-0.5751329,0.06368849,1.5183389,0.050202265,0.0,0.10004281,0.032566085,0.016892511,0.060226966,0.033489034,inf,inf,inf,inf,1,1,1,1,4,3,2,3,4,0,0,1
819934482,0,0.0,0.0,1.0168761,1.0204912,-0.07216147,1.1408086,0.91646695,-0.5153563,-0.0019588924,-0.002866396,0.00073925644,0.00057137257,0.0075655105,0.026621034,-0.08130991,-0.8983276,0.6599398,0.23818733,1.5201038,0.050202265,0.0,0.10005133,0.0325794,0.01689251,0.060307737,0.033489026,inf,inf,inf,inf,1,1,1,1,4,3,2,3,4,0,0,1
819954468,0,0.0,0.0,1.0168493,1.0204731,-0.072168835,1.1408086,0.91646695,-0.5153563,0.0008706819,-0.004173387,-9.531823e-05,-0.0002689851,0.0075655105,0.026621034,-0.08130991,0.6221328,-0.56078905,0.04994011,1.5177771,0.050202265,0.0,0.10005869,0.032593284,0.016892508,0.060385875,0.033489008,inf,inf,inf,inf,1,1,1,1,4,3,2,3,4,0,0,1
819974455,0,0.0,0.0,1.0168457,1.0204667,-0.07215773,1.1408086,0.91646695,-0.5153563,-0.0021981618,-0.003411537,0.001294078,0.0011148122,0.0075655105,0.026621034,-0.08130991,-0.68970776,0.94176835,-0.16110183,1.5191443,0.050202265,0.0,0.10004759,0.032607693,0.016892506,0.06046641,0.033488985,inf,inf,inf,inf,1,1,1,1,4,3,2,3,4,0,0,1
819994442,0,0.0,0.0,1.0168455,1.0204693,-0.07216563,1.1408086,0.91646695,-0.5153563,0.002659759,-0.0046628737,0.0005421465,0.00035740467,0.0075655105,0.026621034,-0.08130991,0.6011044,-0.865681,0.20470977,1.5196552,0.050202265,0.0,0.100055486,0.032622587,0.016892506,0.0605346,0.03348897,inf,inf,inf,inf,1,1,1,1,4,3,2,3,4,0,0,1
820014430,0,0.0,0.0,1.0168263,1.0204405,-0.07217304,1.1408086,0.91646695,-0.5153563,-0.0018990941,-0.0037888645,0.0002623599,7.2441835e-05,0.0075655105,0.026621034,-0.08130991,-0.5304045,0.8832651,0.051834155,1.5175747,0.050202265,0.0,0.10006289,0.032637876,0.016892504,0.060608048,0.03348894,inf,inf,inf,inf,1,1,1,1,4,3,2,3,4,0,0,1
820034414,0,0.0,0.0,1.0168358,1.0204425,-0.07217568,1.1408086,0.91646695,-0.5153563,0.00087354315,-0.00784217,-7.171867e-05,-0.00026651792,0.0075655105,0.026621034,-0.08130991,0.6843382,-1.1626987,0.051329263,1.5199556,0.050202265,0.0,0.10006554,0.03265348,0.016892502,0.060674198,0.03348892,inf,inf,inf,inf,1,1,1,1,4,3,2,3,4,0,0,1
820054402,0,0.0,0.0,1.0168389,1.0204201,-0.07218581,1.1408086,0.91646695,-0.5153563,-0.0021855216,-0.002192461,0.0009832112,0.0007836916,0.0075655105,0.026621034,-0.08130991,-1.1709356,0.75044155,0.21016835,1.518596,0.050202265,0.0,0.10007566,0.03266937,0.016892502,0.06073799,0.0334889,inf,inf,inf,inf,1,1,1,1,4,3,2,3,4,0,0,1
820074388,0,0.0,0.0,1.0168214,1.020411,-0.0721839,1.1408086,0.91646695,-0.5153563,0.00096119416,-0.0077854213,-0.00054417265,-0.00074823323,0.0075655105,0.026621034,-0.08130991,1.0118786,-1.2032386,-0.037778698,1.5180869,0.050202265,0.0,0.100073755,0.032685474,0.0168925,0.060795598,0.033488877,inf,inf,inf,inf,1,1,1,1,4,3,2,3,4,0,0,1
820094374,0,0.0,0.0,1.0168308,1.0204061,-0.07219213,1.1408086,0.91646695,-0.5153563,-0.003163127,-0.0011609208,0.00033739512,0.00012885353,0.0075655105,0.026621034,-0.08130991,-1.4089757,0.892383,-0.08883293,1.520279,0.050202265,0.0,0.10008199,0.032701693,0.016892496,0.060856257,0.033488847,inf,inf,inf,inf,1,1,1,1,4,3,2,3,4,0,0,1
820114361,0,0.0,0.0,1.0168102,1.0203773,-0.07219352,1.1408086,0.91646695,-0.5153563,0.0033471033,-0.0058963243,0.0014229339,0.0012100049,0.0075655105,0.026621034,-0.08130991,1.3013884,-0.8303412,0.20505789,1.5175945,0.050202265,0.0,0.10008337,0.032718033,0.016892493,0.06090566,0.033488836,inf,inf,inf,inf,1,1,1,1,4,3,2,3,4,0,0,1
820134348,0,0.0,0.0,1.0168284,1.0203809,-0.07219129,1.1408086,0.91646695,-0.5153563,-0.0045006135,-0.0022779119,0.00080711086,0.00058997073,0.0075655105,0.026621034,-0.08130991,-1.6192744,1.2100087,0.13347821,1.5192795,0.050202265,0.0,0.100081146,0.032734387,0.01689249,0.060954604,0.033488803,inf,inf,inf,inf,1,1,1,1,4,3,2,3,4,0,0,1
820154334,0,0.0,0.0,1.0168229,1.020379,-0.07219824,1.1408086,0.91646695,-0.5153563,0.0042610164,-0.007009204,0.0006440778,0.0004228551,0.0075655105,0.026621034,-0.08130991,1.0151687,-1.4794053,0.23619866,1.5195162,0.050202265,0.0,0.1000881,0.032750696,0.016892487,0.0610007,0.033488784,inf,inf,inf,inf,1,1,1,1,4,3,2,3,4,0,0,1
820174321,0,0.0,0.0,1.016812,1.0203516,-0.07219735,1.1408086,0.91646695,-0.5153563,-0.004475832,-0.0023841872,0.00073223497,0.00050705165,0.0075655105,0.026621034,-0.08130991,-1.3197364,1.4321563,0.0010921212,1.5174973,0.050202265,0.0,0.1000872,0.032766942,0.016892483,0.061044034,0.03348877,inf,inf,inf,inf,1,1,1,1,4,3,2,3,4,0,0,1
820194307,0,0.0,0.0,1.0168304,1.0203636,-0.07217146,1.1408086,0.91646695,-0.5153563,0.0033934517,-0.0094270995,0.001479233,0.0012501582,0.0075655105,0.026621034,-0.08130991,0.8186826,-1.8880938,-0.010111612,1.5202461,0.050202265,0.0,0.10006131,0.03278307,0.01689248,0.06107877,0.03348873,inf,inf,inf,inf,1,1,1,1,4,3,2,3,4,0,0,1
820214294,0,0.0,0.0,1.0168173,1.0203362,-0.07217498,1.1408086,0.91646695,-0.5153563,-0.0031874552,-0.00042096322,0.00076784135,0.00053501653,0.0075655105,0.026621034,-0.08130991,-1.0834712,1.2947286,0.07286863,1.5182853,0.050202265,0.0,0.10006484,0.032798998,0.016892478,0.06111692,0.033488717,inf,inf,inf,inf,1,1,1,1,4,3,2,3,4,0,0,1
820234281,0,0.0,0.0,1.0168272,1.0203329,-0.072172515,1.1408086,0.91646695,-0.5153563,0.0025286695,-0.010891146,0.0007542859,0.00051794417,0.0075655105,0.026621034,-0.08130991,0.69868284,-1.8379891,0.24284609,1.5184158,0.050202265,0.0,0.10006237,0.032814715,0.016892474,0.061143745,0.033488695,inf,inf,inf,inf,1,1,1,1,4,3,2,3,4,0,0,1
820254267,0,0.0,0.0,1.0168533,1.0203375,-0.07216202,1.1408086,0.91646695,-0.5153563,-0.00291301,-0.0018817921,0.0007516033,0.00051201286,0.0075655105,0.026621034,-0.08130991,-1.1354392,0.16812827,-0.20407729,1.5202019,0.050202265,0.0,0.10005187,0.032830153,0.01689247,0.061173253,0.033488665,inf,inf,inf,inf,1,1,1,1,4,3,2,3,4,0,0,1
820274253,0,0.0,0.0,1.0168548,1.0203065,-0.0721598,1.1408086,0.91646695,-0.5153563,0.0004060169,-0.009374232,0.0013992065,0.0011566422,0.0075655105,0.026621034,-0.08130991,-0.1878169,-1.3038484,0.34544155,1.5174838,0.050202265,0.0,0.10004965,0.032845292,0.016892467,0.061194807,0.033488654,inf,inf,inf,inf,1,1,1,1,4,3,2,3,4,0,0,1
820294240,0,0.0,0.0,1.0168556,1.0203073,-0.07215134,1.1408086,0.91646695,-0.5153563,-0.0039892434,-0.0034896089,-3.7302172e-05,-0.00028263786,0.0075655105,0.026621034,-0.08130991,-0.77266157,-0.13441719,-0.1634379,1.5197017,0.050202265,0.0,0.100041196,0.032860044,0.016892463,0.061216623,0.03348861,inf,inf,inf,inf,1,1,1,1,4,3,2,3,4,0,0,1
820314228,0,0.0,0.0,1.0168813,1.0202886,-0.0721526,1.1408086,0.91646695,-0.5153563,-0.00034463644,-0.0062435563,0.00092909264,0.00068109634,0.0075655105,0.026621034,-0.08130991,-1.1989187,-0.7811861,0.44841456,1.5191177,0.050202265,0.0,0.100042455,0.032874443,0.01689246,0.06123302,0.03348859,inf,inf,inf,inf,1,1,1,1,4,3,2,3,4,0,0,1
820334213,0,0.0,0.0,1.0168606,1.0202513,-0.07214531,1.1408086,0.91646695,-0.5153563,-0.0026205792,-0.005125256,5.7109355e-05,-0.00019347048,0.0075655105,0.026621034,-0.08130991,-0.16086279,0.041746408,-0.11387723,1.5177844,0.050202265,0.0,0.10003517,0.032888424,0.016892456,0.06124663,0.033488568,inf,inf,inf,inf,1,1,1,1,4,3,2,3,4,0,0,1
820354200,0,0.0,0.0,1.0169014,1.020247,-0.07214209,1.1408086,0.91646695,-0.5153563,-0.00092514424,-0.0050753793,-0.0005696166,-0.00082264986,0.0075655105,0.026621034,-0.08130991,-2.0829747,-0.610318,0.10866332,1.5203106,0.050202265,0.0,0.10003194,0.03290196,0.016892452,0.061250605,0.033488534,inf,inf,inf,inf,1,1,1,1,4,3,2,3,4,0,0,1
820374186,0,0.0,0.0,1.0169003,1.0202086,-0.07214547,1.1408086,0.91646695,-0.5153563,0.0015979746,-0.0056022904,-0.0010692411,-0.0013247498,0.0075655105,0.026621034,-0.08130991,0.45449618,-0.3163382,-0.33195952,1.5178336,0.050202265,0.0,0.100035325,0.032914974,0.016892448,0.061264154,0.033488516,inf,inf,inf,inf,1,1,1,1,4,3,2,3,4,0,0,1
820394173,0,0.0,0.0,1.0168918,1.0201818,-0.07214313,1.1408086,0.91646695,-0.5153563,-0.0048013097,-0.008473611,0.0009214072,0.00066340936,0.0075655105,0.026621034,-0.08130991,-2.1272092,-0.4635115,0.27241883,1.519096,0.050202265,0.0,0.100032985,0.032927547,0.016892444,0.061264046,0.033488486,inf,inf,inf,inf,1,1,1,1,4,3,2,3,4,0,0,1
820414161,0,0.0,0.0,1.0169106,1.0201813,-0.07212716,1.1408086,0.91646695,-0.5153563,0.0042060334,-0.004612219,-0.00047270648,-0.00073317613,0.0075655105,0.026621034,-0.08130991,0.22547969,-1.2086675,-0.32594365,1.5197327,0.050202265,0.0,0.10001702,0.032939572,0.016892439,0.06126485,0.033488452,inf,inf,inf,inf,1,1,1,1,4,3,2,3,4,0,0,1
820434147,0,0.0,0.0,1.0169268,1.0201416,-0.072132915,1.1408086,0.91646695,-0.5153563,-0.0031275991,-0.0074868463,-0.0001430979,-0.00040614684,0.0075655105,0.026621034,-0.08130991,-2.063408,-0.06340366,0.054571103,1.5174763,0.050202265,0.0,0.10002277,0.032951064,0.016892433,0.0612613,0.033488438,inf,inf,inf,inf,1,1,1,1,4,3,2,3,4,0,0,1
820454133,0,0.0,0.0,1.0169276,1.0201358,-0.07212334,1.1408086,0.91646695,-0.5153563,0.0024723618,-0.007740949,-0.00068786426,-0.0009535729,0.0075655105,0.026621034,-0.08130991,0.34524736,-1.9028689,-0.39717454,1.5202671,0.050202265,0.0,0.1000132,0.03296198,0.016892431,0.06125626,0.033488404,inf,inf,inf,inf,1,1,1,1,4,3,2,3,4,0,0,1
820474119,0,0.0,0.0,1.0169306,1.0201018,-0.072131656,1.1408086,0.91646695,-0.5153563,0.0012912585,-0.0018893037,-0.00060988736,-0.0008783532,0.0075655105,0.026621034,-0.08130991,-1.3206955,0.46278667,-0.15691042,1.5184189,0.050202265,0.0,0.10002151,0.03297235,0.016892428,0.06124746,0.033488378,inf,inf,inf,inf,1,1,1,1,4,3,2,3,4,0,0,1
820494107,0,0.0,0.0,1.0169373,1.0200773,-0.07214086,1.1408086,0.91646695,-0.5153563,0.0032979646,-0.008620798,0.00032553583,5.4187403e-05,0.0075655105,0.026621034,-0.08130991,0.6942834,-1.9471873,0.036684785,1.5184703,0.050202265,0.0,0.10003071,0.032982122,0.016892422,0.06123645,0.03348836,inf,inf,inf,inf,1,1,1,1,4,3,2,3,4,0,0,1
820514093,0,0.0,0.0,1.0169568,1.0200567,-0.07214563,1.1408086,0.91646695,-0.5153563,-0.00016690839,0.0003097571,-0.0007253519,-0.0009996261,0.0075655105,0.026621034,-0.08130991,-1.8735647,0.28734484,-0.3578247,1.520217,0.050202265,0.0,0.10003549,0.03299131,0.016892418,0.061222654,0.03348833,inf,inf,inf,inf,1,1,1,1,4,3,2,3,4,0,0,1
820534079,0,0.0,0.0,1.0169635,1.0200354,-0.07214127,1.1408086,0.91646695,-0.5153563,0.007462479,-0.0038526969,0.0002864796,9.210862e-06,0.0075655105,0.026621034,-0.08130991,1.0416247,-0.99770516,-0.20900637,1.5174706,0.050202265,0.0,0.10003112,0.032999903,0.016892413,0.061206706,0.033488315,inf,inf,inf,inf,1,1,1,1,4,3,2,3,4,0,0,1
820554065,0,0.0,0.0,1.0169877,1.0200119,-0.072140455,1.1408086,0.91646695,-0.5153563,0.0013760796,-0.0015837192,0.0009918609,0.0007115599,0.0075655105,0.026621034,-0.08130991,-0.8657644,0.58171195,-0.13932791,1.5198351,0.050202265,0.0,0.10003031,0.033007894,0.016892407,0.061188526,0.03348829,inf,inf,inf,inf,1,1,1,1,4,3,2,3,4,0,0,1
820574052,0,0.0,0.0,1.0169998,1.0199939,-0.07215599,1.1408086,0.91646695,-0.5153563,0.008031267,-0.0021002754,-0.0012956468,-0.0015790268,0.0075655105,0.026621034,-0.08130991,0.8296144,-0.9926418,-0.10166266,1.5190052,0.050202265,0.0,0.100045845,0.033015244,0.016892403,0.061165772,0.033488262,inf,inf,inf,inf,1,1,1,1,4,3,2,3,4,0,0,1
820594038,0,0.0,0.0,1.0170043,1.0199776,-0.07215261,1.1408086,0.91646695,-0.5153563,0.0007482974,0.00067700504,0.00014624857,-0.0001402312,0.0075655105,0.026621034,-0.08130991,-0.41879058,1.3304843,-0.5309994,1.5179071,0.050202265,0.0,0.10004246,0.03302199,0.016892398,0.06114595,0.03348824,inf,inf,inf,inf,1,1,1,1,4,3,2,3,4,0,0,1
820614026,0,0.0,0.0,1.0170276,1.0199687,-0.07215586,1.1408086,0.91646695,-0.5153563,0.007712291,-0.0036390487,0.0015067782,0.0012171454,0.0075655105,0.026621034,-0.08130991,0.75094545,-0.8938725,0.00089358474,1.5204003,0.050202265,0.0,0.10004572,0.03302814,0.016892394,0.061117493,0.03348821,inf,inf,inf,inf,1,1,1,1,4,3,2,3,4,0,0,1
820634012,0,0.0,0.0,1.0170325,1.0199349,-0.07216399,1.1408086,0.91646695,-0.5153563,0.0039408724,0.0018163547,0.0010937336,0.0008009151,0.0075655105,0.026621034,-0.08130991,0.10177894,1.6784908,0.04354719,1.5177879,0.050202265,0.0,0.10005385,0.03303366,0.016892387,0.061095428,0.03348819,inf,inf,inf,inf,1,1,1,1,4,3,2,3,4,0,0,1
820653999,0,0.0,0.0,1.0170574,1.0199331,-0.07216742,1.1408086,0.91646695,-0.5153563,0.0063844104,-0.006203952,-0.00017215923,-0.0004682108,0.0075655105,0.026621034,-0.08130991,1.5192358,-0.9695399,0.07068794,1.5194134,0.050202265,0.0,0.100057274,0.033038605,0.016892383,0.061064947,0.033488177,inf,inf,inf,inf,1,1,1,1,4,3,2,3,4,0,0,1
820673985,0,0.0,0.0,1.0170724,1.0199134,-0.07218781,1.1408086,0.91646695,-0.5153563,0.0030677777,0.0036980654,0.0005704717,0.00027117232,0.0075655105,0.026621034,-0.08130991,0.20525575,1.7999586,-0.08634298,1.5195832,0.050202265,0.0,0.10007767,0.033042923,0.016892377,0.061037354,0.033488147,inf,inf,inf,inf,1,1,1,1,4,3,2,3,4,0,0,1
820693972,0,0.0,0.0,1.017081,1.019907,-0.07219177,1.1408086,0.91646695,-0.5153563,0.00616103,-0.005402682,0.00092134974,0.0006188596,0.0075655105,0.026621034,-0.08130991,1.9008963,-0.58943415,0.091032125,1.5176138,0.050202265,0.0,0.10008162,0.03304668,0.016892374,0.061001513,0.033488143,inf,inf,inf,inf,1,1,1,1,4,3,2,3,4,0,0,1
820713960,0,0.0,0.0,1.0171304,1.0199001,-0.072217084,1.1408086,0.91646695,-0.5153563,-0.0009986276,0.0006907188,0.00018295295,-0.00012273453,0.0075655105,0.026621034,-0.08130991,-0.7400912,1.5470824,0.09679114,1.5203885,0.050202265,0.0,0.10010694,0.033049803,0.01689237,0.060972553,0.033488113,inf,inf,inf,inf,1,1,1,1,4,3,2,3,4,0,0,1
820733945,0,0.0,0.0,1.0171503,1.0198754,-0.07222601,1.1408086,0.91646695,-0.5153563,0.004769741,-0.0051874677,0.0009226816,0.00061377796,0.0075655105,0.026621034,-0.08130991,1.157303,-0.2375415,0.27175155,1.5181186,0.050202265,0.0,0.100115865,0.033052374,0.016892364,0.060937528,0.03348811,inf,inf,inf,inf,1,1,1,1,4,3,2,3,4,0,0,1
820753932,0,0.0,0.0,1.0171725,1.0198808,-0.07222837,1.1408086,0.91646695,-0.5153563,-0.0038441878,-0.0015962385,-0.00065695384,-0.0009689647,0.0075655105,0.026621034,-0.08130991,-1.0168982,1.4917842,-0.24188448,1.5188929,0.050202265,0.0,0.10011823,0.0330544,0.016892359,0.06090046,0.033488084,inf,inf,inf,inf,1,1,1,1,4,3,2,3,4,0,0,1
820773919,0,0.0,0.0,1.0172135,1.0198904,-0.072258234,1.1408086,0.91646695,-0.5153563,0.0030572119,-0.006678307,0.00027493076,-3.9894658e-05,0.0075655105,0.026621034,-0.08130991,-0.19837159,-0.9583242,0.38543475,1.519843,0.050202265,0.0,0.10014809,0.033055846,0.016892353,0.060864404,0.033488072,inf,inf,inf,inf,1,1,1,1,4,3,2,3,4,0,0,1
820793904,0,0.0,0.0,1.0171989,1.019862,-0.07227073,1.1408086,0.91646695,-0.5153563,-0.0021886409,-0.0019986797,0.0007792627,0.0004617882,0.0075655105,0.026621034,-0.08130991,-0.48244643,1.3264709,0.09150215,1.5174568,0.050202265,0.0,0.100160584,0.033056736,0.01689235,0.06082884,0.033488058,inf,inf,inf,inf,1,1,1,1,4,3,2,3,4,0,0,1
820813892,0,0.0,0.0,1.017232,1.0198799,-0.07226566,1.1408086,0.91646695,-0.5153563,0.001959741,-0.009343556,0.0012432472,0.0009232794,0.0075655105,0.026621034,-0.08130991,-0.4901686,-1.3670517,0.28647155,1.5202001,0.050202265,0.0,0.10015552,0.03305712,0.016892344,0.060787603,0.03348804,inf,inf,inf,inf,1,1,1,1,4,3,2,3,4,0,0,1
820833879,0,0.0,0.0,1.0172416,1.019883,-0.07226753,1.1408086,0.91646695,-0.5153563,0.0007445233,-0.0023023433,-0.00076229,-0.0010846809,0.0075655105,0.026621034,-0.08130991,-0.39732397,0.09212757,-0.22778681,1.5183417,0.050202265,0.0,0.10015739,0.03305699,0.01689234,0.060750827,0.033488024,inf,inf,inf,inf,1,1,1,1,4,3,2,3,4,0,0,1
820853864,0,0.0,0.0,1.0172533,1.0198834,-0.072273545,1.1408086,0.91646695,-0.5153563,0.0011518978,-0.010844179,0.00049681135,0.00017221538,0.0075655105,0.026621034,-0.08130991,-0.8335061,-1.3941741,0.23501903,1.5185086,0.050202265,0.0,0.1001634,0.033056367,0.016892334,0.060707483,0.033488017,inf,inf,inf,inf,1,1,1,1,4,3,2,3,4,0,0,1
820873851,0,0.0,0.0,1.0172576,1.0198987,-0.07228468,1.1408086,0.91646695,-0.5153563,0.0032924127,-0.00059025537,-0.0011838699,-0.0015103946,0.0075655105,0.026621034,-0.08130991,0.07266365,-0.7548069,-0.24242288,1.5201466,0.050202265,0.0,0.10017454,0.033055235,0.016892329,0.060670417,0.03348799,inf,inf,inf,inf,1,1,1,1,4,3,2,3,4,0,0,1
820893837,0,0.0,0.0,1.0172571,1.0198944,-0.07230197,1.1408086,0.91646695,-0.5153563,0.0031952455,-0.0049018343,-0.0005761752,-0.00090428744,0.0075655105,0.026621034,-0.08130991,-0.7501485,-0.45260864,0.14387652,1.5174704,0.050202265,0.0,0.100191824,0.03305367,0.016892325,0.060624562,0.033487983,inf,inf,inf,inf,1,1,1,1,4,3,2,3,4,0,0,1
820913825,0,0.0,0.0,1.0172588,1.0199155,-0.07231259,1.1408086,0.91646695,-0.5153563,0.0051939655,-0.0012469909,-0.0011502695,-0.0014797264,0.0075655105,0.026621034,-0.08130991,1.19599,-0.5614302,-0.48802882,1.5201188,0.050202265,0.0,0.10020245,0.033051617,0.01689232,0.060580432,0.033487964,inf,inf,inf,inf,1,1,1,1,4,3,2,3,4,0,0,1
820933812,0,0.0,0.0,1.0172487,1.0199007,-0.07232866,1.1408086,0.91646695,-0.5153563,0.0037268538,0.0014209197,0.0010377262,0.00070712296,0.0075655105,0.026621034,-0.08130991,-0.27037576,0.7902869,0.42981175,1.5187294,0.050202265,0.0,0.10021851,0.03304914,0.016892316,0.060541857,0.03348795,inf,inf,inf,inf,1,1,1,1,4,3,2,3,4,0,0,1
820953797,0,0.0,0.0,1.0172384,1.0199202,-0.07234862,1.1408086,0.91646695,-0.5153563,0.0046727895,-0.00044649857,-0.002129073,-0.002460451,0.0075655105,0.026621034,-0.08130991,1.843544,0.058787316,-0.33919305,1.5182837,0.050202265,0.0,0.10023847,0.033046253,0.016892312,0.060497947,0.033487946,inf,inf,inf,inf,1,1,1,1,4,3,2,3,4,0,0,1
820973784,0,0.0,0.0,1.0172545,1.0199298,-0.07237865,1.1408086,0.91646695,-0.5153563,0.0013259975,0.0006247961,0.00028399352,-4.7682857e-05,0.0075655105,0.026621034,-0.08130991,-0.613513,1.0794349,0.25949365,1.5203017,0.050202265,0.0,0.100268506,0.033042952,0.016892308,0.06045004,0.03348793,inf,inf,inf,inf,1,1,1,1,4,3,2,3,4,0,0,1
820993772,0,0.0,0.0,1.0172436,1.0199262,-0.07239405,1.1408086,0.91646695,-0.5153563,0.0051532816,-0.001456542,-0.00032985097,-0.00066145055,0.0075655105,0.026621034,-0.08130991,1.8412141,0.3959556,-0.08162784,1.5174863,0.050202265,0.0,0.100283906,0.033039235,0.016892305,0.060408317,0.033487923,inf,inf,inf,inf,1,1,1,1,4,3,2,3,4,0,0,1
821013758,0,0.0,0.0,1.0172486,1.0199615,-0.07242485,1.1408086,0.91646695,-0.5153563,-0.0029027448,-0.0022532293,0.00027490422,-5.623085e-05,0.0075655105,0.026621034,-0.08130991,-0.9058844,0.95928574,0.3804662,1.5199001,0.050202265,0.0,0.10031471,0.03303519,0.0168923,0.060363032,0.033487916,inf,inf,inf,inf,1,1,1,1,4,3,2,3,4,0,0,1
821033744,0,0.0,0.0,1.0172632,1.0199612,-0.07245717,1.1408086,0.91646695,-0.5153563,0.00456377,-0.0050578187,-0.0017017564,-0.002032223,0.0075655105,0.026621034,-0.08130991,0.91282433,-0.52857846,0.2456633,1.5188785,0.050202265,0.0,0.10034703,0.033030767,0.016892295,0.06032072,0.0334879,inf,inf,inf,inf,1,1,1,1,4,3,2,3,4,0,0,1
821053731,0,0.0,0.0,1.0172684,1.019954,-0.072474465,1.1408086,0.91646695,-0.5153563,-0.004108812,-0.0043188287,-0.0009392706,-0.0012689215,0.0075655105,0.026621034,-0.08130991,-1.3562427,1.2681208,-0.16813612,1.5180248,0.050202265,0.0,0.10036432,0.033026043,0.01689229,0.060275946,0.033487905,inf,inf,inf,inf,1,1,1,1,4,3,2,3,4,0,0,1
821073718,0,0.0,0.0,1.017279,1.0200032,-0.07250937,1.1408086,0.91646695,-0.5153563,0.002641159,-0.0069505475,-0.002213347,-0.0025418445,0.0075655105,0.026621034,-0.08130991,-0.14082521,-1.9290922,-0.018084513,1.520361,0.050202265,0.0,0.100399226,0.03302099,0.016892286,0.060231753,0.033487886,inf,inf,inf,inf,1,1,1,1,4,3,2,3,4,0,0,1
821093703,0,0.0,0.0,1.0172837,1.0200018,-0.07254246,1.1408086,0.91646695,-0.5153563,0.00024285406,-0.0021163686,-0.0021542977,-0.0024811623,0.0075655105,0.026621034,-0.08130991,-1.0935296,0.82414293,-0.19985065,1.5175256,0.050202265,0.0,0.100432314,0.033015646,0.016892284,0.06018929,0.033487894,inf,inf,inf,inf,1,1,1,1,4,3,2,3,4,0,0,1
821113690,0,0.0,0.0,1.017283,1.0200429,-0.072581895,1.1408086,0.91646695,-0.5153563,0.0040702797,-0.0072452137,-0.0017108377,-0.0020357077,0.0075655105,0.026621034,-0.08130991,0.44979087,-2.182308,0.06361393,1.5197333,0.050202265,0.0,0.10047175,0.033947743,0.01689228,0.061151337,0.03348788,inf,inf,inf,inf,1,1,1,1,4,3,2,3,4,0,0,1
821133677,0,0.0,0.0,1.0172887,1.0200652,-0.07261207,1.1408086,0.91646695,-0.5153563,0.0043650605,0.003121687,-0.0017133148,-0.002035855,0.0075655105,0.026621034,-0.08130991,-0.61264986,0.86172545,-0.20257547,1.5191644,0.050202265,0.0,0.100501925,0.03297984,0.016892277,0.06006126,0.033487868,inf,inf,inf,inf,1,1,1,1,4,3,2,3,4,0,0,1
821153662,0,0.0,0.0,1.0172887,1.0200759,-0.072641626,1.1408086,0.91646695,-0.5153563,0.0056914636,-0.0052763424,-0.0018208997,-0.0021406997,0.0075655105,0.026621034,-0.08130991,1.2055193,-1.3598894,-0.1873586,1.517769,0.050202265,0.0,0.10053148,0.032974627,0.016892273,0.060018003,0.033487875,inf,inf,inf,inf,1,1,1,1,4,3,2,3,4,0,0,1
821173651,0,0.0,0.0,1.0173032,1.0200969,-0.07267885,1.1408086,0.91646695,-0.5153563,0.0034199224,0.0042667408,-0.0014734298,-0.0017901486,0.0075655105,0.026621034,-0.08130991,-0.5438667,1.4947172,-0.11620789,1.5206227,0.050202265,0.0,0.100568704,0.032969166,0.016892273,0.05998218,0.03348785,inf,inf,inf,inf,1,1,1,1,4,3,2,3,4,0,0,1
821193637,0,0.0,0.0,1.0173185,1.0201048,-0.07272204,1.1408086,0.91646695,-0.5153563,0.009241508,-0.0012679043,-0.00058282184,-0.0008960505,0.0075655105,0.026621034,-0.08130991,2.1302977,-0.41072848,0.31669426,1.5176085,0.050202265,0.0,0.100611895,0.0329635,0.01689227,0.059939165,0.033487853,inf,inf,inf,inf,1,1,1,1,4,3,2,3,4,0,0,1
821213625,0,0.0,0.0,1.0173377,1.020131,-0.07274687,1.1408086,0.91646695,-0.5153563,-0.0027148223,0.002669839,-0.0016076562,-0.0019168521,0.0075655105,0.026621034,-0.08130991,-1.117974,2.0465121,-0.24009663,1.5197346,0.050202265,0.0,0.10063673,0.03295762,0.016892266,0.059899095,0.033487838,inf,inf,inf,inf,1,1,1,1,4,3,2,3,4,0,0,1
821233610,0,0.0,0.0,1.0173527,1.0201467,-0.0727905,1.1408086,0.91646695,-0.5153563,0.0062669204,-0.0030202318,-0.00017850052,-0.0004830693,0.0075655105,0.026621034,-0.08130991,1.0961305,-0.40871757,0.3476258,1.5190903,0.050202265,0.0,0.10068036,0.032951538,0.016892262,0.059858624,0.033487838,inf,inf,inf,inf,1,1,1,1,4,3,2,3,4,0,0,1
821253597,0,0.0,0.0,1.0173768,1.0201612,-0.072811134,1.1408086,0.91646695,-0.5153563,-0.0031708747,0.0005171981,-0.00063222577,-0.0009312859,0.0075655105,0.026621034,-0.08130991,-1.2279586,2.0510695,0.09137903,1.5177523,0.050202265,0.0,0.10070099,0.032945275,0.016892258,0.059820425,0.03348783,inf,inf,inf,inf,1,1,1,1,4,3,2,3,4,0,0,1
821273582,0,0.0,0.0,1.0174178,1.0201994,-0.07284053,1.1408086,0.91646695,-0.5153563,0.0038334734,-0.008663484,-0.001535456,-0.0018284742,0.0075655105,0.026621034,-0.08130991,-0.21434106,-1.5438877,0.17125222,1.5204183,0.050202265,0.0,0.10073038,0.032938857,0.016892254,0.05978104,0.03348783,inf,inf,inf,inf,1,1,1,1,4,3,2,3,4,0,0,1
821293575,0,0.0,0.0,1.0174301,1.0201908,-0.072888196,1.1408086,0.91646695,-0.5153563,0.0018446088,-0.0010721365,-0.0026469603,-0.0029334195,0.0075655105,0.026621034,-0.08130991,-0.35196882,1.1479044,0.067396834,1.5175247,0.050202265,0.0,0.10077805,0.032932267,0.01689225,0.059742834,0.03348783,inf,inf,inf,inf,1,1,1,1,4,3,2,3,4,0,0,1
821313557,0,0.0,0.0,1.0174778,1.0202185,-0.07291797,1.1408086,0.91646695,-0.5153563,0.0030076292,-0.010415144,-0.0017972293,-0.0020765357,0.0075655105,0.026621034,-0.08130991,-1.0206642,-1.9470223,0.15986994,1.5196024,0.050202265,0.0,0.10080782,0.032925535,0.016892249,0.059703965,0.033487838,inf,inf,inf,inf,1,1,1,1,4,3,2,3,4,0,0,1
821333543,0,0.0,0.0,1.0174984,1.0202461,-0.07294468,1.1408086,0.91646695,-0.5153563,0.007033389,0.0012033357,-0.0021466534,-0.0024181455,0.0075655105,0.026621034,-0.08130991,0.5453152,-0.18953255,-0.21837111,1.5192637,0.050202265,0.0,0.10083453,0.032918673,0.016892245,0.059669085,0.03348783,inf,inf,inf,inf,1,1,1,1,4,3,2,3,4,0,0,1
821353529,0,0.0,0.0,1.0175202,1.0202518,-0.072979264,1.1408086,0.91646695,-0.5153563,0.004325442,-0.00554967,-0.001815804,-0.002078675,0.0075655105,0.026621034,-0.08130991,-0.48869377,-0.6666746,0.15131462,1.5177772,0.050202265,0.0,0.10086912,0.032911703,0.016892243,0.059632026,0.033487845,inf,inf,inf,inf,1,1,1,1,4,3,2,3,4,0,0,1
821373516,0,0.0,0.0,1.0175321,1.0202866,-0.07300638,1.1408086,0.91646695,-0.5153563,0.0075268573,0.0018049615,-0.0021934968,-0.0024469811,0.0075655105,0.026621034,-0.08130991,1.3215266,-0.17622812,-0.42499104,1.520667,0.050202265,0.0,0.10089623,0.032904617,0.016892241,0.059593108,0.033487834,inf,inf,inf,inf,1,1,1,1,4,3,2,3,4,0,0,1
821393506,0,0.0,0.0,1.0175443,1.0202782,-0.07303461,1.1408086,0.91646695,-0.5153563,0.0040023844,-2.2153923e-05,-0.00060373335,-0.0008471084,0.0075655105,0.026621034,-0.08130991,-0.21059866,0.88071287,0.23482414,1.5175397,0.050202265,0.0,0.10092446,0.03289744,0.01689224,0.05955792,0.033487838,inf,inf,inf,inf,1,1,1,1,4,3,2,3,4,0,0,1
821413488,0,0.0,0.0,1.0175678,1.0203123,-0.07306267,1.1408086,0.91646695,-0.5153563,0.003760865,-0.0012331287,-0.0024638777,-0.00269635,0.0075655105,0.026621034,-0.08130991,1.5452935,-0.09243516,-0.16252543,1.5198858,0.050202265,0.0,0.10095253,0.032890167,0.016892238,0.05952264,0.033487838,inf,inf,inf,inf,1,1,1,1,4,3,2,3,4,0,0,1
821433474,0,0.0,0.0,1.017583,1.0203121,-0.07309079,1.1408086,0.91646695,-0.5153563,0.00092468626,0.00018909859,0.00058203924,0.000361158,0.0075655105,0.026621034,-0.08130991,-0.60973936,1.2172172,0.34165537,1.5190074,0.050202265,0.0,0.10098065,0.033809472,0.016892238,0.06046502,0.033487838,inf,inf,inf,inf,1,1,1,1,4,3,2,3,4,0,0,1
821453460,0,0.0,0.0,1.0175973,1.0203121,-0.07311182,1.1408086,0.91646695,-0.5153563,0.0015591568,-0.0045634196,-0.0013716938,-0.001580276,0.0075655105,0.026621034,-0.08130991,0.7860153,0.011422711,0.3315277,1.5178088,0.050202265,0.0,0.10100167,0.03377557,0.016892236,0.060388688,0.033487845,inf,inf,inf,inf,1,1,1,1,4,3,2,3,4,0,0,1
821473450,0,0.0,0.0,1.0176247,1.0203509,-0.073124945,1.1408086,0.91646695,-0.5153563,-0.0014430193,-0.0023554987,-0.0012221398,-0.0014176414,0.0075655105,0.026621034,-0.08130991,-1.5884314,0.25302,-0.046494793,1.5205156,0.050202265,0.0,0.1010148,0.03282142,0.016892234,0.05933299,0.033487845,inf,inf,inf,inf,1,1,1,1,4,3,2,3,4,0,0,1
821493435,0,0.0,0.0,1.0176214,1.0203592,-0.07316347,1.1408086,0.91646695,-0.5153563,0.0031247127,-0.0047193095,-0.0038551316,-0.004036919,0.0075655105,0.026621034,-0.08130991,0.31049246,-0.7678737,-0.08559015,1.517088,0.050202265,0.0,0.10105333,0.032815684,0.016892232,0.059305783,0.03348785,inf,inf,inf,inf,1,1,1,1,4,3,2,3,4,0,0,1
821513421,0,0.0,0.0,1.0176553,1.0203869,-0.073178865,1.1408086,0.91646695,-0.5153563,0.00018228027,-0.0044883983,-0.0020740696,-0.0022415062,0.0075655105,0.026621034,-0.08130991,-1.8298264,-0.2830363,-0.33417463,1.5200531,0.050202265,0.0,0.10106872,0.032809913,0.01689223,0.059278503,0.033487864,inf,inf,inf,inf,1,1,1,1,4,3,2,3,4,0,0,1
821533409,0,0.0,0.0,1.0176525,1.020396,-0.07319203,1.1408086,0.91646695,-0.5153563,0.009697265,-0.0016333904,-0.00077267643,-0.00092513155,0.0075655105,0.026621034,-0.08130991,1.1321108,-1.0666256,-0.003846844,1.5185906,0.050202265,0.0,0.101081885,0.032804098,0.01689223,0.05924996,0.033487868,inf,inf,inf,inf,1,1,1,1,4,3,2,3,4,0,0,1
821553395,0,0.0,0.0,1.0176605,1.0204114,-0.07322257,1.1408086,0.91646695,-0.5153563,0.002744513,-0.00064544275,-0.0031364404,-0.003273243,0.0075655105,0.026621034,-0.08130991,-0.73414695,0.7705112,-0.08492157,1.5181352,0.050202265,0.0,0.101112425,0.032798246,0.01689223,0.05922409,0.03348788,inf,inf,inf,inf,1,1,1,1,4,3,2,3,4,0,0,1
821573381,0,0.0,0.0,1.0176666,1.0204377,-0.07324327,1.1408086,0.91646695,-0.5153563,0.009245913,-0.0008668793,-0.0004380914,-0.00055859727,0.0075655105,0.026621034,-0.08130991,1.9568453,-0.6584244,-0.07646774,1.5204139,0.050202265,0.0,0.10113312,0.032792352,0.01689223,0.059196215,0.033487886,inf,inf,inf,inf,1,1,1,1,4,3,2,3,4,0,0,1
821593367,0,0.0,0.0,1.0176538,1.0204328,-0.07325256,1.1408086,0.91646695,-0.5153563,-2.9582508e-05,0.003070588,-0.0012699665,-0.001373579,0.0075655105,0.026621034,-0.08130991,-0.49270025,2.2500415,-0.0023192358,1.517157,0.050202265,0.0,0.101142414,0.03278645,0.01689223,0.059171844,0.033487886,inf,inf,inf,inf,1,1,1,1,4,3,2,3,4,0,0,1
821613353,0,0.0,0.0,1.0176579,1.020482,-0.07326702,1.1408086,0.91646695,-0.5153563,0.0071740774,-0.007233004,-0.0016380699,-0.0017242306,0.0075655105,0.026621034,-0.08130991,2.1472988,-1.4918174,-0.061932836,1.5203352,0.050202265,0.0,0.101156875,0.03278051,0.01689223,0.05914295,0.033487905,inf,inf,inf,inf,1,1,1,1,4,3,2,3,4,0,0,1
821633341,0,0.0,0.0,1.0176648,1.0204693,-0.073299184,1.1408086,0.91646695,-0.5153563,-0.0013636826,0.0015183821,-0.00023748812,-0.0003057788,0.0075655105,0.026621034,-0.08130991,-0.84908855,1.9617537,0.3992879,1.5180756,0.050202265,0.0,0.10118904,0.03277456,0.01689223,0.05911665,0.03348791,inf,inf,inf,inf,1,1,1,1,4,3,2,3,4,0,0,1
821653329,0,0.0,0.0,1.0176786,1.020497,-0.07330137,1.1408086,0.91646695,-0.5153563,0.0033065209,-0.012272998,-0.0007026735,-0.00075281726,0.0075655105,0.026621034,-0.08130991,1.0528786,-2.1600704,0.35502642,1.518505,0.050202265,0.0,0.10119122,0.032768596,0.01689223,0.05909062,0.03348792,inf,inf,inf,inf,1,1,1,1,4,3,2,3,4,0,0,1
821673313,0,0.0,0.0,1.0176871,1.020536,-0.07329804,1.1408086,0.91646695,-0.5153563,-0.0023337812,0.0002979134,-0.0027344539,-0.0027661633,0.0075655105,0.026621034,-0.08130991,-1.4301679,0.0444899,-0.3677981,1.5200459,0.050202265,0.0,0.10118789,0.032762658,0.01689223,0.059063155,0.03348792,inf,inf,inf,inf,1,1,1,1,4,3,2,3,4,0,0,1
821693301,0,0.0,0.0,1.017683,1.0205156,-0.07331876,1.1408086,0.91646695,-0.5153563,0.007850638,-0.0100473715,-0.0039066477,-0.003919646,0.0075655105,0.026621034,-0.08130991,0.83688635,-1.8607975,-0.18282337,1.5175575,0.050202265,0.0,0.10120861,0.033672396,0.01689223,0.05999982,0.03348793,inf,inf,inf,inf,1,1,1,1,4,3,2,3,4,0,0,1
821713287,0,0.0,0.0,1.0177269,1.020523,-0.073357336,1.1408086,0.91646695,-0.5153563,0.0030066473,0.0027775015,-0.0025046398,-0.0024987,0.0075655105,0.026621034,-0.08130991,-2.3057728,1.4929037,-0.3184096,1.5207254,0.050202265,0.0,0.10124719,0.032727327,0.01689223,0.058975928,0.033487942,inf,inf,inf,inf,1,1,1,1,4,3,2,3,4,0,0,1
821733273,0,0.0,0.0,1.017693,1.0205275,-0.07341445,1.1408086,0.91646695,-0.5153563,0.010350876,-0.0064213118,-0.004129527,-0.0041044946,0.0075655105,0.026621034,-0.08130991,1.2710786,0.3831151,0.045847792,1.5176122,0.050202265,0.0,0.10130431,0.03272226,0.01689223,0.05895326,0.033487946,inf,inf,inf,inf,1,1,1,1,4,3,2,3,4,0,0,1
821753260,0,0.0,0.0,1.0175824,1.0205427,-0.0734172,1.1408086,0.91646695,-0.5153563,0.002839039,0.0040062834,0.0059249527,0.005969064,0.0075655105,0.026621034,-0.08130991,2.316306,1.2618499,0.8255616,1.5204808,0.050202265,0.0,0.10130706,0.032717165,0.01689223,0.05893239,0.033487957,inf,inf,inf,inf,1,1,1,1,4,3,2,3,4,0,0,1
821773246,0,0.0,0.0,1.0177056,1.0205568,-0.07344227,1.1408086,0.91646695,-0.5153563,0.00050959864,-0.005403944,-0.012277399,-0.012214527,0.0075655105,0.026621034,-0.08130991,-1.3691683,-0.009873044,-0.55519503,1.5191875,0.050202265,0.0,0.10133213,0.03362396,0.01689223,0.05986506,0.033487957,inf,inf,inf,inf,1,1,1,1,4,3,2,3,4,0,0,1
821793233,0,0.0,0.0,1.0176827,1.020587,-0.073557705,1.1408086,0.91646695,-0.5153563,-0.005681186,-0.004106109,-0.0039494736,-0.0038681463,0.0075655105,0.026621034,-0.08130991,-1.576983,-0.80685794,0.22066134,1.5187167,0.050202265,0.0,0.10144756,0.03359322,0.01689223,0.059805762,0.033487964,inf,inf,inf,inf,1,1,1,1,4,3,2,3,4,0,0,1
821813219,0,0.0,0.0,1.0176125,1.0206329,-0.073478535,1.1408086,0.91646695,-0.5153563,0.007524642,0.00086628774,0.0042301947,0.0043296954,0.0075655105,0.026621034,-0.08130991,0.755137,-0.6100894,-0.34582955,1.5197333,0.050202265,0.0,0.10136839,0.033563524,0.01689223,0.059737157,0.033487972,inf,inf,inf,inf,1,1,1,1,4,3,2,3,4,0,0,1
821833208,0,0.0,0.0,1.0176733,1.0205971,-0.07351773,1.1408086,0.91646695,-0.5153563,0.0072837076,-0.0016393515,-0.006982346,-0.0068650213,0.0075655105,0.026621034,-0.08130991,0.71503884,0.6958044,0.101536624,1.5181946,0.050202265,0.0,0.10140759,0.033534802,0.01689223,0.059677426,0.033487983,inf,inf,inf,inf,1,1,1,1,4,3,2,3,4,0,0,1
821853192,0,0.0,0.0,1.0176944,1.020627,-0.07363483,1.1408086,0.91646695,-0.5153563,-0.0005622298,-0.00043554467,-0.0030058804,-0.0028711641,0.0075655105,0.026621034,-0.08130991,-0.24769437,0.4105932,0.84588176,1.5203133,0.050202265,0.0,0.10152469,0.033507094,0.01689223,0.059621975,0.033487994,inf,inf,inf,inf,1,1,1,1,4,3,2,3,4,0,0,1
821873179,0,0.0,0.0,1.0176181,1.020641,-0.073580556,1.1408086,0.91646695,-0.5153563,0.0020528946,-0.003272712,0.002852064,0.0030037551,0.0075655105,0.026621034,-0.08130991,0.8028294,-0.24338926,-0.005534676,1.5187114,0.050202265,0.0,0.10147041,0.033480383,0.01689223,0.059574228,0.033488,inf,inf,inf,inf,1,1,1,1,4,3,2,3,4,0,0,1
821893165,0,0.0,0.0,1.0176193,1.0206352,-0.073569275,1.1408086,0.91646695,-0.5153563,0.006574447,-0.0037307963,-0.0031809728,-0.0030123577,0.0075655105,0.026621034,-0.08130991,0.3786455,-0.19049549,-0.060002044,1.5192276,0.050202265,0.0,0.10145913,0.03345464,0.01689223,0.05952733,0.033488013,inf,inf,inf,inf,1,1,1,1,4,3,2,3,4,0,0,1
821913152,0,0.0,0.0,1.0177317,1.0206596,-0.0736081,1.1408086,0.91646695,-0.5153563,0.0031269465,0.002286286,-0.0047640833,-0.004578064,0.0075655105,0.026621034,-0.08130991,-1.5485742,-0.28608978,-0.2242652,1.5199038,0.050202265,0.0,0.101497956,0.033429876,0.01689223,0.059478868,0.033488058,inf,inf,inf,inf,1,1,1,1,4,3,2,3,4,0,0,1
821933138,0,0.0,0.0,1.0176505,1.0207164,-0.073613584,1.1408086,0.91646695,-0.5153563,-0.0045677973,-0.00021980221,0.00041102077,0.000614309,0.0075655105,0.026621034,-0.08130991,-0.27506456,-0.33225715,0.060063828,1.5186533,0.050202265,0.0,0.10150344,0.033405893,0.01689223,0.059430294,0.033488046,inf,inf,inf,inf,1,1,1,1,4,3,2,3,4,0,0,1
821953126,0,0.0,0.0,1.0175864,1.0207006,-0.073607475,1.1408086,0.91646695,-0.5153563,0.007730867,-0.0048050275,-0.0020816769,-0.0018612731,0.0075655105,0.026621034,-0.08130991,0.692305,-0.010035198,-0.07304953,1.5200499,0.050202265,0.0,0.10149733,0.03338302,0.01689223,0.059396047,0.03348804,inf,inf,inf,inf,1,1,1,1,4,3,2,3,4,0,0,1
821973111,0,0.0,0.0,1.0176767,1.0206763,-0.07361284,1.1408086,0.91646695,-0.5153563,0.00765866,0.001208124,-0.0017593032,-0.0015214016,0.0075655105,0.026621034,-0.08130991,0.2318427,0.85995436,-0.008139674,1.518944,0.050202265,0.0,0.101502694,0.033360966,0.01689223,0.05933578,0.033488054,inf,inf,inf,inf,1,1,1,1,4,3,2,3,4,0,0,1
821993098,0,0.0,0.0,1.0176653,1.0207689,-0.073614664,1.1408086,0.91646695,-0.5153563,-0.001800047,0.00022889645,-0.0025388054,-0.0022834607,0.0075655105,0.026621034,-0.08130991,-0.5229774,-0.42786482,-0.2289686,1.5197935,0.050202265,0.0,0.10150452,0.033339538,0.01689223,0.059315033,0.03348807,inf,inf,inf,inf,1,1,1,1,4,3,2,3,4,0,0,1
822013085,0,0.0,0.0,1.0175171,1.0208074,-0.07362491,1.1408086,0.91646695,-0.5153563,-0.00039109588,-0.0011801375,-0.00014616243,0.00012671007,0.0075655105,0.026621034,-0.08130991,0.5730986,0.0054249703,0.2312162,1.5192591,0.050202265,0.0,0.101514764,0.033319205,0.01689223,0.059286915,0.033488072,inf,inf,inf,inf,1,1,1,1,4,3,2,3,4,0,0,1
822033071,0,0.0,0.0,1.0175295,1.0207452,-0.07358181,1.1408086,0.91646695,-0.5153563,0.007874785,-0.0029033474,9.387231e-05,0.0003846924,0.0075655105,0.026621034,-0.08130991,0.2660538,0.63921636,-0.29022828,1.5190139,0.050202265,0.0,0.10147166,0.033299677,0.01689223,0.05923157,0.03348809,inf,inf,inf,inf,1,1,1,1,4,3,2,3,4,0,0,1
822053059,0,0.0,0.0,1.0176284,1.0207684,-0.073625036,1.1408086,0.91646695,-0.5153563,0.004059659,0.00049350987,-0.0062891296,-0.005980339,0.0075655105,0.026621034,-0.08130991,-0.6297169,-0.078405775,-0.15226449,1.5203177,0.050202265,0.0,0.10151489,0.033280727,0.016892232,0.059206747,0.033488095,inf,inf,inf,inf,1,1,1,1,4,3,2,3,4,0,0,1
822073045,0,0.0,0.0,1.017568,1.020841,-0.07367386,1.1408086,0.91646695,-0.5153563,-0.0073351627,0.0026261427,-0.0040113674,-0.0036846984,0.0075655105,0.026621034,-0.08130991,-1.3506997,0.08340162,-0.1605931,1.5187047,0.050202265,0.0,0.101563714,0.033262677,0.016892234,0.05917989,0.033488117,inf,inf,inf,inf,1,1,1,1,4,3,2,3,4,0,0,1
822093031,0,0.0,0.0,1.0174326,1.0208966,-0.07363295,1.1408086,0.91646695,-0.5153563,-0.002392697,-0.0039265933,0.0030806,0.00342504,0.0075655105,0.026621034,-0.08130991,-0.052089565,-0.70056474,0.08592243,1.5201799,0.050202265,0.0,0.1015228,0.03324541,0.016892236,0.059146773,0.033488125,inf,inf,inf,inf,1,1,1,1,4,3,2,3,4,0,0,1
822113017,0,0.0,0.0,1.0174934,1.0208625,-0.07354705,1.1408086,0.91646695,-0.5153563,0.009119782,-0.0014101397,-0.0027332993,-0.002371129,0.0075655105,0.026621034,-0.08130991,-0.40562633,0.41202065,-0.9328148,1.5191914,0.050202265,0.0,0.101436906,0.033228777,0.016892238,0.05911997,0.033488136,inf,inf,inf,inf,1,1,1,1,4,3,2,3,4,0,0,1
822133004,0,0.0,0.0,1.0175955,1.0208706,-0.073673986,1.1408086,0.91646695,-0.5153563,0.0023861104,-0.0014034552,-0.009416601,-0.009037056,0.0075655105,0.026621034,-0.08130991,-0.6029186,0.3038281,0.12143309,1.519607,0.050202265,0.0,0.10156384,0.03321288,0.01689224,0.059094325,0.033488143,inf,inf,inf,inf,1,1,1,1,4,3,2,3,4,0,0,1
822152991,0,0.0,0.0,1.017507,1.0209469,-0.0737436,1.1408086,0.91646695,-0.5153563,-0.0055333343,0.0033106988,0.0012120102,0.0016087099,0.0075655105,0.026621034,-0.08130991,-0.2528602,-0.10248393,0.7395215,1.5201304,0.050202265,0.0,0.10163345,0.033197664,0.016892241,0.059068665,0.033488154,inf,inf,inf,inf,1,1,1,1,4,3,2,3,4,0,0,1
822172977,0,0.0,0.0,1.0173503,1.0209869,-0.07358897,1.1408086,0.91646695,-0.5153563,-0.0011734812,-0.0009940166,0.00812836,0.008541955,0.0075655105,0.026621034,-0.08130991,0.439391,0.06887896,0.099553995,1.5192358,0.050202265,0.0,0.10147882,0.033183098,0.016892243,0.059048213,0.03348818,inf,inf,inf,inf,1,1,1,1,4,3,2,3,4,0,0,1
822192966,0,0.0,0.0,1.0174556,1.021001,-0.07348929,1.1408086,0.91646695,-0.5153563,0.012145047,-0.0020215968,-0.0047759977,-0.0043458715,0.0075655105,0.026621034,-0.08130991,0.16706043,-0.05984932,-0.94036853,1.5203724,0.050202265,0.0,0.10137915,0.033169154,0.016892245,0.059019435,0.033488184,inf,inf,inf,inf,1,1,1,1,4,3,2,3,4,0,0,1
822212950,0,0.0,0.0,1.0176344,1.0209606,-0.07368843,1.1408086,0.91646695,-0.5153563,0.009328418,-0.0008400092,-0.013672177,-0.013225941,0.0075655105,0.026621034,-0.08130991,-0.64342195,0.56974936,0.10157444,1.5191723,0.050202265,0.0,0.10157829,0.033155784,0.016892247,0.059008535,0.03348819,inf,inf,inf,inf,1,1,1,1,4,3,2,3,4,0,0,1
822232938,0,0.0,0.0,1.0176533,1.0210024,-0.07379951,1.1408086,0.91646695,-0.5153563,-0.0010566384,0.0006675011,0.00016798414,0.00063016097,0.0075655105,0.026621034,-0.08130991,-0.6538302,-0.31084076,0.6227591,1.5200589,0.050202265,0.0,0.10168937,0.03314314,0.016892247,0.05898546,0.033488195,inf,inf,inf,inf,1,1,1,1,4,3,2,3,4,0,0,1
822252925,0,0.0,0.0,1.0175469,1.0210465,-0.07370272,1.1408086,0.91646695,-0.5153563,-0.0005868146,0.0035652635,0.007854966,0.00833301,0.0075655105,0.026621034,-0.08130991,0.18007515,0.46273935,0.49495664,1.5197119,0.050202265,0.0,0.10159258,0.033131015,0.016892247,0.05895886,0.03348821,inf,inf,inf,inf,1,1,1,1,4,3,2,3,4,0,0,1
822272910,0,0.0,0.0,1.0175189,1.0211406,-0.07354427,1.1408086,0.91646695,-0.5153563,0.00550158,0.0037556668,0.0020145096,0.0025081583,0.0075655105,0.026621034,-0.08130991,0.3681589,-0.06933913,-0.60854715,1.5197815,0.050202265,0.0,0.10143413,0.03311929,0.016892249,0.058932494,0.03348822,inf,inf,inf,inf,1,1,1,1,4,3,2,3,4,0,0,1
822292898,0,0.0,0.0,1.01761,1.021226,-0.073553644,1.1408086,0.91646695,-0.5153563,0.008221404,0.0016731365,-0.0035378928,-0.0030293423,0.0075655105,0.026621034,-0.08130991,-0.07913384,-0.04141916,-0.04525594,1.520043,0.050202265,0.0,0.1014435,0.033108123,0.01689225,0.058942202,0.033488233,inf,inf,inf,inf,1,1,1,1,4,3,2,3,4,0,0,1
822312883,0,0.0,0.0,1.0176985,1.0211954,-0.07364467,1.1408086,0.91646695,-0.5153563,0.006331066,-0.005290868,-0.007030158,-0.006506872,0.0075655105,0.026621034,-0.08130991,-0.31955904,-0.08208505,-0.07657213,1.5191109,0.050202265,0.0,0.10153452,0.03309771,0.016892252,0.058919158,0.033488236,inf,inf,inf,inf,1,1,1,1,4,3,2,3,4,0,0,1
822332870,0,0.0,0.0,1.0177779,1.0211364,-0.07370269,1.1408086,0.91646695,-0.5153563,0.0077240267,-0.0027556499,-0.0020120493,-0.001473909,0.0075655105,0.026621034,-0.08130991,-0.09912877,0.3275383,0.15137705,1.5203749,0.050202265,0.0,0.10159255,0.033087593,0.016892254,0.05887793,0.03348827,inf,inf,inf,inf,1,1,1,1,4,3,2,3,4,0,0,1
822352858,0,0.0,0.0,1.0178429,1.0211673,-0.07373446,1.1408086,0.91646695,-0.5153563,0.0069358805,0.0027597875,-0.0058813673,-0.0053289784,0.0075655105,0.026621034,-0.08130991,0.4202021,-0.15687509,-0.4243277,1.5196624,0.050202265,0.0,0.10162432,0.033077694,0.016892258,0.05886734,0.033488262,inf,inf,inf,inf,1,1,1,1,4,3,2,3,4,0,0,1
822372844,0,0.0,0.0,1.0179183,1.0212373,-0.07382781,1.1408086,0.91646695,-0.5153563,0.0063555,0.00043065823,-0.0043519633,-0.0037861639,0.0075655105,0.026621034,-0.08130991,-0.045348432,-0.1499287,0.41872755,1.5200043,0.050202265,0.0,0.101717666,0.033068445,0.01689226,0.058886293,0.03348829,inf,inf,inf,inf,1,1,1,1,4,3,2,3,4,0,0,1
822392829,0,0.0,0.0,1.0178859,1.0212743,-0.07379311,1.1408086,0.91646695,-0.5153563,-0.0017840795,0.00094421615,0.004881398,0.005460605,0.0075655105,0.026621034,-0.08130991,-0.17762765,-0.008909479,0.49635407,1.5201405,0.050202265,0.0,0.10168297,0.033059936,0.016892262,0.058861483,0.033488277,inf,inf,inf,inf,1,1,1,1,4,3,2,3,4,0,0,1
822412817,0,0.0,0.0,1.0177475,1.0213194,-0.07360962,1.1408086,0.91646695,-0.5153563,-0.0041569537,0.0014247216,0.008040057,0.008633366,0.0075655105,0.026621034,-0.08130991,-0.18873318,0.37219673,-0.11113947,1.5196474,0.050202265,0.0,0.101499476,0.033051573,0.016892264,0.058827415,0.0334883,inf,inf,inf,inf,1,1,1,1,4,3,2,3,4,0,0,1
822432804,0,0.0,0.0,1.01774,1.0214114,-0.07343966,1.1408086,0.91646695,-0.5153563,0.0051737954,0.0043577338,0.0032988081,0.003906292,0.0075655105,0.026621034,-0.08130991,0.08148021,0.21338922,-0.5973979,1.5204105,0.050202265,0.0,0.10132951,0.03301921,0.016892266,0.058762025,0.033488303,inf,inf,inf,inf,1,1,1,1,4,3,2,3,4,0,0,1
822452790,0,0.0,0.0,1.0178517,1.0214846,-0.07345998,1.1408086,0.91646695,-0.5153563,0.01045607,0.0024503726,-0.008141299,-0.007520499,0.0075655105,0.026621034,-0.08130991,0.20876504,0.06799255,-0.4915946,1.5192871,0.050202265,0.0,0.10134984,0.032988176,0.016892267,0.058730192,0.033488307,inf,inf,inf,inf,1,1,1,1,4,3,2,3,4,0,0,1
822472776,0,0.0,0.0,1.0179828,1.0215243,-0.07359782,1.1408086,0.91646695,-0.5153563,0.0082577,-0.0030545895,-0.006076583,-0.0054430487,0.0075655105,0.026621034,-0.08130991,-0.076536074,-0.5082452,0.4826498,1.5203058,0.050202265,0.0,0.101487674,0.03295862,0.01689227,0.058688704,0.03348832,inf,inf,inf,inf,1,1,1,1,4,3,2,3,4,0,0,1
822492763,0,0.0,0.0,1.0180389,1.0214728,-0.07361081,1.1408086,0.91646695,-0.5153563,0.004444613,-0.0034553346,-0.0018227327,-0.0011769163,0.0075655105,0.026621034,-0.08130991,-0.013518604,0.02727304,-0.27939916,1.5197784,0.050202265,0.0,0.10150067,0.033861164,0.016892271,0.059599977,0.033488326,inf,inf,inf,inf,1,1,1,1,4,3,2,3,4,0,0,1
822512748,0,0.0,0.0,1.0180833,1.0214297,-0.07360712,1.1408086,0.91646695,-0.5153563,0.0077215713,-0.0037336587,-0.0031306269,-0.0024730165,0.0075655105,0.026621034,-0.08130991,0.32792744,-0.20902234,-0.16335738,1.5201117,0.050202265,0.0,0.10149697,0.033806253,0.016892275,0.059506666,0.033488333,inf,inf,inf,inf,1,1,1,1,4,3,2,3,4,0,0,1
822532735,0,0.0,0.0,1.0182006,1.0214138,-0.07369629,1.1408086,0.91646695,-0.5153563,0.009893743,0.0008013909,-0.00848577,-0.007816469,0.0075655105,0.026621034,-0.08130991,0.12397071,0.16620736,-0.15633406,1.5202533,0.050202265,0.0,0.10158615,0.033753756,0.016892277,0.05943137,0.03348834,inf,inf,inf,inf,1,1,1,1,4,3,2,3,4,0,0,1
822552722,0,0.0,0.0,1.0183746,1.0214316,-0.07389041,1.1408086,0.91646695,-0.5153563,0.01315818,0.00076475693,-0.014228676,-0.013547343,0.0075655105,0.026621034,-0.08130991,0.26188093,-0.03719389,-0.32594022,1.5198735,0.050202265,0.0,0.101780266,0.0337036,0.016892279,0.05933963,0.03348835,inf,inf,inf,inf,1,1,1,1,4,3,2,3,4,0,0,1
822572710,0,0.0,0.0,1.0186048,1.0214676,-0.074192226,1.1408086,0.91646695,-0.5153563,0.014867385,0.0009652583,-0.019057022,-0.018363776,0.0075655105,0.026621034,-0.08130991,-0.044188544,-0.15045433,-0.34550226,1.5208681,0.050202265,0.0,0.10208208,0.033655472,0.01689228,0.059250414,0.033488378,inf,inf,inf,inf,1,1,1,1,4,3,2,3,4,0,0,1
822592697,0,0.0,0.0,1.0187838,1.0214453,-0.07458826,1.1408086,0.91646695,-0.5153563,0.010149523,-0.004571805,-0.023586292,-0.02288263,0.0075655105,0.026621034,-0.08130991,-0.28661624,-0.119812876,-0.07541281,1.5222548,0.050202265,0.0,0.10247812,0.033609383,0.016892282,0.05918503,0.033488374,inf,inf,inf,inf,1,1,1,1,4,3,2,3,4,0,0,1
822612683,0,0.0,0.0,1.0189356,1.0212797,-0.07509068,1.1408086,0.91646695,-0.5153563,0.01155978,-0.013108183,-0.028596822,-0.027885845,0.0075655105,0.026621034,-0.08130991,-0.11147395,-0.12248,0.089730635,1.522774,0.050202265,0.0,0.10298053,0.033565488,0.016892286,0.059143618,0.033488378,inf,inf,inf,inf,1,1,1,1,4,3,2,3,4,0,0,1
822632668,0,0.0,0.0,1.0191268,1.0210581,-0.075725764,1.1408086,0.91646695,-0.5153563,0.012959916,-0.013680196,-0.038095992,-0.037381683,0.0075655105,0.026621034,-0.08130991,-0.16720274,-0.06978217,-0.29669032,1.5236017,0.050202265,0.0,0.10361562,0.033523917,0.01689229,0.059099466,0.03348839,inf,inf,inf,inf,1,1,1,1,4,3,2,3,4,0,0,1
822652656,0,0.0,0.0,1.0193719,1.0207886,-0.07646939,1.1408086,0.91646695,-0.5153563,0.017306553,-0.015584761,-0.037673436,-0.036962375,0.0075655105,0.026621034,-0.08130991,0.269838,-0.20542032,0.18156257,1.5247327,0.050202265,0.0,0.10435925,0.033484373,0.016892292,0.059029758,0.033488397,inf,inf,inf,inf,1,1,1,1,4,3,2,3,4,0,0,1
822672641,0,0.0,0.0,1.0196997,1.0204711,-0.07727509,1.1408086,0.91646695,-0.5153563,0.016989736,-0.018993484,-0.048636727,-0.047938295,0.0075655105,0.026621034,-0.08130991,-0.35446173,-0.6043131,-1.0362871,1.5271473,0.050202265,0.0,0.105164945,0.033446565,0.016892293,0.058978718,0.0334884,inf,inf,inf,inf,1,1,1,1,4,3,2,3,4,0,0,1
822692628,0,0.0,0.0,1.0200206,1.0200328,-0.07833762,1.1408086,0.91646695,-0.5153563,0.017631881,-0.027485872,-0.057281513,-0.0566069,0.0075655105,0.026621034,-0.08130991,-0.11258085,-0.5758876,-0.36280024,1.5290514,0.050202265,0.0,0.10622747,0.033410605,0.016892295,0.05894375,0.03348841,inf,inf,inf,inf,1,1,1,1,4,3,2,3,4,0,0,1
822712616,0,0.0,0.0,1.0202739,1.0193993,-0.07951869,1.1408086,0.91646695,-0.5153563,0.012099166,-0.037332322,-0.05900658,-0.058369122,0.0075655105,0.026621034,-0.08130991,-0.43284294,-0.21423249,-0.08742745,1.5319568,0.050202265,0.0,0.107408546,0.033376556,0.016892295,0.058912374,0.033488426,inf,inf,inf,inf,1,1,1,1,4,3,2,3,4,0,0,1
