timestamp,gyro_rad[0],gyro_rad[1],gyro_rad[2],gyro_integral_dt,accelerometer_timestamp_relative,accelerometer_m_s2[0],accelerometer_m_s2[1],accelerometer_m_s2[2],accelerometer_integral_dt,accelerometer_clipping
1550296342,-0.012530514,-0.0012905074,-0.009772803,4998,0,0.02025762,-0.023542363,-9.814122,4998,0
1550301338,-0.010987531,-0.0023632853,-0.01121435,4996,0,0.039401703,-0.054755613,-9.846814,4996,0
1550316332,-0.01265354,-0.0015129151,-0.011140396,4992,0,0.025034804,-0.061797407,-9.841891,4992,0
1550341314,-0.011111186,-0.002870646,-0.013579283,4995,0,0.016246598,-0.079009406,-9.829074,4995,0
1550361303,-0.007293202,-0.0019672632,-0.017512508,4997,0,0.0014641045,-0.08266602,-9.8647785,4997,0
1550376296,-0.002869001,-0.0020318232,0.014727423,4998,0,0.10115708,-0.029781453,-9.812009,4998,0
1550396283,-0.018402485,0.00097655645,-0.038275477,4997,0,-0.005128736,-0.34075546,-9.89084,4997,0
1550421269,-0.0095398035,-0.0020095285,-0.049765505,4996,0,0.0021951194,0.11895799,-9.762145,4996,0
1550441257,-0.017814957,-0.0037729205,0.03185088,4997,0,0.077248625,-0.027811984,-9.748882,4997,0
1550456250,-0.006172919,-0.0020348085,-0.051984776,4998,0,0.09134184,-0.11514497,-9.718611,4998,0
1550481234,-0.012341006,-0.0024657296,-0.013869114,4997,0,0.10771097,0.029482419,-9.915824,4997,0
1550501228,-0.005123268,-0.0061028176,0.0038101499,5000,0,0.039270174,-0.14150631,-9.878037,5000,0
1550516216,0.0026444225,-0.0068402262,-0.021890182,4999,0,-0.066670395,0.058696244,-10.044822,4999,0
1550536203,0.0102878325,-0.009545789,0.004573582,4997,0,0.056081865,0.11224169,-9.965528,4997,0
1550561189,-0.0109398635,-0.0078018713,-0.015847435,4996,0,-0.0013532406,-0.1677312,-9.828023,4996,0
1550581177,-0.008458769,-0.0058616847,-0.016452983,4997,0,0.15675108,0.054867897,-9.864271,4997,0
1550596170,0.000719536,-0.0009675878,-0.01183764,4998,0,-0.041887764,-0.1577247,-9.922476,4998,0
1550621154,-0.017746128,0.00052011607,-0.014446838,4997,0,0.20439997,-0.1595663,-9.792076,4997,0
1550641143,-0.014939578,-0.0018422796,0.0044893418,4996,0,-0.06840839,-0.020737091,-9.767922,4996,0
1550656136,-0.014960628,-0.004923201,-0.03144361,4999,0,0.0601092,-0.22554792,-9.800822,4999,0
1550676124,-0.009729604,0.002965302,-0.002054355,4997,0,0.16039932,-0.071127295,-9.771785,4997,0
1550701108,-0.0018187051,-0.0038138288,-0.0064998227,4995,0,0.027040139,-0.13406011,-9.813128,4995,0
1550721097,-0.008323934,0.0016373524,-0.016833002,4995,0,0.015548679,-0.0791356,-9.835092,4995,0
1550736089,-0.023401413,-0.0014125138,-0.0038962616,4997,0,-0.008950892,0.07908726,-9.866713,4997,0
1550761074,-0.012284415,0.0023653607,-0.0023310904,4995,0,0.30012357,-0.12488776,-9.835306,4995,0
1550781064,-0.024954025,0.009733835,-0.02896554,4998,0,0.33613548,0.40270197,-9.783967,4998,0
1550796056,-0.025002547,-0.027184187,-0.009422575,4996,0,0.53076845,-1.1287973,-9.667257,4996,0
1550821042,-0.002283409,-0.038156312,0.008191602,4997,0,1.3776366,0.5142979,-9.962056,4997,0
1550841029,-0.026947355,0.009421102,-0.036950406,4997,0,-0.5456044,0.6710847,-9.678964,4997,0
1550861018,0.011660436,-0.0008835782,0.001690211,4997,0,-0.23338442,-0.059007257,-9.786537,4997,0
1550876009,-0.009131303,0.0019885225,-0.041457757,4996,0,-0.88691884,0.25565425,-10.027542,4996,0
1550900994,0.0006104,-0.0041727033,-0.042540133,4997,0,0.48014915,-1.2435381,-9.863423,4997,0
1550920983,-0.005077736,-0.014479773,0.030302664,4996,0,1.2253923,-0.11089707,-9.758829,4996,0
1550935974,-0.010249286,0.0028412994,-0.032329347,4997,0,1.6447434,-0.4188115,-9.814339,4997,0
1550960960,-0.00989499,-0.021553054,-0.088096604,4997,0,0.83549273,0.3040296,-10.117407,4997,0
1550980948,-0.005856339,-0.013586276,0.04228803,4996,0,-1.1858457,-0.36868626,-9.848047,4996,0
1551000937,-0.013735512,-0.030878264,-0.02943713,4997,0,0.13890117,0.68976283,-9.906272,4997,0
1551015929,-0.016787412,-0.03204535,0.0039573675,4997,0,0.06198599,-0.9251569,-9.929265,4997,0
1551040916,0.004569441,-0.0011331661,0.113633126,4999,0,-0.15338103,0.2990225,-9.879335,4999,0
1551060903,-0.0063195936,0.025445903,-0.080960914,4997,0,-0.2045493,0.8480095,-9.466,4997,0
1551075894,-0.016745092,-0.012476893,0.10386481,4997,0,-0.456722,1.6483735,-9.755732,4997,0
1551100881,-0.024140345,0.0009452636,0.167488,4998,0,0.9564054,-0.15221769,-9.279469,4998,0
1551120869,-0.008922868,0.019523246,-0.22336158,4997,0,0.20258978,-1.6529257,-9.596012,4997,0
1551135860,0.01291479,0.01409072,0.21451525,4997,0,-0.40754616,-0.23921064,-9.688677,4997,0
1551155849,-0.006192013,0.0003560851,-0.20219512,4998,0,1.7699139,-0.5540071,-9.936666,4998,0
1551180836,-0.026150327,-0.017198905,-0.14086358,4999,0,0.79043037,0.39953563,-10.250212,4999,0
1551200824,-0.009644752,-0.010911411,0.19565575,4998,0,-1.1582776,-0.2381387,-9.856954,4998,0
1551215814,-0.05605061,0.005469611,-0.2030767,4995,0,0.08180864,-0.47358298,-9.718847,4995,0
1551240801,-0.029468752,0.013820645,0.17404991,4998,0,-0.9442627,1.4568126,-9.841627,4998,0
1551260789,0.011472444,0.016354064,-0.06710855,4997,0,0.43227565,-0.34967774,-9.831615,4997,0
1551280777,-0.005087874,0.0037005139,-0.10250537,4997,0,0.05204568,1.4162401,-9.656991,4997,0
1551300768,0.009972772,0.047060717,0.22819501,5000,0,0.6032044,-1.2605593,-9.948464,5000,0
1551320755,0.0017336925,-0.029207481,-0.2719286,4998,0,1.3987885,-0.14569367,-10.095745,4998,0
1551340746,-0.001987573,0.008095485,0.18888804,5000,0,-0.31068832,-1.2408906,-9.491471,5000,0
1551355734,-0.040302143,-0.0005272152,-0.23379906,4997,0,0.07316628,-0.89554244,-9.224819,4997,0
1551380720,-0.018195724,-0.00044490685,-0.15982166,4997,0,-1.1054085,-0.34857038,-9.816264,4997,0
1551400709,-0.0043019787,-0.028861623,0.19376977,4997,0,-0.19065893,0.35373682,-9.788896,4997,0
1551420700,-0.04536628,0.009478964,-0.22690822,5000,0,-0.95685786,0.69140416,-9.579285,5000,0
1551435691,-0.005301667,-0.039580107,0.19983914,5000,0,0.14980698,0.8045369,-10.178219,5000,0
1551460674,-0.020652233,0.011390091,0.05998851,4997,0,-0.44978547,1.1137496,-9.490579,4997,0
1551480663,0.0011055394,0.022832029,-0.18028568,4997,0,-0.3912098,-0.08518549,-9.728858,4997,0
1551495659,0.00351589,-0.0060750945,0.12152057,5002,0,-1.5281873,0.26559588,-9.915172,5002,0
1551520640,0.0034206535,0.012309104,-0.1010695,4997,0,-0.17214115,-1.2138846,-9.693248,4997,0
1551540630,-0.024533154,0.00089273363,-0.03850658,4998,0,1.6489416,0.50146186,-9.596876,4998,0
1551555620,0.01910873,-0.0065759453,0.014676476,4997,0,1.1905477,0.7160414,-9.934303,4997,0
1551575609,-0.040763106,0.03620094,-0.14706986,4997,0,-0.9519923,-0.32757166,-9.250956,4997,0
1551600594,-0.014271492,0.013000552,0.07210978,4996,0,-0.25394356,-1.5014943,-9.60738,4996,0
1551620583,-0.025797494,-0.042063333,0.029282892,4997,0,1.5986347,-0.8574327,-10.228375,4997,0
1551635575,0.010828162,-0.0008984975,0.012796399,4998,0,1.3659128,-0.6163403,-9.74113,4998,0
1551660560,-0.015277276,-0.024196636,0.16578148,4997,0,1.0896441,-0.011355339,-9.954449,4997,0
1551680549,-0.03678492,-0.010963655,-0.1355608,4997,0,-0.9159935,-0.72500473,-10.127789,4997,0
1551695540,-0.019750653,-0.0048283148,0.13240731,4997,0,0.8631055,-0.32972497,-9.386391,4997,0
1551715529,-0.014063598,-0.023880053,-0.032485265,4997,0,0.79832923,-2.1159158,-10.188613,4997,0
1551740514,-0.010197706,-0.02130146,-0.21551886,4997,0,-0.1512095,0.76602757,-10.125815,4997,0
1551760502,-0.014724861,-0.004682496,0.117596984,4997,0,-1.2337289,1.5737897,-9.7912035,4997,0
1551775494,-0.03455045,-0.025852405,-0.18677047,4995,0,0.77760863,0.29068607,-10.383956,4995,0
1551800480,-0.021313893,0.00881191,-0.15883839,4997,0,-0.7790292,1.18533,-9.625901,4997,0
1551820469,0.008065065,0.0044525852,0.19166918,4998,0,-1.0765036,0.17397434,-9.981439,4998,0
1551835460,-0.037330534,-0.0037493387,-0.22571932,4997,0,-1.5992498,-0.5766284,-9.91638,4997,0
1551855448,-0.014962975,-0.032874208,0.17960563,4996,0,-0.051466722,1.6233116,-9.92921,4996,0
1551880435,-0.016027775,0.024378337,0.088866465,4998,0,0.53620154,0.62446296,-9.461199,4998,0
1551900423,-0.0009472748,-0.00078794785,-0.195763,4998,0,-0.5352887,-0.47948438,-9.590796,4998,0
1551915414,-0.0053718025,0.02431437,0.13434516,4997,0,-1.9858881,0.12056292,-9.7751255,4997,0
1551940401,0.011434348,-0.0012273178,-0.11898225,4999,0,-0.22954623,-1.6445974,-9.618156,4999,0
1551960392,0.01945835,0.015620058,-0.008164381,5001,0,1.0823995,0.91716355,-9.624267,5001,0
1551975380,0.019344995,0.0049073533,-0.028630583,4997,0,0.8599026,0.6402653,-10.184926,4997,0
1552000366,0.019845217,-0.010994197,-0.18655562,4998,0,2.1997297,-0.16378286,-9.822661,4998,0
1552020355,-0.022047235,0.02724697,0.1572062,4998,0,-0.74485505,-1.7221315,-9.31328,4998,0
1552040344,0.0094296085,-0.01927294,-0.0367061,4998,0,2.2473946,-0.5392024,-10.172741,4998,0
1552055334,0.016084665,0.009967298,0.124890916,4997,0,0.2951014,0.39877632,-9.610646,4997,0
1552080320,0.010722297,-0.02095672,0.18009882,4998,0,1.5939884,-0.79249495,-9.978953,4998,0
1552100308,-0.0058286022,0.012655575,-0.19212133,4997,0,-0.49454898,-1.7526319,-9.56104,4997,0
1552115300,-0.0031899083,0.016723366,0.17722373,4997,0,-0.3128537,-0.1510209,-9.290915,4997,0
1552140286,-0.025741357,-0.0044896,0.0032684312,4997,0,-0.2726047,-2.022287,-9.685718,4997,0
1552160274,0.00090279663,-0.03456969,-0.12888663,4997,0,1.3055633,0.3232962,-10.006632,4997,0
1552180264,-0.032385767,0.0126713,0.17025258,4998,0,-0.003678038,-1.3052899,-9.649249,4998,0
1552195255,0.0021752026,0.013803859,-0.19819349,4997,0,0.5834485,-0.54772013,-9.408625,4997,0
1552220240,-0.049962144,0.0049681123,-0.003990146,4997,0,-0.78693223,-1.0377898,-9.341211,4997,0
1552240230,-0.02330384,-0.04000625,0.107997656,4998,0,1.7559367,-0.8500822,-10.26097,4998,0
1552255220,0.023638146,0.006411337,-0.051612593,4997,0,0.19310826,-0.3214474,-9.663238,4997,0
1552280206,-0.016915798,-0.030527422,0.19687471,4997,0,1.0078014,-0.6701135,-9.89415,4997,0
1552300194,-0.020668609,-0.0090443585,-0.11235929,4997,0,-0.3260296,-1.2818805,-10.016522,4997,0
1552320183,-0.02136557,-0.034161195,-0.05487338,4997,0,1.2080127,-0.23301451,-10.190289,4997,0
1552335174,0.023626676,-0.0067808256,-0.0037264263,4996,0,1.1428229,-1.268232,-9.643151,4996,0
1552360160,-0.037797555,-0.04350755,-0.21217997,4996,0,1.3426948,-0.24894056,-9.932108,4996,0
1552380149,-0.048539665,-0.007296299,0.12610087,4998,0,0.24130593,-1.0764554,-9.811663,4998,0
1552395140,0.0048155845,0.016868278,-0.18628675,4997,0,0.6868387,-0.47551772,-9.426991,4997,0
1552420127,-0.054304663,-0.013234231,-0.124648094,4998,0,-0.590383,-1.5040346,-9.279179,4998,0
1552440116,0.0024089725,-0.03607795,0.17981173,4999,0,1.1690805,-0.82018334,-10.165275,4999,0
1552460104,-0.037992846,0.0063991123,-0.22669196,4998,0,0.16188146,-1.6838944,-9.433435,4998,0
1552475094,0.02302997,0.020473495,0.21513118,4995,0,0.7452044,0.28403494,-9.642637,4995,0
1552500080,-0.020636193,-0.0075877723,-0.017485783,4997,0,-0.17982064,-1.3588436,-9.705484,4997,0
1552520069,-0.017413953,-0.019872496,-0.10556794,4997,0,1.5679221,-0.22564894,-9.809977,4997,0
1552540057,-0.02758108,-0.004538943,0.17414187,4997,0,0.08293123,-1.5107559,-9.760737,4997,0
1552560046,-0.013753697,-0.036249835,-0.20561567,4998,0,1.8923479,-0.9719078,-9.94548,4998,0
1552580034,0.0018987847,0.0019204953,0.11458439,4997,0,-0.08139293,-1.2232282,-9.509485,4997,0
1552600023,-0.018953819,-0.019724222,0.01646014,4997,0,2.218568,-0.7889354,-9.966515,4997,0
1552615014,0.042456154,0.015374722,0.06592369,4996,0,-0.39058012,0.4653736,-9.851273,4996,0
1552640001,0.0058445255,-0.021923319,0.23519862,4995,0,1.4225081,-0.9018986,-9.903131,4995,0
1552659989,-0.01476681,0.0064960257,-0.21676625,4997,0,-0.15656368,-1.7440892,-9.486367,4997,0
1552674983,-0.0026147512,0.038492512,0.21700908,5000,0,-0.4930017,0.6294825,-9.299729,5000,0
1552699967,0.011624113,-0.009216734,0.009381588,4998,0,0.023842758,-1.6467156,-9.599219,4998,0
1552719955,0.0043108193,0.004190704,-0.115789875,4998,0,1.5736445,-0.018660223,-9.664795,4998,0
1552739945,0.0116392365,0.007860543,0.20295185,4999,0,-0.09500363,-1.0955466,-9.413593,4999,0
1552759932,-0.013926012,-0.0029311767,-0.1953332,4998,0,2.2497802,-0.12273585,-9.71757,4998,0
1552779920,0.0145223,0.025839683,0.109244734,4997,0,-0.5604371,-1.5890834,-9.524254,4997,0
1552799909,0.02306401,-0.0035136316,0.039833184,4998,0,2.004442,-0.23763071,-9.645098,4998,0
1552814900,0.025224399,0.0104700625,0.06730408,4997,0,-1.1386638,1.4323688,-10.109902,4997,0
1552839886,0.03605393,0.0033233792,0.24894218,4996,0,1.4693168,0.7931267,-9.969377,4996,0
1552859875,-0.008171592,0.03504223,-0.2304611,4998,0,-1.0373161,-1.2186683,-9.376346,4998,0
1552879864,0.018700104,0.0066956948,0.1563661,4998,0,0.7704314,1.9944614,-9.810772,4998,0
1552899851,-0.0009710728,0.039904576,-0.009640493,4995,0,-1.3108631,-0.49903828,-9.424708,4995,0
1552919842,-0.015810803,0.012976488,-0.13324049,4999,0,0.76293206,2.0312927,-9.862085,4999,0
1552939829,0.0034412805,0.016522976,0.18996358,4998,0,-2.0437212,-0.30057502,-9.695135,4998,0
1552954820,-0.046730302,-0.0074996273,-0.23564182,4997,0,-1.7416707,-0.8237154,-9.850817,4997,0
1552979811,-0.0014306807,0.0051658624,0.1452533,5002,0,-1.7855442,0.3930043,-9.690335,5002,0
1552999795,-0.026225988,0.010181794,-0.0687762,4998,0,0.43230882,1.3929201,-10.197844,4998,0
1553019783,-0.011032937,0.00064977247,-0.1227855,4997,0,-2.372229,-0.031843178,-9.784629,4997,0
1553039773,-0.018063264,-0.020183265,0.20011975,4998,0,-0.09155198,1.5911311,-10.288385,4998,0
1553059762,-0.042116053,-0.017733417,-0.27264863,4999,0,-1.2243176,-0.09478081,-9.887597,4999,0
1553079750,-0.05379312,-0.039455056,0.18002687,4998,0,-0.09162567,1.2364477,-10.287839,4998,0
1553094741,-0.030933743,-0.009567181,-0.25239658,4997,0,2.196715,-0.45127755,-9.770271,4997,0
1553119726,-0.051043894,-0.016862167,-0.049941014,4997,0,-0.24136509,0.023447454,-9.6736,4997,0
1553139718,-0.035683576,-0.040903017,0.116744384,5001,0,0.58999795,-1.1488554,-10.009242,5001,0
1553159705,-0.04485139,-0.010476663,-0.25411156,4999,0,-0.14873868,-0.89611375,-9.774047,4999,0
1553179693,0.0019547888,-0.030128637,0.23810904,4995,0,1.1244377,-1.1083715,-10.129365,4995,0
1553199681,-0.031354498,-0.0051153866,-0.20352459,4997,0,0.17551969,-1.6280173,-9.361141,4997,0
1553219671,0.01277134,-0.025718616,0.09614448,4996,0,1.4697275,0.2562542,-9.789923,4996,0
1553234661,0.012415975,0.015755916,-0.15281408,4997,0,0.13700907,0.1346996,-9.939098,4997,0
1553259646,0.0070496546,0.0073756706,-0.13535033,4997,0,1.5810235,0.7603846,-10.020797,4997,0
1553279635,0.010530829,0.021579571,0.21101591,4998,0,-1.0548782,-0.89246166,-9.147036,4998,0
1553299628,0.016813358,0.01420967,-0.20433968,4998,0,1.7207066,1.2495698,-9.615313,4998,0
1553319612,0.0045336448,0.0448508,0.13834603,4993,0,-1.6756974,-0.072198704,-9.927271,4993,0
1553339602,-0.017995818,0.01888095,-0.11735535,4998,0,0.7379863,1.1958288,-9.998199,4998,0
1553359589,-0.21039952,0.033673447,-0.06794225,4997,0,0.19852836,-3.3553965,-10.312269,4997,0
1553374581,0.22662844,0.03420489,-0.044118054,4997,0,-0.74424756,-0.72582835,-9.067656,4997,0
1553399567,0.10832225,0.022164112,0.0672495,4998,0,0.13287584,0.7418182,-9.2742815,4998,0
1553419555,-0.0054682605,-0.026978115,0.035423435,4994,0,-0.13855451,2.2668211,-10.1376705,4994,0
1553439544,-0.23985332,-0.001181229,-0.08676807,4997,0,-0.14969538,-0.77531517,-11.572791,4997,0
1553459532,0.15756437,-0.006594922,0.044452384,4997,0,0.035107937,-0.16358738,-8.437584,4997,0
1553479525,-0.031606823,0.018355934,-0.10955023,5001,0,-0.73148394,1.3886662,-9.766987,5001,0
1553499511,-0.1390864,-0.039685074,0.12200816,4999,0,-0.20730942,-0.7764669,-11.6022005,4999,0
1553519498,0.09357948,-0.0070678075,-0.092491254,4997,0,0.3622194,-0.12129124,-8.896051,4997,0
1553539487,-0.00915551,0.042015593,0.08440904,4998,0,-0.5880223,1.6177604,-10.311728,4998,0
1553559475,-0.16350253,-0.0017161308,-0.075946644,4998,0,-0.773795,-1.387139,-9.766048,4998,0
1553579464,0.13818248,-0.027977478,0.08834955,4998,0,0.09059766,0.010225605,-9.096325,4998,0
1553599452,-0.07011992,-0.02621804,-0.08858154,4995,0,0.13092566,0.3204983,-10.570343,4995,0
1553619441,-0.04096572,0.0053993375,0.021116765,4998,0,-0.16847423,-0.94137657,-10.40868,4998,0
1553639429,0.06327484,0.018444441,-0.03217533,4997,0,4.296695e-06,0.9096049,-10.04731,4997,0
1553659418,-0.06868082,-0.052344497,0.009163486,4998,0,-0.67909986,-0.15870164,-8.843192,4998,0
1553679406,-0.004843945,-0.0061018476,-0.018763753,4997,0,0.55367875,-0.51843435,-10.069823,4997,0
1553699395,-0.092357874,0.02308775,-0.029320095,4997,0,-0.35849702,-0.70671433,-11.340793,4997,0
1553719384,0.048970822,0.03105727,0.01231759,4998,0,-0.18476573,-0.080173664,-10.22934,4998,0
1553739374,0.024718855,0.018715028,-0.033463474,5000,0,0.30170226,1.0198947,-8.337871,5000,0
1553759361,0.008240947,-0.03131898,0.022486346,4998,0,0.6377306,-0.39752045,-9.49332,4998,0
1553779349,-0.12037251,0.0035752056,-0.04942318,4997,0,-0.1524635,-1.1726438,-11.008384,4997,0
1553799338,-0.0016123621,-0.01868598,0.053919364,4997,0,-0.42657584,-1.2709191,-10.618731,4997,0
1553819327,0.059316654,0.008920597,-0.05752647,4998,0,0.29862124,0.72029626,-9.392953,4998,0
1553839316,0.017733749,-0.025346609,0.055333078,4998,0,0.41674685,0.11589362,-8.54364,4998,0
1553859304,-0.046058927,-0.016709981,-0.04615312,4998,0,0.7864471,0.7855141,-9.321477,4998,0
1553879292,-0.100892715,-0.028834308,0.068208754,4997,0,-0.27599084,-1.1614182,-10.78984,4997,0
1553899281,-0.084999084,0.028858276,-0.026619107,4998,0,-0.2543729,-0.2921662,-10.667481,4998,0
1553919269,-0.02366767,-0.012892858,0.057772823,4997,0,-0.27820686,-0.693939,-10.048904,4997,0
1553939259,-0.056988623,0.03167904,0.04511486,4999,0,0.53479886,0.7229175,-9.297928,4999,0
1553959246,-0.0793568,-0.04196294,0.06274249,4997,0,0.24955918,-0.17845455,-9.433122,4997,0
1553979235,-0.12365027,0.057795268,0.026910773,4997,0,0.05212089,-0.059421822,-9.8330765,4997,0
1553999225,-0.32440227,0.003137482,0.04402298,4999,0,0.3228626,-0.4429287,-10.173741,4999,0
1554019212,-0.29787055,-0.01657093,0.048909783,4997,0,-0.35522237,-0.07057041,-10.601353,4997,0
1554039202,-0.31670088,-0.016677618,0.011394045,4999,0,-0.36773995,-0.28022382,-10.336625,4999,0
1554059190,-0.3327975,-0.011109265,0.0021607091,4998,0,-0.29613948,-0.3339004,-10.514997,4998,0
1554079178,-0.17411622,-0.103715844,0.0053650453,4997,0,-0.22578837,0.61325157,-9.244389,4997,0
1554099168,-0.33147973,-0.21066907,-0.026894292,4999,0,-1.0486082,0.23439425,-9.565166,4999,0
1554119155,-0.28273124,-0.253663,-0.016463898,4996,0,-0.6569875,0.18255202,-10.089768,4996,0
1554139147,-0.023046633,-0.24728756,-0.042463325,5001,0,-0.3893069,0.73340696,-11.726552,5001,0
1554159136,-0.06909789,-0.18203059,-0.00935027,5001,0,-0.93254656,-0.15131237,-10.593646,5001,0
1554179121,-0.020523887,-0.1982642,-0.030087387,4997,0,-0.8661917,1.4079869,-10.346231,4997,0
1554199110,-0.015841067,-0.042996902,-0.0676878,4998,0,-0.80339026,0.114923105,-12.327404,4998,0
1554219098,-0.30140373,0.028890206,0.031581193,4997,0,-0.89584666,-0.008402482,-11.442943,4997,0
1554239087,-0.048818737,-0.1382619,-0.032290142,4996,0,-0.6529873,0.8261395,-10.948584,4996,0
1554259077,-0.106933214,-0.09933012,-0.018364524,4999,0,-1.5379379,0.055401426,-11.871537,4999,0
1554279064,-0.050883595,-0.15016648,-0.016562004,4997,0,-0.27676857,0.09845974,-10.246815,4997,0
1554299052,0.24733834,-0.304926,-0.0013311016,4997,0,-0.86285114,1.0659838,-11.261701,4997,0
1554319041,-0.2211552,-0.08593212,-0.0010513864,4997,0,0.30237588,-0.7269898,-12.039591,4997,0
1554339031,-0.13614868,-0.013835641,-0.009177238,4999,0,-1.780659,0.38053486,-11.40561,4999,0
1554359018,-0.3668707,0.10762905,0.047780667,4997,0,-0.39495286,0.090524495,-10.528967,4997,0
1554379008,0.03930471,-0.20663321,-0.04516801,4999,0,-0.6580183,0.5396461,-10.571723,4999,0
1554398995,0.35489255,-0.38685688,-0.005026001,4996,0,0.26621452,1.5444496,-11.138702,4996,0
1554418984,0.14904493,-0.27271834,-0.012913507,4997,0,-1.4532251,-1.053903,-10.7345495,4997,0
1554438975,-0.26191717,-0.14836112,0.025263412,5000,0,-0.17304082,1.0428997,-9.558758,5000,0
1554458961,-0.23721732,-0.051181495,-0.015500993,4998,0,-0.8604363,0.75802714,-10.257986,4998,0
1554478950,-0.10791802,-0.036339793,-0.040003244,4998,0,-0.95993733,-0.29575065,-10.448216,4998,0
1554498939,0.25744256,-0.18875206,-0.012773955,4998,0,0.06718486,1.1093343,-10.645462,4998,0
1554518929,0.26804838,-0.2335106,-0.05139241,4999,0,-0.29688996,0.47859603,-8.306761,4999,0
1554538917,0.09112045,-0.12347427,-0.0226411,4999,0,-0.91090333,0.20347892,-9.23907,4999,0
1554558904,-0.0054102163,-0.12953395,-0.025597498,4997,0,-0.034238547,0.7725063,-10.701847,4997,0
1554578894,-0.034961756,-0.08303767,-0.02262121,4999,0,-0.2852688,0.6908534,-8.053486,4999,0
1554598883,0.13431564,-0.07381501,-0.04947069,4999,0,-0.88311344,0.3985084,-10.333872,4999,0
1554618871,0.17312446,-0.14698403,-0.024397131,4998,0,-0.16177899,0.14685833,-10.255404,4998,0
1554638859,0.14407325,-0.15956695,-0.010196324,4998,0,-0.363527,1.0024725,-8.064662,4998,0
1554658847,0.049668744,0.0024500326,-0.018408446,4998,0,-0.55313396,-0.044518784,-12.1052065,4998,0
1554678836,-0.15690629,-0.08831765,-0.0050731692,4998,0,-0.1313677,0.79138184,-7.6306415,4998,0
1554698825,0.12463199,-0.016493237,-0.021826586,4997,0,-0.9236181,0.34550446,-11.804662,4997,0
1554718813,-0.036468793,-0.060528014,0.014039858,4998,0,0.33425573,0.044819344,-9.24373,4998,0
1554738803,0.18626307,-0.06583442,-0.07904328,4999,0,-1.6149186,0.39825004,-10.363257,4999,0
1554758791,-0.01598982,-0.048761554,0.029769363,4998,0,0.83706427,1.6848481,-9.582399,4998,0
1554778779,-0.022174666,0.06053015,-0.021059187,4998,0,-1.4141607,-1.3668367,-11.966535,4998,0
1554798768,0.059399292,-0.08618628,-0.01423281,4998,0,-0.37949225,1.4242117,-9.446576,4998,0
1554818759,-0.05362211,0.055360284,-0.015395347,4998,0,0.08465289,0.64637125,-11.444878,4998,0
1554838744,-0.0030161466,0.08222675,-0.007551821,4997,0,-1.6870233,-1.3337022,-10.882977,4997,0
1554858734,0.16041471,-0.05826507,0.01964215,4998,0,-0.2189516,0.8405935,-9.417125,4998,0
1554878724,0.03204825,0.0012846238,-0.031795047,5000,0,0.3605264,1.4936712,-13.520254,5000,0
1554898712,-0.15711181,0.1144767,0.018703323,4999,0,-1.7184618,-0.57489276,-9.586639,4999,0
1554918698,0.053623367,-0.012948372,0.0041900543,4997,0,-0.78198004,0.38836384,-8.022972,4997,0
1554938687,0.20002505,0.027496673,-0.0032594674,4997,0,0.4236546,1.0576551,-14.8343,4997,0
1554958682,-0.104565494,0.079924576,-0.02750397,5003,0,-1.688337,0.32197842,-8.139156,5003,0
1554978664,-0.028388975,-0.06935419,0.059380464,4997,0,-0.19777617,0.34647095,-9.184952,4997,0
1554998653,0.100597516,0.0703007,-0.01662514,4996,0,-0.6436945,-0.11077607,-13.002135,4996,0
1555018641,0.06828895,0.034720007,-0.02355229,4997,0,-0.9157742,1.4175159,-7.194625,4997,0
1555038630,0.0792898,0.059197377,0.046304896,4997,0,-0.7009844,-0.6340171,-11.773525,4997,0
1555058618,0.13293272,-0.11756887,-0.0037266952,4996,0,-0.47998512,1.5504478,-9.352399,4996,0
1555078606,-0.092519015,0.054207165,-0.010410643,4996,0,-1.0578318,-0.4911759,-9.962915,4996,0
1555098595,0.05721686,-0.09134921,0.04176677,4996,0,-0.0824302,2.0032754,-8.929441,4996,0
1555118584,-0.03170139,0.038667705,-0.0061759497,4997,0,-1.5143691,0.039592255,-8.77594,4997,0
1555138575,-0.03129822,-0.026794238,-0.008801209,4999,0,-0.49925527,0.65311474,-9.946919,4999,0
1555158561,0.032670014,-0.077297464,0.019580271,4997,0,-0.17563532,1.1974796,-8.302353,4997,0
1555178550,-0.043959416,0.02255141,0.013003073,4997,0,-0.63885844,0.22352444,-7.7192736,4997,0
1555198538,-0.012502208,0.05462018,-0.019323101,4996,0,-1.3537427,0.40938663,-9.626329,4996,0
1555218527,0.03895514,-0.032673303,0.0017037059,4996,0,-0.5681857,0.65295935,-10.135383,4996,0
1555238516,-0.06114404,-0.06397703,0.017267628,4997,0,-0.707261,1.0433778,-7.8222494,4997,0
1555258504,0.00013652195,-0.096533895,0.0009907115,4997,0,-0.73215526,1.4414366,-8.124863,4997,0
1555278494,-0.016579395,-0.052129265,-0.015364327,4996,0,-1.5998796,-0.017256925,-10.031638,4996,0
1555298481,-0.17806083,0.011732075,0.010705474,4997,0,-0.85364956,0.45414543,-8.865923,4997,0
1555318470,-0.05565744,-0.10353848,0.0068984074,4997,0,-0.6240572,1.9613467,-8.380602,4997,0
1555338459,-0.1260465,0.0135355545,-0.03935873,4996,0,-1.7234186,-0.32244435,-10.060189,4996,0
1555358447,-0.164951,-0.029216113,0.0556851,4997,0,-0.28633288,1.3629211,-8.96237,4997,0
1555378436,0.049139056,-0.06586295,-0.03479455,4996,0,-1.4583291,1.2166946,-8.6021595,4996,0
1555398426,-0.20187438,0.05987682,-0.013318359,4997,0,-1.110914,0.27467558,-10.592613,4997,0
1555418413,-0.12325191,-0.07845565,0.023872493,4997,0,-1.4733987,1.6483887,-8.2575245,4997,0
1555438403,-0.30595556,0.022568705,-0.010540889,4999,0,-0.74444145,1.1330911,-11.577908,4999,0
1555458390,-0.21891563,-0.07793104,-0.035124283,4997,0,-1.5826509,0.53853387,-8.141669,4997,0
1555478385,-0.0016614455,-0.012008471,0.010386353,5002,0,-0.25137633,1.6013095,-13.111535,5002,0
1555498368,-0.12763675,0.033560097,-0.008643819,4998,0,-1.8731536,0.5508833,-8.191433,4998,0
1555518356,-0.14374934,-0.0556627,-0.04539543,4997,0,-0.9999767,1.2724952,-8.403167,4997,0
1555538345,-0.16399297,-0.030922666,0.0028743243,4998,0,-0.76903474,0.605476,-14.293368,4998,0
1555558333,-0.32280588,-0.05277139,0.0017520846,4996,0,-2.122009,1.0068899,-9.55106,4996,0
1555578321,-0.3007551,-0.09365845,-0.019217297,4996,0,-0.6441226,2.208449,-8.011144,4996,0
1555598309,-0.20454815,-0.015138071,0.007868809,4996,0,-0.666562,0.2199578,-12.448408,4996,0
1555618298,-0.16513216,0.100694396,0.0032105385,4996,0,-2.559271,-0.8589632,-10.8238535,4996,0
1555638289,-0.13902342,-0.07258418,-0.07457555,4997,0,-1.849345,0.6324566,-8.675296,4997,0
1555658275,-0.18783452,-0.2900426,0.029658461,4996,0,-0.103815645,2.0614772,-11.669446,4996,0
1555678264,-0.28501764,-0.05978339,0.016378615,4997,0,-0.3999006,1.7998563,-11.3719225,4997,0
1555698256,-0.22748035,0.026990473,-0.019786743,5000,0,-2.7317119,0.03097954,-9.645582,5000,0
1555718242,-0.076610416,-0.17473085,-0.0033168644,4997,0,-0.9463157,0.606779,-9.158301,4997,0
1555738231,-0.09421679,-0.12516318,0.007263957,4996,0,-0.5011027,1.7518051,-11.792176,4996,0
1555758219,-0.40815735,0.0060366853,-0.009551132,4997,0,-1.6394409,0.526043,-9.165256,4997,0
1555778207,-0.27744678,-0.22050753,0.0028740803,4996,0,-0.6729784,0.67650557,-7.723599,4996,0
1555798195,-0.14160176,-0.07129005,-0.04324852,4996,0,-1.4893023,1.1323824,-12.361019,4996,0
1555818185,-0.2077061,-0.17556706,0.05158315,4997,0,-0.7152858,1.2702777,-5.940939,4997,0
1555838174,-0.06948959,-0.08643898,-0.04400852,4996,0,-1.7596117,0.45551428,-11.079178,4996,0
1555858162,-0.35562637,-0.20161174,0.007831142,4994,0,-0.23217101,1.4637446,-6.241198,4994,0
1555878150,-0.16570549,-0.19067653,-0.024355598,4997,0,-2.1170313,0.6669688,-9.868625,4997,0
1555898139,-0.32211596,-0.13042681,0.008677635,4997,0,-0.4866733,0.86122894,-7.560033,4997,0
1555918127,-0.0069149523,-0.2083342,-0.0073419088,4996,0,-1.0827987,2.0769048,-7.9978194,4996,0
1555938116,-0.23519945,-0.039196856,-0.035858355,4996,0,-1.6075442,-0.19758216,-8.894113,4996,0
1555958104,-0.18443793,-0.15520227,-0.009416267,4997,0,-0.5513463,1.985474,-8.410464,4997,0
1555978093,-0.17793806,-0.072302304,-0.00037113664,4995,0,-1.9758867,0.32893974,-7.2843547,4995,0
1555998081,-0.055935353,-0.09672687,-0.02323953,4995,0,-0.66748124,1.4745872,-10.25216,4995,0
1556018070,-0.06609925,-0.1962424,-0.04483446,4997,0,-1.4356134,1.1435043,-6.4670258,4997,0
1556038059,-0.06986205,-0.03826901,0.026124151,4996,0,-1.2286153,1.0380869,-11.047765,4996,0
1556058047,-0.18142015,-0.11684605,-0.019627335,4993,0,-1.9592493,0.62014633,-6.4542756,4993,0
1556078036,-0.06628091,-0.0822823,0.006911772,4994,0,0.026480326,2.1573696,-11.518618,4994,0
1556098026,-0.22479826,0.012341925,-0.040002465,4998,0,-2.6931696,-0.37653106,-8.7070055,4998,0
1556118015,0.04386141,-0.1506679,0.016961146,4999,0,-0.36794657,1.7861214,-8.881082,4999,0
1556138004,-0.039615147,0.021788888,-0.004247882,4998,0,-1.1943218,1.8920838,-11.299132,4998,0
1556157992,-0.25558648,0.060426947,-0.050117437,4999,0,-2.0827894,-0.19796161,-9.991266,4999,0
1556182978,-0.30489272,0.068553925,-0.021604827,4999,0,-2.474675,-0.41398454,-7.6368504,4999,0
1556197968,0.04055942,-0.14747263,-0.002208714,4997,0,-0.92192185,1.2534585,-9.60688,4997,0
1556217958,0.121821195,-0.1457187,-0.023359127,4999,0,-0.2860497,2.0116625,-11.254776,4999,0
1556242942,0.028433874,-0.16917042,-0.06011342,4997,0,-0.8302085,0.79562753,-10.717895,4997,0
1556257935,-0.007331114,-0.07060986,-0.024261639,4999,0,-0.37444085,2.7821014,-12.348999,4999,0
1556277927,0.03183103,-0.03537492,-0.02113953,4994,0,0.1449412,2.5129082,-13.066408,4994,0
1556302908,0.15598534,-0.14596403,-0.051856965,4998,0,-0.25087845,2.1018882,-9.95574,4998,0
1556322896,0.1570678,-0.19164382,-0.052874327,4997,0,0.18316185,1.9733076,-13.746354,4997,0
1556337890,-0.07024561,0.049641453,0.016597787,4999,0,-1.639717,2.386067,-10.465748,4999,0
1556357877,-0.051063463,0.010789567,-0.027374681,4996,0,-0.7700836,2.0407805,-13.935432,4996,0
1556382862,0.059253704,-0.12281343,0.00019369971,4997,0,0.37160888,2.5294592,-12.154455,4997,0
1556397855,-0.12015191,0.06187366,-0.0075766644,4998,0,-2.2312658,1.2617054,-11.706947,4998,0
1556417843,-0.15900463,0.06740353,0.01140481,4997,0,-3.4363325,0.9143467,-6.9937477,4997,0
1556437831,-0.16168511,-0.082070485,-0.022922348,4996,0,-2.6687038,0.37752497,-7.810537,4996,0
1556462818,-0.18673408,-0.0315341,0.024802625,4997,0,-2.9306884,0.6940575,-5.4921246,4997,0
1556477808,0.13934861,-0.20858975,0.023183145,4997,0,-0.33961552,2.2066941,-10.005413,4997,0
1556497796,0.08630489,-0.077396765,-0.024734765,4995,0,-1.3711041,2.0128686,-11.830647,4995,0
1556522782,-0.08674376,-0.034273036,-0.019350385,4996,0,-2.0007715,1.8708539,-9.137291,4996,0
1556537774,-0.07242332,-0.14129846,0.021761324,4997,0,-3.1876087,0.6250968,-5.628657,4997,0
1556557762,0.08176046,-0.23380725,0.020847635,4994,0,-0.6283634,2.759775,-8.975944,4994,0
1556577752,-0.1475788,-0.023005934,-0.00018434004,4998,0,-2.0533075,0.9449133,-9.24114,4998,0
1556602736,-0.11830345,0.034971047,-0.015205193,4996,0,-3.1725347,0.22454661,-8.132565,4996,0
1556617729,0.08658224,-0.21973482,0.044146646,4997,0,-1.1968948,2.9131622,-7.0772085,4997,0
1556642713,-0.1528287,-0.21673186,-0.04684078,4995,0,-0.7802936,2.5160944,-7.536862,4995,0
1556662702,-0.24708118,-0.00927783,0.04881855,4996,0,-1.4520357,1.31561,-8.44845,4996,0
1556677695,0.050526544,-0.09274856,-0.013269783,4997,0,-2.5117438,2.0504858,-7.883676,4997,0
1556697682,0.059934538,-0.21550173,-0.035686456,4996,0,-0.52162534,2.6510463,-8.569009,4996,0
1556717671,-0.011665523,-0.1286695,-0.039209038,4994,0,-0.9184823,2.8655524,-8.83726,4994,0
1556737660,-0.025051696,-0.12522252,-0.009458756,4997,0,-0.9078315,1.3883277,-11.588914,4997,0
1556757648,-0.16483288,-0.016853945,-0.00551459,4996,0,-2.294542,1.7170534,-8.404133,4996,0
1556777637,-0.12866345,-0.04062992,-0.03616849,4998,0,-1.7819486,0.913076,-11.753854,4998,0
1556802622,0.021672249,-0.23522854,-0.03649165,4997,0,-0.10503635,2.4830976,-11.407905,4997,0
1556817614,-0.10585058,-0.053304035,-0.004096121,4993,0,-0.630427,2.6085706,-8.181755,4993,0
1556837602,0.08338903,-0.1912508,-0.019491648,4995,0,-1.4229596,2.7483437,-10.130012,4995,0
1556857592,0.035617594,-0.1507568,-0.04665552,4995,0,-1.8675351,1.2249823,-11.923028,4995,0
1556882577,-0.021446189,-0.10691848,-0.013610917,4997,0,-0.6350542,1.9513795,-13.488342,4997,0
1556897569,-0.13084896,-0.05291621,0.00063883915,4994,0,-0.16999869,1.6154238,-10.961286,4994,0
1556917557,-0.15470709,-0.073251635,-0.07597798,4996,0,-1.7148429,1.1679546,-7.1508656,4996,0
1556942542,-0.03608066,-0.038127605,0.023841226,4997,0,-0.4117646,1.9585705,-12.851906,4997,0
1556957534,0.03237528,0.010439158,-0.0087557845,4997,0,-1.4851792,2.2760513,-9.682057,4997,0
1556977523,0.04743478,-0.106884085,-0.08817109,4997,0,-1.3689971,1.6432317,-7.582775,4997,0
1556997512,-0.028629556,0.0441476,-0.04033754,4998,0,-3.7223883,1.7605505,-9.278711,4998,0
1557017500,0.0674105,-0.019611374,-0.015122568,4995,0,-1.313009,2.9952056,-12.594457,4995,0
1557037489,-0.01815123,-0.19549589,-0.026759617,4993,0,-1.5403174,1.5315502,-10.453297,4993,0
1557057479,-0.12816495,-0.06933002,-0.025551109,5000,0,-2.835726,1.2062337,-10.397043,5000,0
1557082463,0.11399749,-0.08162536,0.012753132,4998,0,-0.50942755,2.1317916,-12.406068,4998,0
1557097454,0.049004678,0.03138464,-0.029242795,4997,0,-1.307666,2.4091454,-8.901843,4997,0
1557117443,0.071582206,-0.1532204,-0.034976278,4998,0,-1.3020316,2.4510922,-8.519888,4998,0
1557137431,-0.0025732073,-0.2621338,0.021900509,4995,0,-0.39961275,1.7818689,-9.547396,4995,0
1557157420,-0.084825486,-0.15726592,0.019068152,4996,0,-1.6676967,1.0968046,-4.9047337,4996,0
1557177409,-0.0084714135,-0.18193054,-0.055876087,4992,0,-2.209063,1.6375481,-6.2292385,4992,0
1557197397,0.005105433,-0.18269539,0.064705834,4994,0,-1.5216254,1.6085217,-6.1245627,4994,0
1557222383,-0.15835951,-0.027948726,-0.038639437,4997,0,-3.8355312,1.2322123,-3.5614443,4997,0
1557237375,0.07281482,-0.22181332,-0.014852646,4992,0,-0.3743066,2.6554832,-8.805044,4992,0
1557257363,0.06256978,-0.13961685,-0.0040938575,4997,0,-0.745327,3.1833818,-7.8611283,4997,0
1557282348,0.055361986,-0.20913301,0.013338229,4996,0,-1.3157728,2.014225,-8.141635,4996,0
1557297340,0.03508747,-0.05276361,-0.05842333,4996,0,-1.1800882,3.403953,-10.01795,4996,0
1557317328,0.016807562,-0.037587356,-0.009931132,4995,0,-0.8891321,3.1763358,-12.106481,4995,0
1557337318,0.044566043,-0.028828707,-0.004804753,4998,0,-0.74022925,3.7109816,-9.072879,4998,0
1557362303,0.025304899,-0.16674265,-0.057113424,4998,0,-2.0110857,1.7731016,-6.338565,4998,0
1557377294,0.087731674,-0.18571657,-0.026762096,4996,0,-0.07010332,2.8115177,-11.358415,4996,0
1557397283,0.010845401,-0.090633646,0.021999627,4996,0,-1.6667001,1.6509353,-6.4379025,4996,0
1557417271,-0.07338034,-0.0034129156,-0.100790165,4991,0,-3.087013,0.47250232,-5.970156,4991,0
1557437261,-0.17372286,0.1300076,0.008102604,4992,0,-3.8820946,1.7104098,-8.609281,4992,0
1557457249,0.12462986,-0.034324344,-0.016335538,4996,0,-0.7549636,4.49156,-12.368573,4996,0
1557477237,0.12847817,-0.07755627,-0.060859602,4994,0,-3.295525,1.2916744,-10.415482,4994,0
1557502223,0.0777992,-0.02635274,-0.019825324,4998,0,-0.7190098,3.8132195,-9.793288,4998,0
1557517214,0.21621142,-0.03876918,-0.028022982,4997,0,-1.8247068,3.6409912,-11.350284,4997,0
1557537204,-0.13213022,0.16755123,-0.0871385,4997,0,-3.1353006,0.32355338,-8.846592,4997,0
1557562189,-0.1682616,0.052508593,0.046160497,4997,0,-3.1073425,0.104891874,-11.182216,4997,0
1557577180,-0.2918064,0.12079459,-0.044203743,4994,0,-2.2119865,-0.30435583,-8.978071,4994,0
1557597169,-0.018529532,-0.07805772,-0.05241159,4996,0,-0.8854855,2.7940843,-12.993199,4996,0
1557622156,0.17552947,0.031627715,-0.015602247,4999,0,-1.9653075,3.9377224,-10.9420805,4999,0
1557642143,-0.18419786,0.09337548,-0.057073236,4997,0,-2.1087615,0.55601513,-8.892248,4997,0
1557657134,-0.1175528,0.0031068628,-0.03771351,4994,0,-1.5367761,1.9075247,-8.4411545,4994,0
1557677123,-0.06391173,0.035070274,0.03184519,4997,0,-2.4909558,1.0005268,-9.46325,4997,0
1557702111,0.09860351,-0.029564371,-0.0653948,4999,0,-2.9517796,2.4151292,-13.0422125,4999,0
1557717100,-0.009424584,0.044706956,0.013394107,4994,0,-2.6934829,1.8261079,-12.803195,4994,0
1557737090,-0.050203927,-0.09043684,0.06375133,4993,0,-1.4010797,1.4580568,-10.468586,4993,0
1557757078,-0.19300398,0.06916171,-0.009102593,4997,0,-2.9222605,2.0096114,-11.308554,4997,0
1557782065,-0.025105687,-0.073382005,0.0065514133,4999,0,-3.0110092,0.8827973,-6.616492,4999,0
1557797055,-0.039099857,-0.099607885,0.07637163,4996,0,-2.715948,0.31678668,-8.238754,4996,0
1557817044,-0.26330826,0.14242737,-0.029939057,4996,0,-3.1874347,0.47020224,-6.9760623,4996,0
1557842029,0.12739365,-0.19862281,-0.0048933383,4997,0,-0.9554022,2.7059965,-9.662533,4997,0
1557857020,0.041354764,-0.13002671,0.031184416,4996,0,-0.8768429,4.33156,-6.860998,4996,0
1557877009,0.14682722,-0.18953735,0.0013999408,4996,0,-2.2790651,3.2215805,-7.368472,4996,0
1557896998,0.10372736,-0.19660626,-0.019918354,4995,0,-2.9797091,1.7838855,-8.588599,4995,0
1557921989,-0.061986078,0.039717034,0.03667972,5003,0,-2.3035252,1.2625715,-9.23748,5003,0
1557936975,-0.020097341,0.08518585,-0.019354109,4995,0,-3.8712683,1.4009678,-6.991888,4995,0
1557956963,-0.011462733,-0.0077011306,-0.014593471,4994,0,-2.1605935,2.6151102,-11.8035,4994,0
1557981957,-0.029573053,-0.1623591,0.05918302,5005,0,-2.310898,1.218855,-7.4252396,5005,0
1557996940,0.009939859,-0.12783203,-0.014124555,4997,0,-1.5713516,2.0213964,-5.630399,4997,0
1558016929,-0.03738173,-0.0092827305,-0.03502165,4995,0,-3.8055804,0.2537357,-4.3005104,4995,0
1558036919,-0.123527154,0.17448272,0.047401212,4997,0,-4.1230354,1.24769,-6.240389,4997,0
1558061906,0.06975965,-0.08158318,-0.081163414,5000,0,-2.342247,2.689884,-6.5597734,5000,0
1558076895,0.12155284,-0.105013326,0.02080219,4997,0,-3.1141822,3.6404932,-9.833583,4997,0
1558096883,-0.022557413,0.10710368,-0.009552469,4997,0,-3.3061855,2.2194288,-10.651995,4997,0
1558121871,0.024691427,0.05055071,-0.024606556,4999,0,-3.666598,1.8975136,-7.6002607,4999,0
1558136862,0.08229859,0.1115866,-0.017236581,4998,0,-4.1108027,3.1704452,-10.885727,4998,0
1558156851,0.10126785,0.0007268238,-0.023518573,4997,0,-1.6387848,2.17376,-8.460005,4997,0
1558176839,-0.16216372,0.13035044,-0.0134375645,4993,0,-1.8208771,1.6862273,-9.682248,4993,0
1558201824,-0.05954572,0.08962315,-0.037941672,4998,0,-2.866288,3.6377928,-11.5509405,4998,0
1558216816,0.1874766,-0.035162523,0.021470847,4998,0,-1.7494587,4.187104,-12.891749,4998,0
1558236804,-0.08927181,0.09650218,-0.054583266,4998,0,-2.094071,1.2857293,-8.484539,4998,0
1558261789,-0.03978803,0.013442142,-0.0017967531,4997,0,-2.2491858,3.4075298,-10.746854,4997,0
1558276781,0.03438201,0.019130198,-0.022334404,4996,0,-3.618407,2.9028673,-12.072616,4996,0
1558296769,-0.0014688998,-0.009910553,-0.032736465,4996,0,-1.1860573,0.9549041,-8.9994,4996,0
1558316758,0.037857436,-0.0330801,-0.064884625,4997,0,-1.7598282,3.1102324,-13.524872,4997,0
1558341747,0.10015149,-0.069862165,0.014175961,5000,0,-0.88783854,2.5599833,-10.667326,5000,0
1558356736,-0.077147275,-0.049755484,-0.015595494,4998,0,-2.8347049,0.10730231,-8.877205,4998,0
1558376724,-0.11127382,-0.16843684,-0.054649882,4998,0,-0.67411053,3.33479,-12.042986,4998,0
1558401712,0.09185841,-0.07262521,0.03804673,5000,0,-1.3874322,3.6314924,-8.322612,5000,0
1558416701,0.28837615,-0.09720874,-0.05528673,4997,0,-2.9954004,3.9463763,-10.482842,4997,0
1558436691,0.04053117,0.02726538,-0.02693264,4997,0,-3.0905013,2.1113465,-8.017878,4997,0
1558456679,-0.057687588,-0.06561893,0.010683015,4998,0,-2.8837557,1.5561138,-5.1097,4998,0
1558481664,-0.061766624,-0.1960473,0.0021040996,4994,0,-0.8971986,1.0587075,-7.659247,4994,0
1558496655,0.07477926,-0.18712671,-0.03668107,4997,0,-1.7194415,1.8327532,-5.771176,4997,0
1558516644,-0.13952923,0.011235746,0.009553821,4998,0,-4.3753133,0.18145849,-4.4020786,4998,0
1558541635,0.18185644,-0.17278598,-0.033399966,5001,0,-1.8564887,3.3149207,-6.1904593,5001,0
1558556621,0.15079899,-0.17591204,-0.05572974,4996,0,-2.1245353,3.871462,-7.50274,4996,0
1558576611,0.07454427,-0.07571435,0.064376146,4997,0,-3.4141593,2.433235,-8.42291,4997,0
1558596598,-0.024494868,0.021759275,-0.036104284,4997,0,-2.7686791,2.2224338,-10.546814,4997,0
1558621586,0.04776811,-0.29009947,0.033358824,4999,0,-1.5686005,1.9168105,-8.3394375,4999,0
1558636575,0.091383785,-0.17896464,0.001633431,4997,0,-0.9784427,3.1233325,-5.87803,4997,0
1558656564,0.15375409,-0.18751672,-0.022412522,4997,0,-2.1525018,2.4745564,-6.070019,4997,0
1558681551,-0.17051609,0.09439615,-0.032238103,4998,0,-2.415924,2.3297696,-6.369653,4998,0
1558696541,-0.17182715,0.08906144,0.026111552,4997,0,-2.789027,1.1511625,-9.551672,4997,0
1558716530,-0.0066594807,-0.105220675,0.03535822,4997,0,-0.6882884,3.3546221,-9.8038645,4997,0
1558736518,0.034286134,-0.1253024,-0.086214565,4996,0,-2.0667045,2.0007215,-9.543657,4996,0
1558761504,0.041455634,-0.1060743,0.057760376,4997,0,-1.4653618,2.633427,-9.494786,4997,0
1558776497,-0.15901108,-0.05263515,-0.014391849,4999,0,-1.902157,0.88383156,-9.1899,4999,0
1558796486,0.027677933,0.07962259,-0.05906438,4999,0,-2.7636528,3.9307003,-13.260034,4999,0
1558821469,-0.044061106,0.105217494,-0.027040856,4997,0,-1.2159091,2.6530082,-9.559452,4997,0
1558836461,0.19048962,-0.011402797,-0.029192345,4997,0,-1.1580664,3.2357206,-10.460614,4997,0
1558856450,-0.26457217,0.048911426,0.0039899494,4997,0,-1.1564312,1.5695044,-10.722254,4997,0
1558881436,-0.12628543,0.026381042,-0.04209025,4997,0,-0.17531201,2.2917705,-9.897282,4997,0
1558896428,0.025128618,0.032787256,0.020492198,4998,0,-1.6198146,1.4197999,-11.964702,4998,0
1558916416,0.00090944517,-0.067561306,-0.07895972,4996,0,-2.3089359,3.1939244,-12.322294,4996,0
1558936406,-0.042585712,0.009933516,-0.018204244,4998,0,-0.93280554,1.5881159,-9.544292,4998,0
1558961392,0.034488034,0.012747124,-0.03168594,4997,0,-2.9959114,2.726009,-10.577138,4997,0
1558976386,0.09707958,0.08724427,-0.07650646,4999,0,-2.3578057,3.4618764,-12.260426,4999,0
1558996369,-0.2570143,0.033276595,-0.016713372,4996,0,-2.7866728,0.615767,-11.354255,4996,0
1559021364,-0.006612687,0.08539398,-0.009114935,5006,0,-1.9534054,2.9828959,-10.360658,5006,0
1559036349,0.15575118,-0.06246408,-0.05032238,4998,0,-1.602901,2.5185754,-10.238193,4998,0
1559056335,-0.12631498,-0.019716218,-0.017186016,4997,0,-1.2972026,3.321823,-11.7692585,4997,0
1559076324,-0.03419761,0.09061091,0.02946079,4997,0,-4.2895055,1.4936837,-8.9999695,4997,0
1559101311,-0.31177324,0.028864743,-0.051277343,4998,0,-2.901414,-0.37104663,-8.276409,4998,0
1559116301,-0.29818368,-0.02877003,0.038653366,4997,0,-1.6143752,1.0883521,-7.449383,4997,0
1559136291,0.079498,-0.15472734,0.012290006,4998,0,-2.4562893,2.2157931,-10.024037,4998,0
1559161280,0.06999101,-0.21893196,0.0064249113,5000,0,-1.519309,3.8743715,-10.075271,5000,0
1559176267,-0.08015555,-0.19267325,0.04888094,4995,0,-1.6597884,2.365432,-7.8060546,4995,0
1559196256,-0.1115609,0.046888314,-0.03934356,4997,0,-2.976528,1.7511442,-7.3013597,4997,0
1559216245,0.02098895,-0.04933534,-0.0035737625,4998,0,-1.3835679,3.0100572,-7.6006255,4998,0
1559241235,-0.18815345,-0.024767993,-0.0153226005,5002,0,-3.9803486,0.15600148,-3.0557587,5002,0
1559256224,0.05357954,-0.16474727,0.0018514454,4996,0,-3.7669446,1.5477904,-5.428431,4996,0
1559281207,-0.057712026,0.011195762,0.012056586,4997,0,-1.8144506,3.4671073,-8.465002,4997,0
1559301199,0.055365544,-0.12851411,0.019771596,5000,0,-0.4922711,4.240014,-9.528754,5000,0
1559321184,0.07513294,-0.15949096,-0.016421748,4997,0,-1.6408151,3.73017,-6.490864,4997,0
1559336176,0.060794443,-0.095043235,-0.0056490423,4997,0,-1.7713146,3.6140933,-5.7935543,4997,0
1559356164,0.15504262,-0.108985804,0.036141682,4995,0,-3.1245604,3.0541828,-8.616632,4995,0
1559381150,0.0695612,-0.030209426,-0.039139997,4997,0,-1.3826712,3.0490801,-8.109506,4997,0
1559401139,0.0497007,-0.048265796,0.0720219,4997,0,-3.5283375,2.29484,-7.651205,4997,0
1559416131,-0.15157308,0.010700271,-0.0154785095,4998,0,-3.7281017,1.218991,-9.421994,4998,0
1559441118,0.09117875,-0.013115579,-0.013847884,4999,0,-3.1061323,1.8580579,-7.152664,4999,0
1559461104,0.011484793,0.118514545,0.0019331999,4996,0,-1.8269352,3.5830932,-9.034674,4996,0
1559476096,0.20136932,0.011637185,-0.0942626,4997,0,-1.4082372,4.511717,-10.799073,4997,0
1559496085,-0.23097122,0.11436164,0.05990904,4996,0,-2.6906495,-0.3043904,-7.9337306,4996,0
1559521070,-0.102490775,0.15900756,-0.065564916,4997,0,-3.172982,2.5057898,-9.700103,4997,0
1559541061,0.04441803,0.061386976,-0.011245574,4995,0,-2.7774768,1.1512791,-10.938864,4995,0
1559556052,-0.13079418,0.12229245,0.05470586,4997,0,-2.142793,0.67091566,-9.344277,4997,0
1559581039,-0.025770564,0.023812592,-0.09671999,5000,0,-1.6790682,2.5824912,-9.604016,5000,0
1559601025,-0.13695493,0.026394885,0.077018045,4997,0,-1.670227,1.8826559,-11.388032,4997,0
1559616017,-0.072229974,-0.03540842,-0.037029278,4998,0,-2.9978006,2.77693,-12.640854,4998,0
1559641003,-0.07101529,0.052147035,0.0038257176,4998,0,-2.7319212,2.388875,-14.112927,4998,0
1559660990,0.05252709,0.16900714,-0.014325784,4997,0,-3.4823723,2.6576679,-11.606266,4997,0
1559680979,-0.24052176,0.007166719,-0.027048072,4998,0,-3.2640407,0.3483135,-11.172551,4998,0
1559695970,-0.043363255,0.004484588,0.0018167475,4996,0,-2.3828855,3.7477777,-13.280828,4996,0
1559720956,-0.005628081,-0.15228756,-0.025255024,4997,0,-1.6793323,1.690423,-12.215601,4997,0
1559740947,0.15612148,-0.033261504,-0.008766373,4998,0,-2.0023873,4.923998,-11.621254,4998,0
1559755936,0.23136346,-0.03895824,-0.025493732,4997,0,-3.808268,3.1021953,-10.600745,4997,0
1559775925,-0.06943593,-0.092455685,-0.018821253,4997,0,-1.1284373,2.8720512,-8.838867,4997,0
1559800910,0.055530854,-0.08324677,-4.4297783e-05,4996,0,-2.6350632,4.2656975,-9.591131,4996,0
1559820902,0.035489243,0.06980259,0.0044024526,5001,0,-3.6185758,2.5149415,-7.935228,5001,0
1559835892,0.0776859,-0.027876832,-0.03844324,4998,0,-2.4865773,3.44514,-10.391868,4998,0
1559860876,0.02462507,0.040256277,0.040625785,4997,0,-3.1795096,2.7125988,-6.5075603,4997,0
1559880864,0.1942782,-0.19780748,-0.04961737,4995,0,-1.8573575,3.4615037,-6.6672363,4995,0
1559895856,0.13840629,-0.21879864,-0.0166684,4995,0,-1.3291805,4.173075,-10.523642,4995,0
1559920842,-0.16834554,0.05024306,0.0713663,4997,0,-4.3784575,0.29108575,-7.125896,4997,0
1559940831,-0.19036762,0.021764942,-0.055137362,4996,0,-1.6077667,1.6641256,-7.2732296,4996,0
1559960819,-0.09128664,-0.08984045,0.054741424,4997,0,-1.5201669,3.0241773,-4.4996758,4997,0
1559975810,0.030073944,-0.07809314,0.019812774,4996,0,-1.6535627,1.4551802,-8.780996,4996,0
1560000798,-0.03442146,-0.2261603,0.017881842,4999,0,-2.4368956,1.4653177,-5.6108437,4999,0
1560020785,-0.20315427,0.0030014296,0.022285562,4997,0,-4.05268,0.4502828,-2.8328617,4997,0
1560035778,0.042906042,-0.13729581,-0.039633818,4998,0,-3.8599281,1.1441275,-6.2690263,4998,0
1560060762,-0.091824725,0.056507718,0.03814486,4997,0,-2.3358147,3.117155,-8.568847,4997,0
1560080751,0.1246278,-0.1082103,-0.0052511455,4997,0,-0.5898108,3.7233882,-9.569321,4997,0
1560100739,0.048039738,-0.049976647,-0.012567138,4996,0,-3.171536,1.9759058,-8.860359,4996,0
1560115732,-0.09346944,0.058646087,-0.007183523,4997,0,-3.4284472,1.5223999,-5.612574,4997,0
1560140718,-0.1893609,-0.02840783,-0.015962077,4997,0,-2.8692863,0.4495172,-8.98608,4997,0
1560160705,0.0037766637,0.09118624,-0.007575565,4996,0,-1.8804014,4.9547496,-12.61448,4996,0
1560175698,0.10717425,-0.018258901,-0.015606827,4998,0,-1.6291686,4.2736006,-13.304009,4998,0
1560200684,0.15564252,-0.018632606,-0.047469333,4998,0,-1.8814704,1.8486587,-11.862844,4998,0
1560220671,-0.051266704,0.001149946,-0.03193312,4996,0,-2.2607825,3.2814834,-12.135998,4996,0
1560235667,0.041050024,0.111028805,-0.035902083,5002,0,-3.9963114,3.0311947,-13.912401,5002,0
1560255652,-0.1042212,0.07167985,-0.06483071,4996,0,-2.3868432,0.6778239,-11.850273,4996,0
1560280637,0.12449754,0.09704953,-0.021520624,4996,0,-1.3542539,2.9512565,-12.296376,4996,0
1560300625,0.022963518,0.0056212423,-0.045597702,4997,0,-2.3745522,3.6278684,-14.156135,4997,0
1560315617,-0.032017797,0.073012084,-0.07867834,4998,0,-3.6785583,1.9601794,-11.824315,4998,0
1560340603,0.050618846,0.084697604,0.017257916,4998,0,-2.3725307,4.178415,-12.759929,4998,0
1560360591,-0.12618056,0.029965885,-0.088397756,4997,0,-1.0347991,1.7397995,-11.771213,4997,0
1560380580,0.02310608,0.06609118,0.0074079125,4998,0,-1.5940821,3.0399244,-10.513933,4998,0
1560395571,0.10463154,0.015927665,0.0041928217,4998,0,-2.5768123,1.9598796,-11.95737,4998,0
1560420557,-0.02361518,0.050459426,-0.05052782,4998,0,-2.3727798,2.5539808,-9.893893,4998,0
1560440546,-0.12062818,0.007396214,0.033631925,4998,0,-3.087138,1.3594201,-12.439509,4998,0
1560455538,-0.124551155,-0.100569524,-0.031400606,4998,0,-1.2583812,1.0132298,-8.925009,4998,0
1560480523,0.18550754,-0.099319,0.021846129,4998,0,-2.6746757,2.5645545,-7.787855,4998,0
1560500512,-0.011008599,0.02346596,-0.036827035,4998,0,-2.1996837,3.2751746,-8.065634,4998,0
1560520500,0.020884091,-0.17257085,-0.0102221845,4998,0,-2.8937175,0.52340907,-5.4356236,4998,0
1560540490,-0.2349466,0.04410503,0.028762154,4998,0,-2.9481037,1.426042,-4.5655713,4998,0
1560560477,0.028058985,-0.1659375,-0.03036335,4996,0,-1.8936032,4.3603644,-5.44542,4996,0
1560575468,0.032491557,-0.20890866,0.06207059,4996,0,-1.3210655,3.1172948,-8.4048395,4996,0
1560595457,-0.04055066,-0.2151393,0.0309572,4994,0,-2.4005492,2.0345225,-4.172757,4994,0
1560620443,-0.19194214,0.039564367,0.010229086,4997,0,-3.6511166,2.175551,-3.8180685,4997,0
1560640433,-0.15147175,0.015927432,0.032760307,4999,0,-3.8866105,1.5602596,-5.747614,4999,0
1560660420,-0.18578662,0.060978096,-0.013674877,4998,0,-3.890838,1.4065238,-5.641371,4998,0
1560675411,0.07564379,-0.1311553,0.0078780325,4996,0,-3.7364366,1.8757254,-5.1043406,4996,0
1560700397,0.0365567,0.0017753872,-0.030397516,4997,0,-3.0023248,1.8118047,-9.325253,4997,0
1560720386,0.04594923,0.05864659,-0.022476425,4997,0,-2.386885,3.0395014,-6.875389,4997,0
1560735379,-0.038342517,0.0439975,0.033968166,4999,0,-3.589448,2.0888355,-9.253381,4999,0
1560760364,0.18894956,-0.17175867,-0.008797189,4998,0,-1.5753081,2.8405628,-9.639412,4998,0
1560780352,-0.08768303,0.052141428,0.01275113,4998,0,-3.802264,-0.2754915,-7.779133,4998,0
1560800340,-0.24440362,0.08312749,-0.006070635,4997,0,-1.7910002,2.1520216,-9.301255,4997,0
1560820329,0.0735559,-0.10805038,-0.013372601,4996,0,-1.4144927,3.642301,-10.572336,4996,0
1560840319,-0.046226684,0.10766541,0.019553298,4998,0,-2.836806,1.4519725,-11.931413,4998,0
1560860306,-0.018339766,-0.01431741,-0.050601218,4997,0,-2.9679174,2.789912,-10.909939,4997,0
1560880294,0.20884037,0.14921576,0.00959468,4997,0,-2.4820561,4.02034,-11.749972,4997,0
1560900283,-0.14572625,0.1493876,-0.07056958,4997,0,-2.358024,1.1713998,-10.536258,4997,0
1560920272,-0.13800135,0.08518863,0.0016798098,4998,0,-3.4723973,0.9644609,-11.672144,4998,0
1560940260,0.12731254,0.070139885,-0.02726543,4997,0,-3.1015947,1.2972555,-11.877076,4997,0
1560960249,0.09662804,0.025305448,-0.108116195,4997,0,-2.627456,3.0573916,-14.735296,4997,0
1560980238,0.03525933,0.016549546,0.0109978095,4998,0,-2.1138937,1.3973991,-13.63077,4998,0
1561000226,0.10609374,0.0763725,-0.107129954,4995,0,-3.2395966,3.5389633,-14.3073845,4995,0
1561020215,-0.032397054,0.002776803,-0.029238474,4997,0,-3.20299,1.7095206,-14.665404,4997,0
1561040203,0.010699408,0.13102826,-0.030475652,4995,0,-2.802406,1.4807074,-12.613898,4995,0
1561060192,-0.08791985,0.060784936,-0.052550465,4995,0,-3.8099995,2.4713275,-13.630929,4995,0
1561080181,-0.16545565,0.057517856,-0.019042343,4998,0,-2.4148774,0.74626714,-12.937376,4998,0
1561100169,0.024588738,0.14145395,-0.0010910095,4996,0,-3.725713,2.5312757,-11.094709,4996,0
1561120158,-0.21338707,0.04162092,-0.016932506,4997,0,-2.6211357,-0.47696164,-10.2961855,4997,0
1561140146,0.08008476,0.013830227,-0.03611402,4997,0,-4.4290752,2.7928412,-11.989525,4997,0
1561160135,0.12349405,-0.048407823,0.010018346,4998,0,-2.5774882,2.4755795,-9.457072,4998,0
1561180123,-0.15847194,-0.060972653,-0.034023922,4997,0,-1.0582277,1.439735,-7.488456,4997,0
1561200113,0.021616014,-0.02058989,0.040858224,4997,0,-3.0805986,2.1957598,-11.2560215,4997,0
1561220101,0.047826566,-0.1842114,0.02951722,4998,0,-1.6796155,1.7825603,-7.9574757,4998,0
1561240091,-0.2309174,0.017377378,-0.0009560509,4999,0,-3.9714937,0.342719,-4.7112503,4999,0
1561260078,-0.1461025,0.09934243,0.06666489,4996,0,-2.8379288,3.3633294,-4.8001075,4996,0
1561280066,0.10705159,-0.11404403,-0.0023352252,4996,0,-1.4661775,4.1726694,-6.9930134,4996,0
1561300060,0.14807552,-0.1443318,0.09750712,5002,0,-1.2875907,3.8820245,-5.8342657,5002,0
1561320044,0.08886869,-0.08793618,0.035982296,4998,0,-2.1570592,2.7956138,-2.5551767,4998,0
1561340033,0.15708329,-0.10747973,0.037427433,4999,0,-1.9290591,2.6571348,-3.784903,4999,0
1561360021,0.20689929,-0.12597892,0.04033286,4997,0,-1.5115472,3.131224,-5.610365,4997,0
1561380010,0.1759429,-0.06554453,0.028036993,4998,0,-1.5106263,4.3528357,-5.5332246,4998,0
1561399998,0.13659184,-0.037670758,0.04737247,4997,0,-1.1381876,3.1221907,-7.1088676,4997,0
1561419986,0.0985736,0.122912236,0.05275737,4995,0,-1.7686714,3.4900205,-4.890624,4995,0
1561439976,0.18313377,-0.02521628,0.028997349,4998,0,-1.5039585,2.8220863,-7.4947286,4998,0
1561459964,-0.035448868,0.042900916,0.035292692,4998,0,-2.427533,1.8186455,-5.184702,4998,0
1561479952,-0.11144085,0.19095959,0.013907836,4995,0,-4.272712,1.4425281,-5.8163743,4995,0
1561499941,0.1658302,0.107203335,-0.056701943,4998,0,-1.1547582,4.393437,-9.085022,4998,0
1561519930,-0.016077759,0.18795525,0.018433932,4997,0,-3.6084402,-0.016681472,-6.66575,4997,0
1561539920,0.12743396,0.061195645,-0.089862496,4999,0,-1.0742254,3.3532245,-11.818642,4999,0
1561559907,-0.12124531,0.15589795,0.027962502,4997,0,-2.2244685,2.989461,-11.735853,4997,0
1561579895,0.057122223,0.2359702,-0.019163625,4997,0,-2.196718,2.361401,-10.370914,4997,0
1561599885,-0.019511659,0.15103123,-0.047355756,4999,0,-2.6321871,1.9990737,-13.937422,4999,0
1561619872,0.23160581,0.25196356,0.020827586,4996,0,-2.7316363,3.581566,-13.269821,4996,0
1561639863,0.09547435,0.1541853,-0.0847478,4999,0,-2.7097192,3.0079198,-15.054245,4999,0
1561659850,0.08328664,0.14137112,0.018690936,4996,0,-1.2654335,1.8156078,-13.967396,4996,0
1561679839,0.18066986,0.114088155,-0.05742032,4998,0,-2.918649,3.1562507,-13.389301,4998,0
1561699827,0.077582836,0.039207872,-0.020568712,4997,0,-3.0776691,1.8109587,-14.35931,4997,0
1561719815,0.046763644,0.16755553,0.0060244002,4997,0,-2.8787384,0.09986416,-12.948625,4997,0
1561739805,0.095916815,0.23200051,-0.04787151,4996,0,-3.684079,2.4489388,-13.42896,4996,0
1561759793,-0.11168592,0.13896136,0.024668828,4997,0,-2.945972,1.3864977,-13.126682,4997,0
1561779781,0.017202366,0.18055238,0.014595346,4997,0,-2.3714504,1.7701125,-10.408805,4997,0
1561799770,0.0011155138,0.09624519,0.010868053,4998,0,-2.9449294,1.919326,-12.582285,4998,0
1561819758,0.23549478,0.18500373,-0.0016552911,4997,0,-3.281175,3.1476948,-11.223638,4997,0
1561839747,0.038728878,0.16211192,0.040630106,4998,0,-3.2342448,1.4452817,-9.957098,4998,0
1561859736,-0.06408671,0.026961965,-0.007055827,4998,0,-2.2432578,0.7182119,-8.032857,4998,0
1561879724,0.10789046,0.025148185,0.02978432,4997,0,-2.150482,4.0022473,-11.992032,4997,0
1561899714,0.11574391,0.060256805,0.08450736,4999,0,-3.5523248,0.68406856,-5.8097553,4999,0
1561919702,0.0648894,0.24979742,-0.009850895,4998,0,-4.424151,2.0139081,-4.1036997,4998,0
1561939692,0.15351553,0.093657315,0.09314764,5000,0,-1.9430889,2.7223697,-7.732077,5000,0
1561959679,0.06465428,0.091886185,0.06626177,4998,0,-2.7338128,2.5888984,-4.676251,4998,0
1561979667,0.20227194,0.053859547,0.022966824,4997,0,-2.893134,2.247289,-6.7541966,4997,0
1561999656,0.18597043,0.13709916,0.043231543,4998,0,-3.6446054,2.4786625,-4.7051225,4998,0
1562019644,0.1901,0.098076545,0.072629124,4997,0,-3.3694103,1.8750708,-0.35626978,4997,0
1562039634,0.41705716,-0.0056528477,0.0032607524,4998,0,-1.0347273,3.981316,-6.3311057,4998,0
1562059622,0.069231145,0.12653399,0.08825682,4998,0,-2.556584,2.2241335,-6.59506,4998,0
1562079615,0.0025388778,0.17602593,0.005364751,5002,0,-3.438569,1.4052207,-5.4389796,5002,0
1562099598,0.20412472,0.1298365,-0.017851498,4997,0,-3.9925585,2.5580199,-5.910706,4997,0
1562119587,0.24697211,0.2258415,0.065089226,4997,0,-3.352267,2.1803985,-6.8379908,4997,0
1562139575,0.16701394,0.32790238,-0.088952005,4995,0,-4.8665323,2.1120882,-6.1272783,4995,0
1562159565,0.2237254,0.28715903,0.031317305,4998,0,-1.9903084,2.8215857,-12.293363,4998,0
1562179553,0.26591444,0.010368312,-0.020608341,4998,0,-0.7270272,2.462992,-10.998495,4998,0
1562199542,-0.1759135,0.121160515,-0.04380414,4998,0,-2.4126103,-0.6321246,-8.686759,4998,0
1562219530,0.14345153,0.03682684,-0.03892719,4997,0,-0.88842434,3.2249067,-13.840641,4997,0
1562239518,-0.036617536,0.23278087,0.009607474,4997,0,-1.6046392,1.9385169,-12.88357,4997,0
1562259507,0.20400512,0.23050742,-0.10495841,4997,0,-3.5950308,1.505666,-12.868847,4997,0
1562279496,0.16911907,0.15221116,-0.02439168,4998,0,-2.1737034,0.97199565,-13.806411,4998,0
1562299486,0.014805701,0.10891738,-0.08902423,4999,0,-2.3361282,2.0921147,-16.36676,4999,0
1562319473,0.012244596,0.09872829,-0.08233469,4997,0,-2.0811818,0.22522017,-15.21739,4997,0
1562339463,0.128108,0.1739438,-0.038422015,4996,0,-2.4537616,2.1314006,-16.623367,4996,0
1562359450,0.021330122,0.14115058,-0.097452424,4997,0,-1.595359,0.14943558,-15.837216,4997,0
1562379441,0.10032939,0.16868158,-0.032254577,4997,0,-0.93713444,1.426951,-14.487668,4997,0
1562399427,0.05402314,0.06380908,-0.041524403,4997,0,-1.4924431,1.9777005,-14.546143,4997,0
1562419417,-0.07328776,0.022060806,-0.0619767,4998,0,-1.1520278,-0.036225047,-14.103807,4998,0
1562439406,0.116977,0.16045235,-0.032559782,4999,0,-1.4405502,-0.103287846,-12.827153,4999,0
1562459393,-0.024008602,0.14906509,-0.021672772,4997,0,-2.7153623,0.43493986,-13.99656,4997,0
1562479382,-0.039161544,0.14113782,-0.03822212,4997,0,-1.3348941,-1.0001848,-10.67213,4997,0
1562499370,0.08137489,0.015951812,0.040946376,4994,0,-2.0436306,-0.15741347,-12.37778,4994,0
1562519359,0.3299189,0.04966879,-0.033092827,4998,0,-0.6766105,3.572454,-13.214754,4998,0
1562539348,0.09938203,0.22508202,0.048130892,4997,0,-3.1001294,-0.12169641,-7.869082,4997,0
1562559336,0.21346538,0.2029436,0.046559945,4997,0,-0.14207554,2.3908405,-10.430171,4997,0
1562579324,0.29555884,0.017075498,0.0062363883,4995,0,0.24894595,3.279992,-6.1212416,4995,0
1562599313,0.2543976,-0.037703156,0.07504458,4997,0,-0.47084805,2.278543,-5.039388,4997,0
1562619302,0.25932744,0.20272776,0.039817452,4997,0,-1.7180508,0.35709825,-5.028962,4997,0
1562639290,0.48920286,0.10093814,0.037629273,4996,0,-1.5233674,2.5450776,-0.6180077,4996,0
1562659279,0.53208995,0.08037128,0.06264521,4997,0,-1.2540431,1.2007732,-2.1400926,4997,0
1562679267,0.52683115,0.13899983,0.062839694,4997,0,-1.519216,1.1781504,-0.4771099,4997,0
1562699256,0.49222472,0.09817434,0.027239481,4997,0,-1.9760207,2.123524,-1.6951033,4997,0
1562719245,0.38024378,0.11742159,0.07603408,4997,0,-1.0912507,1.1358861,-1.9187157,4997,0
1562739234,0.36849642,0.21880394,0.037298523,4997,0,-1.0643305,-0.075249724,-1.5613041,4997,0
1562759222,0.5079864,0.29682606,-0.0026238922,4994,0,-0.94307894,1.2360394,-1.8135358,4994,0
1562779210,0.33474523,0.24546318,0.060221598,4996,0,-1.0857698,1.6764234,-3.5306156,4996,0
1562799200,0.20340633,0.26441228,-0.0035996959,4998,0,-0.6569868,1.599208,-3.3224401,4998,0
1562819188,0.022313591,0.35787487,0.02713887,4998,0,-1.6609877,0.09225976,-6.035595,4998,0
1562839176,0.16667691,0.21823826,0.0063507427,4997,0,-0.05940939,1.621717,-7.019492,4997,0
1562859165,-0.083569884,0.23878169,-0.052879952,4997,0,-2.0078375,-1.3902133,-8.422498,4997,0
1562879154,-0.12592202,0.106057756,-0.08340395,4997,0,-2.0186975,-1.3918058,-8.942506,4997,0
1562899144,-0.25590032,0.2514067,-0.032908857,4999,0,-1.5127048,-1.4450784,-9.9469,4999,0
1562919131,0.061327297,0.14004871,-0.13386875,4997,0,0.5788391,1.9754934,-13.069015,4997,0
1562939122,-0.11008573,0.30599448,-0.08639767,4998,0,-0.87805,-1.917423,-12.705045,4998,0
1562959108,0.117618404,0.12447577,-0.044219665,4997,0,0.5590401,0.08138954,-16.275255,4997,0
1562979096,-0.10753348,0.052829247,-0.13558884,4997,0,0.57813317,0.6965763,-17.061945,4997,0
1562999085,-0.22571997,0.0117756,-0.016397953,4997,0,1.6787617,-0.7748541,-16.435417,4997,0
1563019073,0.0086685335,0.09987249,-0.06463497,4995,0,0.08301884,0.8448884,-16.786797,4995,0
1563039062,-0.11739266,0.07134745,-0.07848654,4997,0,1.3613765,-0.07442111,-17.732212,4997,0
1563059051,-0.032682363,0.08071836,-0.029371042,4997,0,1.0562447,-0.8457087,-17.210207,4997,0
1563079039,0.034250263,0.08650055,-0.06495553,4997,0,0.30840206,0.56705004,-17.008398,4997,0
