timestamp,q[0],q[1],q[2],q[3],delta_q_reset[0],delta_q_reset[1],delta_q_reset[2],delta_q_reset[3],quat_reset_counter
1550296342,0.72124624,0.0024767558,0.0034500821,0.6926658,0.99968505,-2.974825e-10,4.4255995e-11,0.025098499,4
1550301338,0.72124624,0.0024753266,0.0034488088,0.69266576,0.99968505,-2.974825e-10,4.4255995e-11,0.025098499,4
1550316332,0.7212489,0.0024784235,0.0034482689,0.692663,0.99968505,-2.974825e-10,4.4255995e-11,0.025098499,4
1550341314,0.72124815,0.0024752505,0.003446383,0.69266385,0.99968505,-2.974825e-10,4.4255995e-11,0.025098499,4
1550361303,0.72125643,0.0024794538,0.0034481552,0.6926552,0.99968505,-2.974825e-10,4.4255995e-11,0.025098499,4
1550376296,0.7212276,0.0024878958,0.003455404,0.69268507,0.99968505,-2.974825e-10,4.4255995e-11,0.025098499,4
1550396283,0.72135687,0.0024634497,0.0034430206,0.69255066,0.99968505,-2.974825e-10,4.4255995e-11,0.025098499,4
1550421269,0.7212823,0.0024858988,0.0034443634,0.69262826,0.99968505,-2.974825e-10,4.4255995e-11,0.025098499,4
1550441257,0.7211861,0.0024771232,0.003436364,0.69272846,0.99968505,-2.974825e-10,4.4255995e-11,0.025098499,4
1550456250,0.72127396,0.002510353,0.003466461,0.6926367,0.99968505,-2.974825e-10,4.4255995e-11,0.025098499,4
1550481234,0.7212108,0.0024875135,0.0034720604,0.69270253,0.99968505,-2.974825e-10,4.4255995e-11,0.025098499,4
1550501228,0.72128296,0.0024872757,0.0034488174,0.69262755,0.99968505,-2.974825e-10,4.4255995e-11,0.025098499,4
1550516216,0.72124803,0.002508011,0.003453416,0.6926638,0.99968505,-2.974825e-10,4.4255995e-11,0.025098499,4
1550536203,0.7212563,0.002481857,0.0034574522,0.69265527,0.99968505,-2.974825e-10,4.4255995e-11,0.025098499,4
1550561189,0.7212967,0.002487349,0.003446243,0.6926132,0.99968505,-2.974825e-10,4.4255995e-11,0.025098499,4
1550581177,0.72125584,0.0024890287,0.0034565944,0.69265574,0.99968505,-2.974825e-10,4.4255995e-11,0.025098499,4
1550596170,0.72128123,0.002509613,0.0034720185,0.69262916,0.99968505,-2.974825e-10,4.4255995e-11,0.025098499,4
1550621154,0.7212592,0.0024817467,0.0034641707,0.6926523,0.99968505,-2.974825e-10,4.4255995e-11,0.025098499,4
1550641143,0.72125846,0.0024885607,0.0034464365,0.692653,0.99968505,-2.974825e-10,4.4255995e-11,0.025098499,4
1550656136,0.7212771,0.0024963906,0.0034747466,0.6926334,0.99968505,-2.974825e-10,4.4255995e-11,0.025098499,4
1550676124,0.72123533,0.0024935154,0.0034712905,0.69267696,0.99968505,-2.974825e-10,4.4255995e-11,0.025098499,4
1550701108,0.72125983,0.0025014854,0.003481385,0.69265145,0.99968505,-2.974825e-10,4.4255995e-11,0.025098499,4
1550721097,0.7212665,0.002492404,0.0034679526,0.69264454,0.99968505,-2.974825e-10,4.4255995e-11,0.025098499,4
1550736089,0.7212627,0.0024894888,0.0034584044,0.69264853,0.99968505,-2.974825e-10,4.4255995e-11,0.025098499,4
1550761074,0.72126716,0.0025125267,0.0034554855,0.6926439,0.99968505,-2.974825e-10,4.4255995e-11,0.025098499,4
1550781064,0.7212974,0.0024517998,0.0034073975,0.6926128,0.99968505,-2.974825e-10,4.4255995e-11,0.025098499,4
1550796056,0.7213021,0.0025737688,0.003405121,0.69260746,0.99968505,-2.974825e-10,4.4255995e-11,0.025098499,4
1550821042,0.7212843,0.0025652566,0.0034185206,0.692626,0.99968505,-2.974825e-10,4.4255995e-11,0.025098499,4
1550841029,0.72133535,0.002477799,0.0034168062,0.6925732,0.99968505,-2.974825e-10,4.4255995e-11,0.025098499,4
1550861018,0.72126895,0.0025454392,0.0034567388,0.69264185,0.99968505,-2.974825e-10,4.4255995e-11,0.025098499,4
1550876009,0.72135735,0.002526546,0.0034359414,0.69255,0.99968505,-2.974825e-10,4.4255995e-11,0.025098499,4
1550900994,0.72132057,0.002527802,0.0034304361,0.69258827,0.99968505,-2.974825e-10,4.4255995e-11,0.025098499,4
1550920983,0.72120416,0.0024971683,0.0034056578,0.69270974,0.99968505,-2.974825e-10,4.4255995e-11,0.025098499,4
1550935974,0.7213882,0.0025081937,0.0034585542,0.6925177,0.99968505,-2.974825e-10,4.4255995e-11,0.025098499,4
1550960960,0.7213388,0.0025425449,0.0034164924,0.6925694,0.99968505,-2.974825e-10,4.4255995e-11,0.025098499,4
1550980948,0.7211845,0.0025246174,0.003387942,0.69273025,0.99968505,-2.974825e-10,4.4255995e-11,0.025098499,4
1551000937,0.7214823,0.0024766473,0.0033242763,0.69242054,0.99968505,-2.974825e-10,4.4255995e-11,0.025098499,4
1551015929,0.7211098,0.0025395427,0.0033695977,0.69280803,0.99968505,-2.974825e-10,4.4255995e-11,0.025098499,4
1551040916,0.7211878,0.002525861,0.0033964624,0.6927268,0.99968505,-2.974825e-10,4.4255995e-11,0.025098499,4
1551060903,0.7216102,0.0024647,0.0034259742,0.69228685,0.99968505,-2.974825e-10,4.4255995e-11,0.025098499,4
1551075894,0.7210467,0.002505607,0.003359943,0.69287384,0.99968505,-2.974825e-10,4.4255995e-11,0.025098499,4
1551100881,0.7213651,0.0024413187,0.0033946936,0.69254243,0.99968505,-2.974825e-10,4.4255995e-11,0.025098499,4
1551120869,0.7215519,0.0025476522,0.003470054,0.69234705,0.99968505,-2.974825e-10,4.4255995e-11,0.025098499,4
1551135860,0.72121763,0.0024357603,0.0034598063,0.6926957,0.99968505,-2.974825e-10,4.4255995e-11,0.025098499,4
1551155849,0.7216917,0.002526679,0.0033899192,0.6922017,0.99968505,-2.974825e-10,4.4255995e-11,0.025098499,4
1551180836,0.7210855,0.0025598032,0.0034112926,0.692833,0.99968505,-2.974825e-10,4.4255995e-11,0.025098499,4
1551200824,0.7213242,0.0025246053,0.0033611658,0.6925849,0.99968505,-2.974825e-10,4.4255995e-11,0.025098499,4
1551215814,0.7212118,0.0024196312,0.0034460044,0.6927019,0.99968505,-2.974825e-10,4.4255995e-11,0.025098499,4
1551240801,0.7208254,0.0024680132,0.0033196304,0.6931044,0.99968505,-2.974825e-10,4.4255995e-11,0.025098499,4
1551260789,0.72188336,0.0024960462,0.0034079563,0.6920019,0.99968505,-2.974825e-10,4.4255995e-11,0.025098499,4
1551280777,0.720928,0.0024495581,0.003396471,0.6929974,0.99968505,-2.974825e-10,4.4255995e-11,0.025098499,4
1551300768,0.72143364,0.002484529,0.0034951067,0.6924704,0.99968505,-2.974825e-10,4.4255995e-11,0.025098499,4
1551320755,0.72159976,0.002497602,0.0033425668,0.692298,0.99968505,-2.974825e-10,4.4255995e-11,0.025098499,4
1551340746,0.72085756,0.0024979874,0.0034720066,0.6930701,0.99968505,-2.974825e-10,4.4255995e-11,0.025098499,4
1551355734,0.7217242,0.002442943,0.003352281,0.6921683,0.99968505,-2.974825e-10,4.4255995e-11,0.025098499,4
1551380720,0.72110164,0.0025279725,0.0034312776,0.69281626,0.99968505,-2.974825e-10,4.4255995e-11,0.025098499,4
1551400709,0.721284,0.002524282,0.0033482858,0.6926269,0.99968505,-2.974825e-10,4.4255995e-11,0.025098499,4
1551420700,0.7216712,0.0024259298,0.003364184,0.69222355,0.99968505,-2.974825e-10,4.4255995e-11,0.025098499,4
1551435691,0.72109514,0.002483563,0.0033193235,0.69282377,0.99968505,-2.974825e-10,4.4255995e-11,0.025098499,4
1551460674,0.72161275,0.0024464258,0.0033296342,0.6922847,0.99968505,-2.974825e-10,4.4255995e-11,0.025098499,4
1551480663,0.7213526,0.0024663934,0.0034246757,0.6925552,0.99968505,-2.974825e-10,4.4255995e-11,0.025098499,4
1551495659,0.7214251,0.0024340851,0.0033122806,0.6924803,0.99968505,-2.974825e-10,4.4255995e-11,0.025098499,4
1551520640,0.7217043,0.0024817858,0.0034091703,0.69218874,0.99968505,-2.974825e-10,4.4255995e-11,0.025098499,4
1551540630,0.72107136,0.0024689601,0.0034061924,0.692848,0.99968505,-2.974825e-10,4.4255995e-11,0.025098499,4
1551555620,0.721643,0.0024503793,0.0033273879,0.6922532,0.99968505,-2.974825e-10,4.4255995e-11,0.025098499,4
1551575609,0.72127193,0.0024076155,0.003352993,0.69263977,0.99968505,-2.974825e-10,4.4255995e-11,0.025098499,4
1551600594,0.72101796,0.0024647242,0.0033743,0.6929038,0.99968505,-2.974825e-10,4.4255995e-11,0.025098499,4
1551620583,0.7215898,0.0024513109,0.003305884,0.6923087,0.99968505,-2.974825e-10,4.4255995e-11,0.025098499,4
1551635575,0.7210261,0.002467329,0.0033408683,0.6928955,0.99968505,-2.974825e-10,4.4255995e-11,0.025098499,4
1551660560,0.7211252,0.0025096182,0.0033223168,0.6927923,0.99968505,-2.974825e-10,4.4255995e-11,0.025098499,4
1551680549,0.72171336,0.0024271093,0.0033227599,0.6921798,0.99968505,-2.974825e-10,4.4255995e-11,0.025098499,4
1551695540,0.7210011,0.0024676938,0.0033487508,0.69292146,0.99968505,-2.974825e-10,4.4255995e-11,0.025098499,4
1551715529,0.7216476,0.002510817,0.0033280808,0.69224805,0.99968505,-2.974825e-10,4.4255995e-11,0.025098499,4
1551740514,0.7215531,0.002447588,0.0032772252,0.69234705,0.99968505,-2.974825e-10,4.4255995e-11,0.025098499,4
1551760502,0.72100985,0.0024441616,0.0033300847,0.6929126,0.99968505,-2.974825e-10,4.4255995e-11,0.025098499,4
1551775494,0.7216705,0.0023969382,0.0032898895,0.69222474,0.99968505,-2.974825e-10,4.4255995e-11,0.025098499,4
1551800480,0.7212253,0.0023897886,0.003264357,0.69268876,0.99968505,-2.974825e-10,4.4255995e-11,0.025098499,4
1551820469,0.7212326,0.0024716316,0.0033147943,0.69268066,0.99968505,-2.974825e-10,4.4255995e-11,0.025098499,4
1551835460,0.7213963,0.0023786447,0.0032909035,0.6925106,0.99968505,-2.974825e-10,4.4255995e-11,0.025098499,4
1551855448,0.72107846,0.002430281,0.0032302255,0.6928417,0.99968505,-2.974825e-10,4.4255995e-11,0.025098499,4
1551880435,0.7216059,0.0023874938,0.003287572,0.69229215,0.99968505,-2.974825e-10,4.4255995e-11,0.025098499,4
1551900423,0.7213774,0.0024228464,0.00326189,0.69253033,0.99968505,-2.974825e-10,4.4255995e-11,0.025098499,4
1551915414,0.72144496,0.0023618436,0.003262876,0.6924601,0.99968505,-2.974825e-10,4.4255995e-11,0.025098499,4
1551940401,0.7217222,0.0024243144,0.003274937,0.69217086,0.99968505,-2.974825e-10,4.4255995e-11,0.025098499,4
1551960392,0.72101027,0.0023995861,0.0033485382,0.6929122,0.99968505,-2.974825e-10,4.4255995e-11,0.025098499,4
1551975380,0.7217094,0.0023960255,0.0033332335,0.6921841,0.99968505,-2.974825e-10,4.4255995e-11,0.025098499,4
1552000366,0.7214632,0.0024026625,0.0032782387,0.69244087,0.99968505,-2.974825e-10,4.4255995e-11,0.025098499,4
1552020355,0.721026,0.0023711578,0.003359974,0.69289595,0.99968505,-2.974825e-10,4.4255995e-11,0.025098499,4
1552040344,0.7216988,0.0023980984,0.0033155468,0.69219524,0.99968505,-2.974825e-10,4.4255995e-11,0.025098499,4
1552055334,0.7209582,0.002396782,0.00331009,0.69296664,0.99968505,-2.974825e-10,4.4255995e-11,0.025098499,4
1552080320,0.72132885,0.0024472878,0.0033213806,0.6925805,0.99968505,-2.974825e-10,4.4255995e-11,0.025098499,4
1552100308,0.7215798,0.0023477764,0.0033166413,0.69231945,0.99968505,-2.974825e-10,4.4255995e-11,0.025098499,4
1552115300,0.7212287,0.0023315542,0.0033135784,0.69268525,0.99968505,-2.974825e-10,4.4255995e-11,0.025098499,4
1552140286,0.7216593,0.0023560962,0.0032977883,0.6922366,0.99968505,-2.974825e-10,4.4255995e-11,0.025098499,4
1552160274,0.7212488,0.0024016332,0.003276491,0.69266427,0.99968505,-2.974825e-10,4.4255995e-11,0.025098499,4
1552180264,0.72119486,0.0023347258,0.0033089367,0.6927205,0.99968505,-2.974825e-10,4.4255995e-11,0.025098499,4
1552195255,0.7214594,0.0023264792,0.0033500942,0.6924448,0.99968505,-2.974825e-10,4.4255995e-11,0.025098499,4
1552220240,0.721033,0.002351102,0.003303556,0.6928889,0.99968505,-2.974825e-10,4.4255995e-11,0.025098499,4
1552240230,0.72154266,0.0023904452,0.0032921038,0.69235814,0.99968505,-2.974825e-10,4.4255995e-11,0.025098499,4
1552255220,0.72108054,0.002350289,0.0032708063,0.6928396,0.99968505,-2.974825e-10,4.4255995e-11,0.025098499,4
1552280206,0.7210237,0.0023529876,0.003285865,0.6928987,0.99968505,-2.974825e-10,4.4255995e-11,0.025098499,4
1552300194,0.72177815,0.0023652448,0.0032589184,0.69211274,0.99968505,-2.974825e-10,4.4255995e-11,0.025098499,4
1552320183,0.7210457,0.0023394616,0.0032271903,0.69287616,0.99968505,-2.974825e-10,4.4255995e-11,0.025098499,4
1552335174,0.72170866,0.002380184,0.0033041732,0.692185,0.99968505,-2.974825e-10,4.4255995e-11,0.025098499,4
1552360160,0.7215483,0.0023320094,0.0032122927,0.6923528,0.99968505,-2.974825e-10,4.4255995e-11,0.025098499,4
1552380149,0.72102004,0.0023622857,0.0033527908,0.69290215,0.99968505,-2.974825e-10,4.4255995e-11,0.025098499,4
1552395140,0.7216775,0.0022716867,0.0032801065,0.692218,0.99968505,-2.974825e-10,4.4255995e-11,0.025098499,4
1552420127,0.7211402,0.0023574375,0.0032838902,0.69277745,0.99968505,-2.974825e-10,4.4255995e-11,0.025098499,4
1552440116,0.72133374,0.0023955936,0.003268597,0.6925759,0.99968505,-2.974825e-10,4.4255995e-11,0.025098499,4
1552460104,0.7216341,0.002312946,0.003263152,0.6922632,0.99968505,-2.974825e-10,4.4255995e-11,0.025098499,4
1552475094,0.72122747,0.0023539313,0.0033503314,0.6926863,0.99968505,-2.974825e-10,4.4255995e-11,0.025098499,4
1552500080,0.7217121,0.002304602,0.0032427285,0.69218194,0.99968505,-2.974825e-10,4.4255995e-11,0.025098499,4
1552520069,0.72115916,0.0024048523,0.0032824595,0.69275755,0.99968505,-2.974825e-10,4.4255995e-11,0.025098499,4
1552540057,0.72130805,0.0023077154,0.0032835272,0.6926028,0.99968505,-2.974825e-10,4.4255995e-11,0.025098499,4
1552560046,0.7216702,0.002388714,0.0032790045,0.69222516,0.99968505,-2.974825e-10,4.4255995e-11,0.025098499,4
1552580034,0.72093403,0.0024130766,0.003346396,0.69299144,0.99968505,-2.974825e-10,4.4255995e-11,0.025098499,4
1552600023,0.7217416,0.0023225867,0.00326583,0.692151,0.99968505,-2.974825e-10,4.4255995e-11,0.025098499,4
1552615014,0.7209448,0.002417183,0.0033803636,0.69298005,0.99968505,-2.974825e-10,4.4255995e-11,0.025098499,4
1552640001,0.7212697,0.002388541,0.0033041388,0.6926424,0.99968505,-2.974825e-10,4.4255995e-11,0.025098499,4
1552659989,0.7216862,0.002343935,0.0033168576,0.6922085,0.99968505,-2.974825e-10,4.4255995e-11,0.025098499,4
1552674983,0.72117776,0.0023145594,0.0033359018,0.6927382,0.99968505,-2.974825e-10,4.4255995e-11,0.025098499,4
1552699967,0.7217395,0.002365737,0.0032858548,0.69215304,0.99968505,-2.974825e-10,4.4255995e-11,0.025098499,4
1552719955,0.72117597,0.0023853201,0.003317541,0.6927399,0.99968505,-2.974825e-10,4.4255995e-11,0.025098499,4
1552739945,0.7213305,0.0023456288,0.0033420129,0.69257903,0.99968505,-2.974825e-10,4.4255995e-11,0.025098499,4
1552759932,0.7217128,0.00231795,0.0033032815,0.6921809,0.99968505,-2.974825e-10,4.4255995e-11,0.025098499,4
1552779920,0.72097176,0.0024161164,0.003415709,0.6929518,0.99968505,-2.974825e-10,4.4255995e-11,0.025098499,4
1552799909,0.72174907,0.002322905,0.003321676,0.69214296,0.99968505,-2.974825e-10,4.4255995e-11,0.025098499,4
1552814900,0.7209699,0.0024166233,0.003283684,0.6929545,0.99968505,-2.974825e-10,4.4255995e-11,0.025098499,4
1552839886,0.72129077,0.0023363119,0.0032992982,0.69262064,0.99968505,-2.974825e-10,4.4255995e-11,0.025098499,4
1552859875,0.7217355,0.0023109382,0.0033463342,0.6921571,0.99968505,-2.974825e-10,4.4255995e-11,0.025098499,4
1552879864,0.720948,0.0022878915,0.0032296996,0.69297796,0.99968505,-2.974825e-10,4.4255995e-11,0.025098499,4
1552899851,0.7218541,0.002333006,0.003305686,0.69203347,0.99968505,-2.974825e-10,4.4255995e-11,0.025098499,4
1552919842,0.7211911,0.0022713293,0.0032564688,0.6927248,0.99968505,-2.974825e-10,4.4255995e-11,0.025098499,4
1552939829,0.7214081,0.002323115,0.0032021517,0.6924989,0.99968505,-2.974825e-10,4.4255995e-11,0.025098499,4
1552954820,0.72135514,0.0023066623,0.0032157486,0.69255406,0.99968505,-2.974825e-10,4.4255995e-11,0.025098499,4
1552979811,0.7209654,0.0023681636,0.0032140228,0.6929596,0.99968505,-2.974825e-10,4.4255995e-11,0.025098499,4
1552999795,0.7219039,0.0022539631,0.0031776964,0.69198245,0.99968505,-2.974825e-10,4.4255995e-11,0.025098499,4
1553019783,0.7211003,0.0023697242,0.0032242574,0.6928193,0.99968505,-2.974825e-10,4.4255995e-11,0.025098499,4
1553039773,0.721501,0.002246692,0.0031134456,0.69240284,0.99968505,-2.974825e-10,4.4255995e-11,0.025098499,4
1553059762,0.7216132,0.002338797,0.0031491944,0.6922854,0.99968505,-2.974825e-10,4.4255995e-11,0.025098499,4
1553079750,0.721064,0.0022536835,0.0030826286,0.69285804,0.99968505,-2.974825e-10,4.4255995e-11,0.025098499,4
1553094741,0.72167516,0.0023136523,0.0032127993,0.6922206,0.99968505,-2.974825e-10,4.4255995e-11,0.025098499,4
1553119726,0.7210289,0.00230343,0.0032323322,0.6928936,0.99968505,-2.974825e-10,4.4255995e-11,0.025098499,4
1553139718,0.72165334,0.002322373,0.0031964476,0.6922434,0.99968505,-2.974825e-10,4.4255995e-11,0.025098499,4
1553159705,0.72146106,0.0022551012,0.0032082114,0.6924439,0.99968505,-2.974825e-10,4.4255995e-11,0.025098499,4
1553179693,0.7211411,0.0023913258,0.0032706445,0.69277644,0.99968505,-2.974825e-10,4.4255995e-11,0.025098499,4
1553199681,0.72184,0.0022194393,0.003227287,0.69204885,0.99968505,-2.974825e-10,4.4255995e-11,0.025098499,4
1553219671,0.7209322,0.002393554,0.0032723048,0.6929938,0.99968505,-2.974825e-10,4.4255995e-11,0.025098499,4
1553234661,0.72187066,0.0022834318,0.0032498776,0.69201666,0.99968505,-2.974825e-10,4.4255995e-11,0.025098499,4
1553259646,0.7212269,0.0023263681,0.0033049518,0.6926872,0.99968505,-2.974825e-10,4.4255995e-11,0.025098499,4
1553279635,0.72135705,0.002220551,0.0032237354,0.6925523,0.99968505,-2.974825e-10,4.4255995e-11,0.025098499,4
1553299628,0.7216952,0.0022507105,0.003263312,0.69219965,0.99968505,-2.974825e-10,4.4255995e-11,0.025098499,4
1553319612,0.72099906,0.0022508416,0.0032341697,0.692925,0.99968505,-2.974825e-10,4.4255995e-11,0.025098499,4
1553339602,0.7217516,0.0021566406,0.0030999065,0.69214195,0.99968505,-2.974825e-10,4.4255995e-11,0.025098499,4
1553359589,0.72114193,0.0019593954,0.0031304264,0.69277763,0.99968505,-2.974825e-10,4.4255995e-11,0.025098499,4
1553374581,0.72130567,0.0024847006,0.0030984324,0.6926055,0.99968505,-2.974825e-10,4.4255995e-11,0.025098499,4
1553399567,0.7209136,0.0020214333,0.003097923,0.69301516,0.99968505,-2.974825e-10,4.4255995e-11,0.025098499,4
1553419555,0.7213549,0.0022057358,0.002897783,0.6925561,0.99968505,-2.974825e-10,4.4255995e-11,0.025098499,4
1553439544,0.7210915,0.0015133064,0.0024086856,0.692834,0.99968505,-2.974825e-10,4.4255995e-11,0.025098499,4
1553459532,0.72109425,0.0023570107,0.0031811562,0.69282573,0.99968505,-2.974825e-10,4.4255995e-11,0.025098499,4
1553479525,0.7209362,0.002288866,0.0030376136,0.6929911,0.99968505,-2.974825e-10,4.4255995e-11,0.025098499,4
1553499511,0.7210662,0.0014823533,0.0025157642,0.69286007,0.99968505,-2.974825e-10,4.4255995e-11,0.025098499,4
1553519498,0.72099346,0.002072352,0.0029282733,0.6929326,0.99968505,-2.974825e-10,4.4255995e-11,0.025098499,4
1553539487,0.72090226,0.0022065886,0.002743832,0.69302785,0.99968505,-2.974825e-10,4.4255995e-11,0.025098499,4
1553559475,0.7210742,0.0018622255,0.0026279602,0.69285035,0.99968505,-2.974825e-10,4.4255995e-11,0.025098499,4
1553579464,0.7206691,0.001971244,0.0029644042,0.6932701,0.99968505,-2.974825e-10,4.4255995e-11,0.025098499,4
1553599452,0.72089624,0.0020649713,0.002633011,0.69303495,0.99968505,-2.974825e-10,4.4255995e-11,0.025098499,4
1553619441,0.72075737,0.0019368965,0.0026043442,0.69317985,0.99968505,-2.974825e-10,4.4255995e-11,0.025098499,4
1553639429,0.7210243,0.0016324561,0.0026393677,0.6929029,0.99968505,-2.974825e-10,4.4255995e-11,0.025098499,4
1553659418,0.72063315,0.002186755,0.0029338228,0.693307,0.99968505,-2.974825e-10,4.4255995e-11,0.025098499,4
1553679406,0.72089946,0.0020166629,0.002706548,0.69303143,0.99968505,-2.974825e-10,4.4255995e-11,0.025098499,4
1553699395,0.7206207,0.0016478939,0.0021746333,0.6933242,0.99968505,-2.974825e-10,4.4255995e-11,0.025098499,4
1553719384,0.72090936,0.0014708136,0.0024775718,0.69302344,0.99968505,-2.974825e-10,4.4255995e-11,0.025098499,4
1553739374,0.72067255,0.0018051737,0.0027197239,0.69326794,0.99968505,-2.974825e-10,4.4255995e-11,0.025098499,4
1553759361,0.72079116,0.0023232324,0.0031334928,0.69314134,0.99968505,-2.974825e-10,4.4255995e-11,0.025098499,4
1553779349,0.7206325,0.0017252066,0.0021454894,0.69331175,0.99968505,-2.974825e-10,4.4255995e-11,0.025098499,4
1553799338,0.7207114,0.0014765395,0.002124816,0.6932304,0.99968505,-2.974825e-10,4.4255995e-11,0.025098499,4
1553819327,0.72045714,0.0015372523,0.0025019825,0.69349337,0.99968505,-2.974825e-10,4.4255995e-11,0.025098499,4
1553839316,0.72041935,0.0020381396,0.0027695657,0.6935302,0.99968505,-2.974825e-10,4.4255995e-11,0.025098499,4
1553859304,0.7203869,0.0018494666,0.0022735016,0.69356626,0.99968505,-2.974825e-10,4.4255995e-11,0.025098499,4
1553879292,0.7202629,0.0014148273,0.0019924494,0.69369686,0.99968505,-2.974825e-10,4.4255995e-11,0.025098499,4
1553899281,0.7201847,0.00072498876,0.0014657893,0.6937806,0.99968505,-2.974825e-10,4.4255995e-11,0.025098499,4
1553919269,0.7198916,0.00061687955,0.0013829699,0.69408494,0.99968505,-2.974825e-10,4.4255995e-11,0.025098499,4
1553939259,0.7196152,0.00029602103,0.0010813982,0.6943722,0.99968505,-2.974825e-10,4.4255995e-11,0.025098499,4
1553959246,0.7189929,0.00032650479,0.0005187448,0.6950171,0.99968505,-2.974825e-10,4.4255995e-11,0.025098499,4
1553979235,0.71861666,-0.00070789584,-0.00027790392,0.69540614,0.99968505,-2.974825e-10,4.4255995e-11,0.025098499,4
1553999225,0.71836287,-0.0024874022,-0.002342819,0.6956603,0.99968505,-2.974825e-10,4.4255995e-11,0.025098499,4
1554019212,0.7178115,-0.004505391,-0.004520867,0.69620824,0.99968505,-2.974825e-10,4.4255995e-11,0.025098499,4
1554039202,0.71757376,-0.006586715,-0.0069872835,0.6964164,0.99968505,-2.974825e-10,4.4255995e-11,0.025098499,4
1554059190,0.7172186,-0.009077757,-0.009224091,0.69672817,0.99968505,-2.974825e-10,4.4255995e-11,0.025098499,4
1554079178,0.717055,-0.010341784,-0.011020397,0.6968527,0.99968505,-2.974825e-10,4.4255995e-11,0.025098499,4
1554099168,0.7169293,-0.010485797,-0.013861938,0.6969292,0.99968505,-2.974825e-10,4.4255995e-11,0.025098499,4
1554119155,0.7168267,-0.011412968,-0.017964339,0.6969266,0.99968505,-2.974825e-10,4.4255995e-11,0.025098499,4
1554139147,0.7169924,-0.010576164,-0.020268032,0.69670606,0.99968505,-2.974825e-10,4.4255995e-11,0.025098499,4
1554159136,0.7170167,-0.009048087,-0.021801349,0.6966562,0.99968505,-2.974825e-10,4.4255995e-11,0.025098499,4
1554179121,0.7171823,-0.008109609,-0.023622677,0.69643795,0.99968505,-2.974825e-10,4.4255995e-11,0.025098499,4
1554199110,0.7174712,-0.0070010275,-0.02404106,0.6961381,0.99968505,-2.974825e-10,4.4255995e-11,0.025098499,4
1554219098,0.717538,-0.008647373,-0.02523654,0.6960084,0.99968505,-2.974825e-10,4.4255995e-11,0.025098499,4
1554239087,0.7174561,-0.008553597,-0.026863676,0.696033,0.99968505,-2.974825e-10,4.4255995e-11,0.025098499,4
1554259077,0.71749145,-0.008875059,-0.02890359,0.69591093,0.99968505,-2.974825e-10,4.4255995e-11,0.025098499,4
1554279064,0.7175133,-0.007684295,-0.030085756,0.6958524,0.99968505,-2.974825e-10,4.4255995e-11,0.025098499,4
1554299052,0.717273,-0.0046715178,-0.03127018,0.69607466,0.99968505,-2.974825e-10,4.4255995e-11,0.025098499,4
1554319041,0.7171539,-0.004196743,-0.032326393,0.6961521,0.99968505,-2.974825e-10,4.4255995e-11,0.025098499,4
1554339031,0.7169765,-0.0047714943,-0.033929907,0.69625473,0.99968505,-2.974825e-10,4.4255995e-11,0.025098499,4
1554359018,0.71670413,-0.007427045,-0.03520001,0.696449,0.99968505,-2.974825e-10,4.4255995e-11,0.025098499,4
1554379008,0.7166526,-0.007169487,-0.036313914,0.6964475,0.99968505,-2.974825e-10,4.4255995e-11,0.025098499,4
1554398995,0.7166249,-0.003701456,-0.037132457,0.6964598,0.99968505,-2.974825e-10,4.4255995e-11,0.025098499,4
1554418984,0.7165367,0.0009538035,-0.037573397,0.6965361,0.99968505,-2.974825e-10,4.4255995e-11,0.025098499,4
1554438975,0.71628857,0.0010729431,-0.03942148,0.696689,0.99968505,-2.974825e-10,4.4255995e-11,0.025098499,4
1554458961,0.71621525,-0.00022893748,-0.042032287,0.6966125,0.99968505,-2.974825e-10,4.4255995e-11,0.025098499,4
1554478950,0.7163684,-0.00089745823,-0.043017395,0.6963944,0.99968505,-2.974825e-10,4.4255995e-11,0.025098499,4
1554498939,0.7164278,0.0003349947,-0.04337032,0.6963119,0.99968505,-2.974825e-10,4.4255995e-11,0.025098499,4
1554518929,0.716473,0.004436708,-0.042668175,0.6962947,0.99968505,-2.974825e-10,4.4255995e-11,0.025098499,4
1554538917,0.71660686,0.0068494948,-0.042765643,0.6961314,0.99968505,-2.974825e-10,4.4255995e-11,0.025098499,4
1554558904,0.71665597,0.007704196,-0.043146383,0.6960483,0.99968505,-2.974825e-10,4.4255995e-11,0.025098499,4
1554578894,0.7166976,0.0083725015,-0.0440971,0.6959382,0.99968505,-2.974825e-10,4.4255995e-11,0.025098499,4
1554598883,0.71691793,0.009013531,-0.044217274,0.69569564,0.99968505,-2.974825e-10,4.4255995e-11,0.025098499,4
1554618871,0.7170279,0.011585019,-0.04343658,0.6955933,0.99968505,-2.974825e-10,4.4255995e-11,0.025098499,4
1554638859,0.71703905,0.0136459,-0.043587074,0.6955351,0.99968505,-2.974825e-10,4.4255995e-11,0.025098499,4
1554658847,0.716982,0.014798766,-0.04307022,0.6956025,0.99968505,-2.974825e-10,4.4255995e-11,0.025098499,4
1554678836,0.71703494,0.014617595,-0.044235665,0.69547856,0.99968505,-2.974825e-10,4.4255995e-11,0.025098499,4
1554698825,0.7170125,0.015029586,-0.044415496,0.6954815,0.99968505,-2.974825e-10,4.4255995e-11,0.025098499,4
1554718813,0.7168878,0.015603278,-0.044171836,0.6956129,0.99968505,-2.974825e-10,4.4255995e-11,0.025098499,4
1554738803,0.7170397,0.017364087,-0.043977022,0.695427,0.99968505,-2.974825e-10,4.4255995e-11,0.025098499,4
1554758791,0.7170829,0.017162265,-0.043896154,0.69539243,0.99968505,-2.974825e-10,4.4255995e-11,0.025098499,4
1554778779,0.71704125,0.017930187,-0.043531522,0.69543904,0.99968505,-2.974825e-10,4.4255995e-11,0.025098499,4
1554798768,0.7169343,0.017820228,-0.043971222,0.6955244,0.99968505,-2.974825e-10,4.4255995e-11,0.025098499,4
1554818759,0.71717197,0.017103797,-0.04368185,0.69531554,0.99968505,-2.974825e-10,4.4255995e-11,0.025098499,4
1554838744,0.7170563,0.018122742,-0.043191068,0.6954398,0.99968505,-2.974825e-10,4.4255995e-11,0.025098499,4
1554858734,0.71684664,0.018708216,-0.042414714,0.6956881,0.99968505,-2.974825e-10,4.4255995e-11,0.025098499,4
1554878724,0.71694064,0.017731072,-0.04216148,0.6956322,0.99968505,-2.974825e-10,4.4255995e-11,0.025098499,4
1554898712,0.7168974,0.018123142,-0.042285595,0.69565916,0.99968505,-2.974825e-10,4.4255995e-11,0.025098499,4
1554918698,0.71669805,0.018561829,-0.04158878,0.6958951,0.99968505,-2.974825e-10,4.4255995e-11,0.025098499,4
1554938687,0.71663177,0.018568657,-0.04043364,0.69603115,0.99968505,-2.974825e-10,4.4255995e-11,0.025098499,4
1554958682,0.71664274,0.018842045,-0.040366545,0.69601643,0.99968505,-2.974825e-10,4.4255995e-11,0.025098499,4
1554978664,0.7163403,0.019113077,-0.04019243,0.69633037,0.99968505,-2.974825e-10,4.4255995e-11,0.025098499,4
1554998653,0.71625125,0.018911434,-0.039568096,0.6964632,0.99968505,-2.974825e-10,4.4255995e-11,0.025098499,4
1555018641,0.71622664,0.018979155,-0.03895306,0.69652134,0.99968505,-2.974825e-10,4.4255995e-11,0.025098499,4
1555038630,0.7160135,0.01969719,-0.03745328,0.69680274,0.99968505,-2.974825e-10,4.4255995e-11,0.025098499,4
1555058618,0.71573335,0.020489335,-0.037635267,0.69705784,0.99968505,-2.974825e-10,4.4255995e-11,0.025098499,4
1555078606,0.71575177,0.020839676,-0.03740454,0.697041,0.99968505,-2.974825e-10,4.4255995e-11,0.025098499,4
1555098595,0.71552354,0.020616371,-0.037851438,0.69725776,0.99968505,-2.974825e-10,4.4255995e-11,0.025098499,4
1555118584,0.7152476,0.02132866,-0.03754978,0.69753575,0.99968505,-2.974825e-10,4.4255995e-11,0.025098499,4
1555138575,0.71534556,0.020806804,-0.037827007,0.69743603,0.99968505,-2.974825e-10,4.4255995e-11,0.025098499,4
1555158561,0.7150776,0.02160679,-0.038086105,0.6976724,0.99968505,-2.974825e-10,4.4255995e-11,0.025098499,4
1555178550,0.71486783,0.0216377,-0.03833364,0.69787276,0.99968505,-2.974825e-10,4.4255995e-11,0.025098499,4
1555198538,0.714856,0.02101703,-0.03814163,0.69791436,0.99968505,-2.974825e-10,4.4255995e-11,0.025098499,4
1555218527,0.71482,0.021346264,-0.037828792,0.6979583,0.99968505,-2.974825e-10,4.4255995e-11,0.025098499,4
1555238516,0.7146916,0.021470046,-0.038405906,0.6980545,0.99968505,-2.974825e-10,4.4255995e-11,0.025098499,4
1555258504,0.71443856,0.021881588,-0.03922852,0.69825494,0.99968505,-2.974825e-10,4.4255995e-11,0.025098499,4
1555278494,0.71448183,0.022574158,-0.0395614,0.69816977,0.99968505,-2.974825e-10,4.4255995e-11,0.025098499,4
1555298481,0.71438575,0.021702249,-0.040429678,0.69824606,0.99968505,-2.974825e-10,4.4255995e-11,0.025098499,4
1555318470,0.7141945,0.021240693,-0.04171306,0.6983804,0.99968505,-2.974825e-10,4.4255995e-11,0.025098499,4
1555338459,0.7143404,0.021212265,-0.0421989,0.69820285,0.99968505,-2.974825e-10,4.4255995e-11,0.025098499,4
1555358447,0.71408427,0.019755935,-0.043402348,0.69843376,0.99968505,-2.974825e-10,4.4255995e-11,0.025098499,4
1555378436,0.7139447,0.020662375,-0.043775063,0.698527,0.99968505,-2.974825e-10,4.4255995e-11,0.025098499,4
1555398426,0.7141087,0.019383986,-0.044334423,0.69836056,0.99968505,-2.974825e-10,4.4255995e-11,0.025098499,4
1555418413,0.71394014,0.018929845,-0.0454923,0.6984709,0.99968505,-2.974825e-10,4.4255995e-11,0.025098499,4
1555438403,0.71383154,0.016648093,-0.04716149,0.6985293,0.99968505,-2.974825e-10,4.4255995e-11,0.025098499,4
1555458390,0.7140016,0.016265007,-0.049067114,0.69823325,0.99968505,-2.974825e-10,4.4255995e-11,0.025098499,4
1555478385,0.71390104,0.014893641,-0.0499524,0.6983039,0.99968505,-2.974825e-10,4.4255995e-11,0.025098499,4
1555498368,0.71373487,0.014710432,-0.05059831,0.69843113,0.99968505,-2.974825e-10,4.4255995e-11,0.025098499,4
1555518356,0.7139143,0.014513926,-0.05070385,0.69824415,0.99968505,-2.974825e-10,4.4255995e-11,0.025098499,4
1555538345,0.71407497,0.013510947,-0.052315775,0.69798106,0.99968505,-2.974825e-10,4.4255995e-11,0.025098499,4
1555558333,0.7136082,0.012234851,-0.055300478,0.6982518,0.99968505,-2.974825e-10,4.4255995e-11,0.025098499,4
1555578321,0.713738,0.010613787,-0.057625193,0.6979576,0.99968505,-2.974825e-10,4.4255995e-11,0.025098499,4
1555598309,0.71386814,0.009808358,-0.05868576,0.69774795,0.99968505,-2.974825e-10,4.4255995e-11,0.025098499,4
1555618298,0.71362054,0.009693878,-0.05932937,0.69794834,0.99968505,-2.974825e-10,4.4255995e-11,0.025098499,4
1555638289,0.7136988,0.00909942,-0.060564335,0.69777024,0.99968505,-2.974825e-10,4.4255995e-11,0.025098499,4
1555658275,0.71365005,0.007909513,-0.0632902,0.6975926,0.99968505,-2.974825e-10,4.4255995e-11,0.025098499,4
1555678264,0.71342087,0.0059445673,-0.066301554,0.6975669,0.99968505,-2.974825e-10,4.4255995e-11,0.025098499,4
1555698256,0.7133587,0.0055091097,-0.06807259,0.69746345,0.99968505,-2.974825e-10,4.4255995e-11,0.025098499,4
1555718242,0.7133791,0.006095987,-0.06893388,0.69735307,0.99968505,-2.974825e-10,4.4255995e-11,0.025098499,4
1555738231,0.71328557,0.0052256333,-0.0703801,0.6973113,0.99968505,-2.974825e-10,4.4255995e-11,0.025098499,4
1555758219,0.7131747,0.0034841716,-0.07314513,0.697151,0.99968505,-2.974825e-10,4.4255995e-11,0.025098499,4
1555778207,0.7128825,0.0029445018,-0.07574043,0.6971752,0.99968505,-2.974825e-10,4.4255995e-11,0.025098499,4
1555798195,0.7130513,0.0016167001,-0.07825442,0.6967291,0.99968505,-2.974825e-10,4.4255995e-11,0.025098499,4
1555818185,0.71267796,0.0015890202,-0.08012643,0.69689846,0.99968505,-2.974825e-10,4.4255995e-11,0.025098499,4
1555838174,0.7126482,0.0017411323,-0.08144316,0.6967758,0.99968505,-2.974825e-10,4.4255995e-11,0.025098499,4
1555858162,0.71250516,0.00085865316,-0.084232725,0.6965921,0.99968505,-2.974825e-10,4.4255995e-11,0.025098499,4
1555878150,0.712354,0.0008075849,-0.08719217,0.6963825,0.99968505,-2.974825e-10,4.4255995e-11,0.025098499,4
1555898139,0.71213526,-0.00018965942,-0.08997437,0.6962528,0.99968505,-2.974825e-10,4.4255995e-11,0.025098499,4
1555918127,0.7119086,0.00040217754,-0.09217716,0.6961964,0.99968505,-2.974825e-10,4.4255995e-11,0.025098499,4
1555938116,0.7119096,0.0001634788,-0.09365903,0.6959977,0.99968505,-2.974825e-10,4.4255995e-11,0.025098499,4
1555958104,0.711994,-0.00068824424,-0.09577798,0.69562256,0.99968505,-2.974825e-10,4.4255995e-11,0.025098499,4
1555978093,0.7117125,-0.00048792223,-0.09757314,0.6956613,0.99968505,-2.974825e-10,4.4255995e-11,0.025098499,4
1555998081,0.71169746,-0.0011668219,-0.09879232,0.69550383,0.99968505,-2.974825e-10,4.4255995e-11,0.025098499,4
1556018070,0.71175855,1.03821985e-05,-0.100229345,0.6952366,0.99968505,-2.974825e-10,4.4255995e-11,0.025098499,4
1556038059,0.71160334,-0.00034786717,-0.10151464,0.6952089,0.99968505,-2.974825e-10,4.4255995e-11,0.025098499,4
1556058047,0.7114643,0.00013621624,-0.102994315,0.6951336,0.99968505,-2.974825e-10,4.4255995e-11,0.025098499,4
1556078036,0.7114018,-0.0011046404,-0.10429904,0.6950022,0.99968505,-2.974825e-10,4.4255995e-11,0.025098499,4
1556098026,0.7114959,-0.0011594031,-0.105631925,0.6947044,0.99968505,-2.974825e-10,4.4255995e-11,0.025098499,4
1556118015,0.71136653,-0.0011853403,-0.106267,0.69473994,0.99968505,-2.974825e-10,4.4255995e-11,0.025098499,4
1556138004,0.7113342,-0.0020454712,-0.10678831,0.6946911,0.99968505,-2.974825e-10,4.4255995e-11,0.025098499,4
1556157992,0.7113792,-0.0020623226,-0.10754802,0.6945279,0.99968505,-2.974825e-10,4.4255995e-11,0.025098499,4
1556182978,0.7114719,-0.0023873686,-0.10924662,0.69416666,0.99968505,-2.974825e-10,4.4255995e-11,0.025098499,4
1556197968,0.7113393,-0.002161965,-0.10982475,0.6942121,0.99968505,-2.974825e-10,4.4255995e-11,0.025098499,4
1556217958,0.7114101,-0.002367587,-0.110074565,0.6940992,0.99968505,-2.974825e-10,4.4255995e-11,0.025098499,4
1556242942,0.71165794,-0.002607647,-0.11079197,0.6937301,0.99968505,-2.974825e-10,4.4255995e-11,0.025098499,4
1556257935,0.7117737,-0.0033226523,-0.111542396,0.693488,0.99968505,-2.974825e-10,4.4255995e-11,0.025098499,4
1556277927,0.71173,-0.0037267131,-0.112369,0.69339734,0.99968505,-2.974825e-10,4.4255995e-11,0.025098499,4
1556302908,0.71178347,-0.002452461,-0.11257301,0.693315,0.99968505,-2.974825e-10,4.4255995e-11,0.025098499,4
1556322896,0.71199834,-0.0019939693,-0.11306794,0.6930152,0.99968505,-2.974825e-10,4.4255995e-11,0.025098499,4
1556337890,0.7119073,-0.0021454233,-0.11354612,0.69303006,0.99968505,-2.974825e-10,4.4255995e-11,0.025098499,4
1556357877,0.7117319,-0.0022111489,-0.11428898,0.69308794,0.99968505,-2.974825e-10,4.4255995e-11,0.025098499,4
1556382862,0.7118096,-0.002044131,-0.115184516,0.6928604,0.99968505,-2.974825e-10,4.4255995e-11,0.025098499,4
1556397855,0.71170485,-0.002163198,-0.115918025,0.6928453,0.99968505,-2.974825e-10,4.4255995e-11,0.025098499,4
1556417843,0.7115741,-0.0019641349,-0.11649573,0.6928834,0.99968505,-2.974825e-10,4.4255995e-11,0.025098499,4
1556437831,0.71144825,-0.0012262315,-0.11724538,0.6928877,0.99968505,-2.974825e-10,4.4255995e-11,0.025098499,4
1556462818,0.7113578,-0.0010551504,-0.11862306,0.6927464,0.99968505,-2.974825e-10,4.4255995e-11,0.025098499,4
1556477808,0.7111497,-0.00043809685,-0.118842535,0.6929231,0.99968505,-2.974825e-10,4.4255995e-11,0.025098499,4
1556497796,0.71101,-0.00019503903,-0.11928276,0.69299096,0.99968505,-2.974825e-10,4.4255995e-11,0.025098499,4
1556522782,0.71099323,0.00040548673,-0.12051716,0.69279444,0.99968505,-2.974825e-10,4.4255995e-11,0.025098499,4
1556537774,0.7106015,0.0015657769,-0.12133899,0.69305116,0.99968505,-2.974825e-10,4.4255995e-11,0.025098499,4
1556557762,0.7103644,0.0017062026,-0.12230126,0.6931248,0.99968505,-2.974825e-10,4.4255995e-11,0.025098499,4
1556577752,0.7102377,0.0016004011,-0.1232773,0.69308203,0.99968505,-2.974825e-10,4.4255995e-11,0.025098499,4
1556602736,0.71024406,0.002194606,-0.12421726,0.69290596,0.99968505,-2.974825e-10,4.4255995e-11,0.025098499,4
1556617729,0.70980054,0.0028551242,-0.124950334,0.6932261,0.99968505,-2.974825e-10,4.4255995e-11,0.025098499,4
1556642713,0.70979893,0.0029633555,-0.1265979,0.6929284,0.99968505,-2.974825e-10,4.4255995e-11,0.025098499,4
1556662702,0.7097164,0.0024039268,-0.12806156,0.69274616,0.99968505,-2.974825e-10,4.4255995e-11,0.025098499,4
1556677695,0.70935977,0.0029115288,-0.12883542,0.6929659,0.99968505,-2.974825e-10,4.4255995e-11,0.025098499,4
1556697682,0.7094529,0.0032722524,-0.12957941,0.6927302,0.99968505,-2.974825e-10,4.4255995e-11,0.025098499,4
1556717671,0.7095644,0.003694181,-0.13031463,0.6924759,0.99968505,-2.974825e-10,4.4255995e-11,0.025098499,4
1556737660,0.7095079,0.0051474785,-0.13126326,0.69234526,0.99968505,-2.974825e-10,4.4255995e-11,0.025098499,4
1556757648,0.709186,0.0061984262,-0.13242467,0.69244534,0.99968505,-2.974825e-10,4.4255995e-11,0.025098499,4
1556777637,0.70917726,0.007343733,-0.13345595,0.6922451,0.99968505,-2.974825e-10,4.4255995e-11,0.025098499,4
1556802622,0.7093002,0.007856763,-0.1350501,0.6918041,0.99968505,-2.974825e-10,4.4255995e-11,0.025098499,4
1556817614,0.709364,0.0078301905,-0.13554077,0.6916431,0.99968505,-2.974825e-10,4.4255995e-11,0.025098499,4
1556837602,0.70921695,0.008321778,-0.1360629,0.6916857,0.99968505,-2.974825e-10,4.4255995e-11,0.025098499,4
1556857592,0.7094736,0.008602563,-0.13661058,0.69131094,0.99968505,-2.974825e-10,4.4255995e-11,0.025098499,4
1556882577,0.70963806,0.008785591,-0.13726822,0.69100946,0.99968505,-2.974825e-10,4.4255995e-11,0.025098499,4
1556897569,0.7096718,0.008527234,-0.13772638,0.6908869,0.99968505,-2.974825e-10,4.4255995e-11,0.025098499,4
1556917557,0.70975655,0.008450824,-0.13848338,0.69064945,0.99968505,-2.974825e-10,4.4255995e-11,0.025098499,4
1556942542,0.7100745,0.008300324,-0.1391305,0.6901943,0.99968505,-2.974825e-10,4.4255995e-11,0.025098499,4
1556957534,0.70987684,0.008812822,-0.13907765,0.69040185,0.99968505,-2.974825e-10,4.4255995e-11,0.025098499,4
1556977523,0.710185,0.009402938,-0.1392541,0.6900415,0.99968505,-2.974825e-10,4.4255995e-11,0.025098499,4
1556997512,0.71031433,0.009521098,-0.13969639,0.6898173,0.99968505,-2.974825e-10,4.4255995e-11,0.025098499,4
1557017500,0.7102055,0.009524464,-0.14038186,0.6897901,0.99968505,-2.974825e-10,4.4255995e-11,0.025098499,4
1557037489,0.7101699,0.009551717,-0.14150509,0.6895968,0.99968505,-2.974825e-10,4.4255995e-11,0.025098499,4
1557057479,0.71039474,0.009170018,-0.14269444,0.6891252,0.99968505,-2.974825e-10,4.4255995e-11,0.025098499,4
1557082463,0.71031433,0.009566635,-0.14267816,0.6892061,0.99968505,-2.974825e-10,4.4255995e-11,0.025098499,4
1557097454,0.7103721,0.009928556,-0.1423057,0.6892185,0.99968505,-2.974825e-10,4.4255995e-11,0.025098499,4
1557117443,0.71027815,0.010906616,-0.14264296,0.68923074,0.99968505,-2.974825e-10,4.4255995e-11,0.025098499,4
1557137431,0.7101969,0.011451432,-0.1438699,0.68905056,0.99968505,-2.974825e-10,4.4255995e-11,0.025098499,4
1557157420,0.70977104,0.011675051,-0.14478993,0.68929285,0.99968505,-2.974825e-10,4.4255995e-11,0.025098499,4
1557177409,0.70987236,0.012264871,-0.14535291,0.68905985,0.99968505,-2.974825e-10,4.4255995e-11,0.025098499,4
1557197397,0.70972806,0.012429011,-0.14590883,0.68908805,0.99968505,-2.974825e-10,4.4255995e-11,0.025098499,4
1557222383,0.709466,0.012728924,-0.1466745,0.68918985,0.99968505,-2.974825e-10,4.4255995e-11,0.025098499,4
1557237375,0.70957714,0.012880461,-0.14712037,0.6889775,0.99968505,-2.974825e-10,4.4255995e-11,0.025098499,4
1557257363,0.7093249,0.012676836,-0.14806154,0.68903935,0.99968505,-2.974825e-10,4.4255995e-11,0.025098499,4
1557282348,0.7091361,0.012454242,-0.14900555,0.6890343,0.99968505,-2.974825e-10,4.4255995e-11,0.025098499,4
1557297340,0.709213,0.012024412,-0.14954402,0.68884605,0.99968505,-2.974825e-10,4.4255995e-11,0.025098499,4
1557317328,0.7092983,0.011923859,-0.15041935,0.6885694,0.99968505,-2.974825e-10,4.4255995e-11,0.025098499,4
1557337318,0.70903105,0.012203347,-0.15104228,0.6887034,0.99968505,-2.974825e-10,4.4255995e-11,0.025098499,4
1557362303,0.7090037,0.012635205,-0.15209219,0.68849266,0.99968505,-2.974825e-10,4.4255995e-11,0.025098499,4
1557377294,0.7091279,0.012210326,-0.15267722,0.6882429,0.99968505,-2.974825e-10,4.4255995e-11,0.025098499,4
1557397283,0.708923,0.011939052,-0.15296668,0.6883945,0.99968505,-2.974825e-10,4.4255995e-11,0.025098499,4
1557417271,0.7091343,0.011732715,-0.15304373,0.68816316,0.99968505,-2.974825e-10,4.4255995e-11,0.025098499,4
1557437261,0.7093176,0.011253015,-0.15337458,0.68790853,0.99968505,-2.974825e-10,4.4255995e-11,0.025098499,4
1557457249,0.70907736,0.01109086,-0.15356357,0.6881167,0.99968505,-2.974825e-10,4.4255995e-11,0.025098499,4
1557477237,0.70934945,0.011099087,-0.15385982,0.6877699,0.99968505,-2.974825e-10,4.4255995e-11,0.025098499,4
1557502223,0.7094792,0.010291361,-0.15395144,0.6876281,0.99968505,-2.974825e-10,4.4255995e-11,0.025098499,4
1557517214,0.7095114,0.009823035,-0.15387698,0.6876184,0.99968505,-2.974825e-10,4.4255995e-11,0.025098499,4
1557537204,0.7098945,0.008899998,-0.1540114,0.6872053,0.99968505,-2.974825e-10,4.4255995e-11,0.025098499,4
1557562189,0.7099287,0.00821179,-0.15438625,0.6870945,0.99968505,-2.974825e-10,4.4255995e-11,0.025098499,4
1557577180,0.7099963,0.0074950173,-0.15442167,0.68702483,0.99968505,-2.974825e-10,4.4255995e-11,0.025098499,4
1557597169,0.71045595,0.007131716,-0.15474549,0.6864804,0.99968505,-2.974825e-10,4.4255995e-11,0.025098499,4
1557622156,0.7104261,0.0065009953,-0.15398781,0.686688,0.99968505,-2.974825e-10,4.4255995e-11,0.025098499,4
1557642143,0.7107203,0.0056798775,-0.15400772,0.6863863,0.99968505,-2.974825e-10,4.4255995e-11,0.025098499,4
1557657134,0.7108955,0.0056017064,-0.15442775,0.68611103,0.99968505,-2.974825e-10,4.4255995e-11,0.025098499,4
1557677123,0.7106559,0.00558442,-0.15481907,0.68627113,0.99968505,-2.974825e-10,4.4255995e-11,0.025098499,4
1557702111,0.7107313,0.0059296126,-0.15504754,0.68613863,0.99968505,-2.974825e-10,4.4255995e-11,0.025098499,4
1557717100,0.7108217,0.0059607555,-0.15486015,0.686087,0.99968505,-2.974825e-10,4.4255995e-11,0.025098499,4
1557737090,0.710519,0.0058803246,-0.15465583,0.6864472,0.99968505,-2.974825e-10,4.4255995e-11,0.025098499,4
1557757078,0.710483,0.005133253,-0.15492779,0.6864292,0.99968505,-2.974825e-10,4.4255995e-11,0.025098499,4
1557782065,0.7105189,0.0051578847,-0.15589285,0.6861733,0.99968505,-2.974825e-10,4.4255995e-11,0.025098499,4
1557797055,0.7101228,0.004918021,-0.1563935,0.6864711,0.99968505,-2.974825e-10,4.4255995e-11,0.025098499,4
1557817044,0.7101729,0.0043287496,-0.15616836,0.6864745,0.99968505,-2.974825e-10,4.4255995e-11,0.025098499,4
1557842029,0.7101685,0.0048802104,-0.15615675,0.68647796,0.99968505,-2.974825e-10,4.4255995e-11,0.025098499,4
1557857020,0.70997393,0.004539532,-0.15667874,0.68656266,0.99968505,-2.974825e-10,4.4255995e-11,0.025098499,4
1557877009,0.7095246,0.004526247,-0.15767963,0.68679804,0.99968505,-2.974825e-10,4.4255995e-11,0.025098499,4
1557896998,0.7095409,0.004749604,-0.1587109,0.68654215,0.99968505,-2.974825e-10,4.4255995e-11,0.025098499,4
1557921989,0.709166,0.004718946,-0.15903994,0.68685347,0.99968505,-2.974825e-10,4.4255995e-11,0.025098499,4
1557936975,0.7090136,0.005449168,-0.15900858,0.6870127,0.99968505,-2.974825e-10,4.4255995e-11,0.025098499,4
1557956963,0.7089548,0.0052176504,-0.15966345,0.6869232,0.99968505,-2.974825e-10,4.4255995e-11,0.025098499,4
1557981957,0.708579,0.0052719833,-0.16078764,0.6870483,0.99968505,-2.974825e-10,4.4255995e-11,0.025098499,4
1557996940,0.70846933,0.0052864105,-0.16086085,0.6871442,0.99968505,-2.974825e-10,4.4255995e-11,0.025098499,4
1558016929,0.70863694,0.0054273847,-0.160903,0.68696034,0.99968505,-2.974825e-10,4.4255995e-11,0.025098499,4
1558036919,0.70835775,0.0052062296,-0.16066033,0.68730676,0.99968505,-2.974825e-10,4.4255995e-11,0.025098499,4
1558061906,0.70849997,0.005482482,-0.16077442,0.6871312,0.99968505,-2.974825e-10,4.4255995e-11,0.025098499,4
1558076895,0.708406,0.0049330015,-0.16147445,0.68706816,0.99968505,-2.974825e-10,4.4255995e-11,0.025098499,4
1558096883,0.7082547,0.0040040906,-0.16191968,0.68712544,0.99968505,-2.974825e-10,4.4255995e-11,0.025098499,4
1558121871,0.7084574,0.0037947572,-0.16189568,0.6869232,0.99968505,-2.974825e-10,4.4255995e-11,0.025098499,4
1558136862,0.7084398,0.0035796368,-0.16190024,0.6869415,0.99968505,-2.974825e-10,4.4255995e-11,0.025098499,4
1558156851,0.70863265,0.0033347716,-0.16157135,0.6868212,0.99968505,-2.974825e-10,4.4255995e-11,0.025098499,4
1558176839,0.70864075,0.0024533684,-0.1613505,0.6868685,0.99968505,-2.974825e-10,4.4255995e-11,0.025098499,4
1558201824,0.7090876,0.0020941705,-0.16168869,0.6863288,0.99968505,-2.974825e-10,4.4255995e-11,0.025098499,4
1558216816,0.708911,0.0023233201,-0.16166027,0.6865171,0.99968505,-2.974825e-10,4.4255995e-11,0.025098499,4
1558236804,0.70902646,0.002250147,-0.16135521,0.68647,0.99968505,-2.974825e-10,4.4255995e-11,0.025098499,4
1558261789,0.7092638,0.0024957983,-0.16142781,0.68620676,0.99968505,-2.974825e-10,4.4255995e-11,0.025098499,4
1558276781,0.70930624,0.0022906594,-0.1614525,0.68615776,0.99968505,-2.974825e-10,4.4255995e-11,0.025098499,4
1558296769,0.7093855,0.0020463662,-0.1612188,0.68613154,0.99968505,-2.974825e-10,4.4255995e-11,0.025098499,4
1558316758,0.709675,0.0021265969,-0.16106759,0.6858675,0.99968505,-2.974825e-10,4.4255995e-11,0.025098499,4
1558341747,0.70977825,0.0024494885,-0.16067451,0.6858517,0.99968505,-2.974825e-10,4.4255995e-11,0.025098499,4
1558356736,0.70959973,0.0023188903,-0.16098393,0.6859644,0.99968505,-2.974825e-10,4.4255995e-11,0.025098499,4
1558376724,0.70980287,0.0019915367,-0.16219418,0.68547,0.99968505,-2.974825e-10,4.4255995e-11,0.025098499,4
1558401712,0.70947164,0.0022150937,-0.16259722,0.68571657,0.99968505,-2.974825e-10,4.4255995e-11,0.025098499,4
1558416701,0.7094178,0.0028092696,-0.16254544,0.6857825,0.99968505,-2.974825e-10,4.4255995e-11,0.025098499,4
1558436691,0.7096814,0.0034626706,-0.16247235,0.685524,0.99968505,-2.974825e-10,4.4255995e-11,0.025098499,4
1558456679,0.7093483,0.004005807,-0.16302061,0.6857356,0.99968505,-2.974825e-10,4.4255995e-11,0.025098499,4
1558481664,0.70904225,0.0042498885,-0.16395018,0.68582904,0.99968505,-2.974825e-10,4.4255995e-11,0.025098499,4
1558496655,0.70891446,0.004696436,-0.16441251,0.6858476,0.99968505,-2.974825e-10,4.4255995e-11,0.025098499,4
1558516644,0.70880383,0.0049160835,-0.1652035,0.6857703,0.99968505,-2.974825e-10,4.4255995e-11,0.025098499,4
1558541635,0.70827484,0.006350118,-0.16536096,0.68626684,0.99968505,-2.974825e-10,4.4255995e-11,0.025098499,4
1558556621,0.70839095,0.006602307,-0.1656965,0.68606365,0.99968505,-2.974825e-10,4.4255995e-11,0.025098499,4
1558576611,0.7080983,0.006673631,-0.16637681,0.68620044,0.99968505,-2.974825e-10,4.4255995e-11,0.025098499,4
1558596598,0.70795465,0.0064362087,-0.16679664,0.686249,0.99968505,-2.974825e-10,4.4255995e-11,0.025098499,4
1558621586,0.7077609,0.0077586668,-0.16776606,0.68619895,0.99968505,-2.974825e-10,4.4255995e-11,0.025098499,4
1558636575,0.7075244,0.008278081,-0.16811232,0.6863519,0.99968505,-2.974825e-10,4.4255995e-11,0.025098499,4
1558656564,0.70732474,0.008834705,-0.16861965,0.6864264,0.99968505,-2.974825e-10,4.4255995e-11,0.025098499,4
1558681551,0.70736694,0.008363285,-0.16945116,0.686184,0.99968505,-2.974825e-10,4.4255995e-11,0.025098499,4
1558696541,0.7073322,0.0083530145,-0.16991565,0.686105,0.99968505,-2.974825e-10,4.4255995e-11,0.025098499,4
1558716530,0.70702076,0.008803518,-0.17003867,0.6863899,0.99968505,-2.974825e-10,4.4255995e-11,0.025098499,4
1558736518,0.7072016,0.009718683,-0.17005463,0.6861872,0.99968505,-2.974825e-10,4.4255995e-11,0.025098499,4
1558761504,0.7070766,0.009900962,-0.1703436,0.68624175,0.99968505,-2.974825e-10,4.4255995e-11,0.025098499,4
1558776497,0.7070372,0.009417648,-0.17047319,0.68625695,0.99968505,-2.974825e-10,4.4255995e-11,0.025098499,4
1558796486,0.7075704,0.009009264,-0.17011005,0.6858029,0.99968505,-2.974825e-10,4.4255995e-11,0.025098499,4
1558821469,0.70777375,0.008862786,-0.16943984,0.685761,0.99968505,-2.974825e-10,4.4255995e-11,0.025098499,4
1558836461,0.70784396,0.009112873,-0.16893072,0.68581074,0.99968505,-2.974825e-10,4.4255995e-11,0.025098499,4
1558856450,0.7079175,0.008400762,-0.16899982,0.6857268,0.99968505,-2.974825e-10,4.4255995e-11,0.025098499,4
1558881436,0.7084979,0.008107231,-0.16883406,0.68517166,0.99968505,-2.974825e-10,4.4255995e-11,0.025098499,4
1558896428,0.7084854,0.00781353,-0.16842443,0.6852887,0.99968505,-2.974825e-10,4.4255995e-11,0.025098499,4
1558916416,0.70865303,0.00742947,-0.1682359,0.685166,0.99968505,-2.974825e-10,4.4255995e-11,0.025098499,4
1558936406,0.7091045,0.0074512237,-0.1680519,0.6847437,0.99968505,-2.974825e-10,4.4255995e-11,0.025098499,4
1558961392,0.7089399,0.007608446,-0.16796935,0.68493265,0.99968505,-2.974825e-10,4.4255995e-11,0.025098499,4
1558976386,0.7091883,0.007486746,-0.16792354,0.68468803,0.99968505,-2.974825e-10,4.4255995e-11,0.025098499,4
1558996369,0.7093331,0.0069191083,-0.16842549,0.6844206,0.99968505,-2.974825e-10,4.4255995e-11,0.025098499,4
1559021364,0.70943564,0.007008988,-0.16782446,0.6844611,0.99968505,-2.974825e-10,4.4255995e-11,0.025098499,4
1559036349,0.70944,0.0075174444,-0.16757326,0.68451273,0.99968505,-2.974825e-10,4.4255995e-11,0.025098499,4
1559056335,0.7097019,0.007209018,-0.1679064,0.6841628,0.99968505,-2.974825e-10,4.4255995e-11,0.025098499,4
1559076324,0.7095497,0.0072111366,-0.16774186,0.6843609,0.99968505,-2.974825e-10,4.4255995e-11,0.025098499,4
1559101311,0.70967203,0.0067834086,-0.16833207,0.68409353,0.99968505,-2.974825e-10,4.4255995e-11,0.025098499,4
1559116301,0.7096489,0.0066842246,-0.16894822,0.68396664,0.99968505,-2.974825e-10,4.4255995e-11,0.025098499,4
1559136291,0.7092039,0.0074874624,-0.16934386,0.68432194,0.99968505,-2.974825e-10,4.4255995e-11,0.025098499,4
1559161280,0.70910835,0.008074008,-0.17034656,0.68416536,0.99968505,-2.974825e-10,4.4255995e-11,0.025098499,4
1559176267,0.70881104,0.0082839755,-0.17098686,0.6843112,0.99968505,-2.974825e-10,4.4255995e-11,0.025098499,4
1559196256,0.70872384,0.008439751,-0.1711758,0.68435246,0.99968505,-2.974825e-10,4.4255995e-11,0.025098499,4
1559216245,0.70857,0.009160731,-0.17145835,0.6844317,0.99968505,-2.974825e-10,4.4255995e-11,0.025098499,4
1559241235,0.70813847,0.00988781,-0.17239398,0.68463314,0.99968505,-2.974825e-10,4.4255995e-11,0.025098499,4
1559256224,0.70794743,0.010644383,-0.17279637,0.6847179,0.99968505,-2.974825e-10,4.4255995e-11,0.025098499,4
1559281207,0.70766544,0.010350116,-0.17380552,0.6847585,0.99968505,-2.974825e-10,4.4255995e-11,0.025098499,4
1559301199,0.7075026,0.010425641,-0.17430541,0.68479854,0.99968505,-2.974825e-10,4.4255995e-11,0.025098499,4
1559321184,0.7073891,0.010853139,-0.17459781,0.68483466,0.99968505,-2.974825e-10,4.4255995e-11,0.025098499,4
1559336176,0.70732266,0.011060274,-0.17462291,0.68489367,0.99968505,-2.974825e-10,4.4255995e-11,0.025098499,4
1559356164,0.70701706,0.01128647,-0.1747067,0.68518394,0.99968505,-2.974825e-10,4.4255995e-11,0.025098499,4
1559381150,0.7072449,0.011208045,-0.17482495,0.68492,0.99968505,-2.974825e-10,4.4255995e-11,0.025098499,4
1559401139,0.70697814,0.011139885,-0.17493302,0.6851688,0.99968505,-2.974825e-10,4.4255995e-11,0.025098499,4
1559416131,0.70696086,0.010561936,-0.17495276,0.6851908,0.99968505,-2.974825e-10,4.4255995e-11,0.025098499,4
1559441118,0.70750195,0.010399063,-0.17428367,0.6848052,0.99968505,-2.974825e-10,4.4255995e-11,0.025098499,4
1559461104,0.7072913,0.009864499,-0.173937,0.6851188,0.99968505,-2.974825e-10,4.4255995e-11,0.025098499,4
1559476096,0.7075086,0.010150884,-0.17384002,0.6849147,0.99968505,-2.974825e-10,4.4255995e-11,0.025098499,4
1559496085,0.70758796,0.009443461,-0.17392218,0.684822,0.99968505,-2.974825e-10,4.4255995e-11,0.025098499,4
1559521070,0.7076742,0.008829725,-0.17357002,0.6848304,0.99968505,-2.974825e-10,4.4255995e-11,0.025098499,4
1559541061,0.70811695,0.008468658,-0.17316276,0.68448037,0.99968505,-2.974825e-10,4.4255995e-11,0.025098499,4
1559556052,0.7079114,0.007693335,-0.17286505,0.6847774,0.99968505,-2.974825e-10,4.4255995e-11,0.025098499,4
1559581039,0.7084984,0.007524221,-0.17241377,0.6842857,0.99968505,-2.974825e-10,4.4255995e-11,0.025098499,4
1559601025,0.70842385,0.0071429033,-0.17244218,0.6843599,0.99968505,-2.974825e-10,4.4255995e-11,0.025098499,4
1559616017,0.7084306,0.0070935856,-0.1724551,0.68435013,0.99968505,-2.974825e-10,4.4255995e-11,0.025098499,4
1559641003,0.70892584,0.006821252,-0.17214556,0.68391776,0.99968505,-2.974825e-10,4.4255995e-11,0.025098499,4
1559660990,0.7088948,0.0064133224,-0.17140801,0.68413913,0.99968505,-2.974825e-10,4.4255995e-11,0.025098499,4
1559680979,0.7091522,0.0058960114,-0.171521,0.68384874,0.99968505,-2.974825e-10,4.4255995e-11,0.025098499,4
1559695970,0.70918447,0.0057981685,-0.17152604,0.6838148,0.99968505,-2.974825e-10,4.4255995e-11,0.025098499,4
1559720956,0.7091788,0.00575684,-0.17174818,0.6837653,0.99968505,-2.974825e-10,4.4255995e-11,0.025098499,4
1559740947,0.70917857,0.005830083,-0.17174463,0.6837658,0.99968505,-2.974825e-10,4.4255995e-11,0.025098499,4
1559755936,0.7091052,0.0060820277,-0.17176996,0.6838333,0.99968505,-2.974825e-10,4.4255995e-11,0.025098499,4
1559775925,0.70909417,0.005991857,-0.1722179,0.6837329,0.99968505,-2.974825e-10,4.4255995e-11,0.025098499,4
1559800910,0.7089822,0.0059864437,-0.17308229,0.68363076,0.99968505,-2.974825e-10,4.4255995e-11,0.025098499,4
1559820902,0.7087891,0.0057683154,-0.17332661,0.68377095,0.99968505,-2.974825e-10,4.4255995e-11,0.025098499,4
1559835892,0.7087848,0.0059696836,-0.1737469,0.68366694,0.99968505,-2.974825e-10,4.4255995e-11,0.025098499,4
1559860876,0.7085034,0.0066036214,-0.17429839,0.6838124,0.99968505,-2.974825e-10,4.4255995e-11,0.025098499,4
1559880864,0.7080842,0.0078115743,-0.17483374,0.6840971,0.99968505,-2.974825e-10,4.4255995e-11,0.025098499,4
1559895856,0.7081336,0.0080925,-0.1756354,0.68383735,0.99968505,-2.974825e-10,4.4255995e-11,0.025098499,4
1559920842,0.7074234,0.008319664,-0.17656209,0.68433094,0.99968505,-2.974825e-10,4.4255995e-11,0.025098499,4
1559940831,0.7075391,0.008558775,-0.17706133,0.68407935,0.99968505,-2.974825e-10,4.4255995e-11,0.025098499,4
1559960819,0.70718527,0.009497918,-0.17764845,0.6842805,0.99968505,-2.974825e-10,4.4255995e-11,0.025098499,4
1559975810,0.70676595,0.010408535,-0.17775437,0.6846729,0.99968505,-2.974825e-10,4.4255995e-11,0.025098499,4
1560000798,0.706647,0.01150029,-0.17868121,0.684537,0.99968505,-2.974825e-10,4.4255995e-11,0.025098499,4
1560020785,0.7062408,0.0116594015,-0.17917313,0.6848249,0.99968505,-2.974825e-10,4.4255995e-11,0.025098499,4
1560035778,0.70613235,0.012099628,-0.17954946,0.6848305,0.99968505,-2.974825e-10,4.4255995e-11,0.025098499,4
1560060762,0.706093,0.011215327,-0.1801863,0.6847188,0.99968505,-2.974825e-10,4.4255995e-11,0.025098499,4
1560080751,0.70598453,0.011334136,-0.1800752,0.6848579,0.99968505,-2.974825e-10,4.4255995e-11,0.025098499,4
1560100739,0.7061618,0.011606423,-0.17969325,0.6847709,0.99968505,-2.974825e-10,4.4255995e-11,0.025098499,4
1560115732,0.706145,0.01155343,-0.17943966,0.6848557,0.99968505,-2.974825e-10,4.4255995e-11,0.025098499,4
1560140718,0.70626646,0.010807211,-0.17953008,0.68471885,0.99968505,-2.974825e-10,4.4255995e-11,0.025098499,4
1560160705,0.7064697,0.009947723,-0.17914024,0.68462425,0.99968505,-2.974825e-10,4.4255995e-11,0.025098499,4
1560175698,0.70666814,0.009669794,-0.17862871,0.6845571,0.99968505,-2.974825e-10,4.4255995e-11,0.025098499,4
1560200684,0.7069719,0.009620204,-0.17744195,0.6845529,0.99968505,-2.974825e-10,4.4255995e-11,0.025098499,4
1560220671,0.7072689,0.008935496,-0.17727749,0.68429786,0.99968505,-2.974825e-10,4.4255995e-11,0.025098499,4
1560235667,0.7074888,0.00837659,-0.17690876,0.6841731,0.99968505,-2.974825e-10,4.4255995e-11,0.025098499,4
1560255652,0.70781916,0.007703733,-0.17682146,0.68386185,0.99968505,-2.974825e-10,4.4255995e-11,0.025098499,4
1560280637,0.7082135,0.007193323,-0.1760002,0.6836709,0.99968505,-2.974825e-10,4.4255995e-11,0.025098499,4
1560300625,0.70839727,0.006907483,-0.1756149,0.6835826,0.99968505,-2.974825e-10,4.4255995e-11,0.025098499,4
1560315617,0.7087682,0.0064703207,-0.17551866,0.683227,0.99968505,-2.974825e-10,4.4255995e-11,0.025098499,4
1560340603,0.70885235,0.005586409,-0.17532194,0.6831979,0.99968505,-2.974825e-10,4.4255995e-11,0.025098499,4
1560360591,0.70922047,0.0051371655,-0.17484836,0.6829408,0.99968505,-2.974825e-10,4.4255995e-11,0.025098499,4
1560380580,0.70959216,0.005135631,-0.17430755,0.6826929,0.99968505,-2.974825e-10,4.4255995e-11,0.025098499,4
1560395571,0.70941734,0.005249175,-0.17405795,0.6829374,0.99968505,-2.974825e-10,4.4255995e-11,0.025098499,4
1560420557,0.7097181,0.0049918247,-0.17466801,0.68247086,0.99968505,-2.974825e-10,4.4255995e-11,0.025098499,4
1560440546,0.70950395,0.004614345,-0.17534451,0.6825227,0.99968505,-2.974825e-10,4.4255995e-11,0.025098499,4
1560455538,0.70947665,0.0046669585,-0.17555593,0.68249637,0.99968505,-2.974825e-10,4.4255995e-11,0.025098499,4
1560480523,0.7095115,0.00527111,-0.17538752,0.6824991,0.99968505,-2.974825e-10,4.4255995e-11,0.025098499,4
1560500512,0.7092641,0.0056585963,-0.17572562,0.68266606,0.99968505,-2.974825e-10,4.4255995e-11,0.025098499,4
1560520500,0.70914286,0.0066086943,-0.17648421,0.6825878,0.99968505,-2.974825e-10,4.4255995e-11,0.025098499,4
1560540490,0.7087009,0.0065608956,-0.17718191,0.6828665,0.99968505,-2.974825e-10,4.4255995e-11,0.025098499,4
1560560477,0.7084739,0.0077351374,-0.17795014,0.6828899,0.99968505,-2.974825e-10,4.4255995e-11,0.025098499,4
1560575468,0.70817477,0.008245188,-0.17861068,0.68302184,0.99968505,-2.974825e-10,4.4255995e-11,0.025098499,4
1560595457,0.7076009,0.009045838,-0.17954239,0.68336207,0.99968505,-2.974825e-10,4.4255995e-11,0.025098499,4
1560620443,0.70734006,0.009685513,-0.18072405,0.6833119,0.99968505,-2.974825e-10,4.4255995e-11,0.025098499,4
1560640433,0.70671827,0.010610571,-0.18160184,0.68370867,0.99968505,-2.974825e-10,4.4255995e-11,0.025098499,4
1560660420,0.7065991,0.011062832,-0.18234271,0.6836275,0.99968505,-2.974825e-10,4.4255995e-11,0.025098499,4
1560675411,0.7062375,0.012181226,-0.18274316,0.68387514,0.99968505,-2.974825e-10,4.4255995e-11,0.025098499,4
1560700397,0.70600384,0.0122519545,-0.18293977,0.68406254,0.99968505,-2.974825e-10,4.4255995e-11,0.025098499,4
1560720386,0.70596534,0.012831264,-0.18290159,0.6841018,0.99968505,-2.974825e-10,4.4255995e-11,0.025098499,4
1560735379,0.7056643,0.013026658,-0.1832488,0.6843158,0.99968505,-2.974825e-10,4.4255995e-11,0.025098499,4
1560760364,0.7055611,0.0140606,-0.18319996,0.6844148,0.99968505,-2.974825e-10,4.4255995e-11,0.025098499,4
1560780352,0.7055958,0.013668752,-0.18297003,0.6844486,0.99968505,-2.974825e-10,4.4255995e-11,0.025098499,4
1560800340,0.70568925,0.013087128,-0.18277381,0.684416,0.99968505,-2.974825e-10,4.4255995e-11,0.025098499,4
1560820329,0.70583016,0.013541323,-0.18248552,0.68433875,0.99968505,-2.974825e-10,4.4255995e-11,0.025098499,4
1560840319,0.7058791,0.013090042,-0.1819028,0.6844522,0.99968505,-2.974825e-10,4.4255995e-11,0.025098499,4
1560860306,0.70617616,0.012649114,-0.18157576,0.6842409,0.99968505,-2.974825e-10,4.4255995e-11,0.025098499,4
1560880294,0.70642275,0.012207645,-0.18040577,0.68430376,0.99968505,-2.974825e-10,4.4255995e-11,0.025098499,4
1560900283,0.7066769,0.011382167,-0.17989984,0.6841888,0.99968505,-2.974825e-10,4.4255995e-11,0.025098499,4
1560920272,0.70708144,0.010826382,-0.17968675,0.6838358,0.99968505,-2.974825e-10,4.4255995e-11,0.025098499,4
1560940260,0.70705163,0.010513744,-0.17880835,0.6841017,0.99968505,-2.974825e-10,4.4255995e-11,0.025098499,4
1560960249,0.7077261,0.0099745635,-0.17846854,0.6835008,0.99968505,-2.974825e-10,4.4255995e-11,0.025098499,4
1560980238,0.7078922,0.0093592005,-0.1777822,0.6835163,0.99968505,-2.974825e-10,4.4255995e-11,0.025098499,4
1561000226,0.70824176,0.008812786,-0.17706592,0.6833474,0.99968505,-2.974825e-10,4.4255995e-11,0.025098499,4
1561020215,0.7086898,0.008430391,-0.17684057,0.6829459,0.99968505,-2.974825e-10,4.4255995e-11,0.025098499,4
1561040203,0.70885265,0.008055953,-0.17599493,0.6829999,0.99968505,-2.974825e-10,4.4255995e-11,0.025098499,4
1561060192,0.70917326,0.0075807367,-0.17589602,0.68269795,0.99968505,-2.974825e-10,4.4255995e-11,0.025098499,4
1561080181,0.7094149,0.007384009,-0.17585725,0.68245906,0.99968505,-2.974825e-10,4.4255995e-11,0.025098499,4
1561100169,0.70953476,0.00735645,-0.1752759,0.68248427,0.99968505,-2.974825e-10,4.4255995e-11,0.025098499,4
1561120158,0.70957047,0.007306263,-0.17515914,0.6824776,0.99968505,-2.974825e-10,4.4255995e-11,0.025098499,4
1561140146,0.7097426,0.007588107,-0.17524014,0.6822747,0.99968505,-2.974825e-10,4.4255995e-11,0.025098499,4
1561160135,0.7095263,0.0076694842,-0.17535423,0.6824694,0.99968505,-2.974825e-10,4.4255995e-11,0.025098499,4
1561180123,0.70951444,0.007710821,-0.17550425,0.6824428,0.99968505,-2.974825e-10,4.4255995e-11,0.025098499,4
