timestamp,ref_timestamp,ref_lat,ref_lon,x,y,z,delta_xy[0],delta_xy[1],delta_z,vx,vy,vz,z_deriv,delta_vxy[0],delta_vxy[1],delta_vz,ax,ay,az,heading,delta_heading,ref_alt,dist_bottom,eph,epv,evh,evv,vxy_max,vz_max,hagl_min,hagl_max,xy_valid,z_valid,v_xy_valid,v_z_valid,xy_reset_counter,z_reset_counter,vxy_reset_counter,vz_reset_counter,heading_reset_counter,xy_global,z_global,dist_bottom_valid
1550291344,0,0.0,0.0,1.0065283,1.0297976,-0.07302248,1.1408086,0.91646695,-0.5153563,0.0024687015,0.0032380521,-0.00054636423,-0.000110410394,0.0075655105,0.026621034,-0.08130991,-0.012988966,0.008211474,0.008832917,1.5303737,0.050202265,0.0,0.10043856,0.033535633,0.016925165,0.058515187,0.03363722,inf,inf,inf,inf,1,1,1,1,4,3,2,3,4,0,0,1
1550301338,0,0.0,0.0,1.0065318,1.0298115,-0.07301492,1.1408086,0.91646695,-0.5153563,0.0023575518,0.0032692456,-0.0005433276,-0.000102817634,0.0075655105,0.026621034,-0.08130991,0.0081663355,0.013975649,-0.01725903,1.5303807,0.050202265,0.0,0.100433975,0.033044808,0.016925167,0.057998084,0.03363722,inf,inf,inf,inf,1,1,1,1,4,3,2,3,4,0,0,1
1550311340,0,0.0,0.0,1.0065352,1.029827,-0.07300835,1.1408086,0.91646695,-0.5153563,0.0021169928,0.0033989754,-0.00059663376,-0.00015156704,0.0075655105,0.026621034,-0.08130991,-0.02745558,0.015450432,0.007763895,1.5303727,0.050202265,0.0,0.100430176,0.033487987,0.016925167,0.058443397,0.03363722,inf,inf,inf,inf,1,1,1,1,4,3,2,3,4,0,0,1
1550341314,0,0.0,0.0,1.0065451,1.029872,-0.07299348,1.1408086,0.91646695,-0.5153563,0.0025266062,0.0033280996,-0.00086627825,-0.00040761242,0.0075655105,0.026621034,-0.08130991,0.03165217,-0.010089193,0.00032442127,1.5303754,0.050202265,0.0,0.100427136,0.032957133,0.01692517,0.057884566,0.03363722,inf,inf,inf,inf,1,1,1,1,4,3,2,3,4,0,0,1
1550361303,0,0.0,0.0,1.0065562,1.0298975,-0.072985865,1.1408086,0.91646695,-0.5153563,0.0026973817,0.0031477124,-0.0009867932,-0.0005191936,0.0075655105,0.026621034,-0.08130991,0.034313936,-0.025013056,-0.03539142,1.5303514,0.050202265,0.0,0.10043023,0.03291603,0.01692517,0.057846043,0.033637222,inf,inf,inf,inf,1,1,1,1,4,3,2,3,4,0,0,1
1550371298,0,0.0,0.0,1.0065614,1.0299131,-0.07298629,1.1408086,0.91646695,-0.5153563,0.0025420445,0.00324229,-0.0011438944,-0.0006718553,0.0075655105,0.026621034,-0.08130991,0.03936056,-0.15470631,0.08722292,1.5303048,0.050202265,0.0,0.100435965,0.03335655,0.01692517,0.05830124,0.033637226,inf,inf,inf,inf,1,1,1,1,4,3,2,3,4,0,0,1
1550391286,0,0.0,0.0,1.0065738,1.0299416,-0.07298147,1.1408086,0.91646695,-0.5153563,0.002093559,0.0035974935,-0.00029818685,0.00018230347,0.0075655105,0.026621034,-0.08130991,-0.08621639,0.08123528,0.26536718,1.5301968,0.050202265,0.0,0.100438975,0.03331654,0.01692517,0.058276985,0.03363723,inf,inf,inf,inf,1,1,1,1,4,3,2,3,4,0,0,1
1550421269,0,0.0,0.0,1.0066068,1.0299842,-0.07296958,1.1408086,0.91646695,-0.5153563,0.0018207054,0.0034614888,-0.0007989644,-0.00030616578,0.0075655105,0.026621034,-0.08130991,-0.16627236,-0.015857039,0.06894162,1.5302767,0.050202265,0.0,0.10044683,0.032803636,0.01692517,0.057797115,0.033637233,inf,inf,inf,inf,1,1,1,1,4,3,2,3,4,0,0,1
1550441257,0,0.0,0.0,1.0066351,1.0300103,-0.07296593,1.1408086,0.91646695,-0.5153563,0.003935809,0.003957993,-0.0010461117,-0.0005453719,0.0075655105,0.026621034,-0.08130991,-0.016270252,0.053196963,0.080861196,1.5305544,0.050202265,0.0,0.10045645,0.032769814,0.01692517,0.057802018,0.033637233,inf,inf,inf,inf,1,1,1,1,4,3,2,3,4,0,0,1
1550451252,0,0.0,0.0,1.0066481,1.0300249,-0.07296376,1.1408086,0.91646695,-0.5153563,0.002872369,0.0035038386,-0.0008472034,-0.00034263433,0.0075655105,0.026621034,-0.08130991,-0.04704317,-0.06874108,0.057108294,1.5305043,0.050202265,0.0,0.10045929,0.033207934,0.01692517,0.058269814,0.033637237,inf,inf,inf,inf,1,1,1,1,4,3,2,3,4,0,0,1
1550481234,0,0.0,0.0,1.0066897,1.0300565,-0.07294498,1.1408086,0.91646695,-0.5153563,0.0032592162,0.003844834,-0.0006356827,-0.000120312114,0.0075655105,0.026621034,-0.08130991,-0.0743373,0.085402004,-0.08563475,1.530483,0.050202265,0.0,0.100452594,0.032707695,0.01692517,0.057840366,0.033637244,inf,inf,inf,inf,1,1,1,1,4,3,2,3,4,0,0,1
1550501228,0,0.0,0.0,1.0067123,1.0300822,-0.07293965,1.1408086,0.91646695,-0.5153563,0.003658548,0.0040302845,-0.0010976251,-0.00057554484,0.0075655105,0.026621034,-0.08130991,0.09439012,0.01045921,-0.04918073,1.5302747,0.050202265,0.0,0.10045204,0.03267941,0.01692517,0.05787278,0.033637248,inf,inf,inf,inf,1,1,1,1,4,3,2,3,4,0,0,1
1550511217,0,0.0,0.0,1.0067326,1.0300951,-0.07293095,1.1408086,0.91646695,-0.5153563,0.004248268,0.0037527771,-0.00016744662,0.00035785735,0.0075655105,0.026621034,-0.08130991,0.021484658,-0.003882693,-0.019270806,1.530429,0.050202265,0.0,0.10044472,0.033116624,0.01692517,0.05834861,0.033637248,inf,inf,inf,inf,1,1,1,1,4,3,2,3,4,0,0,1
1550531206,0,0.0,0.0,1.0067662,1.0301133,-0.072920285,1.1408086,0.91646695,-0.5153563,0.0040715476,0.003997428,-0.0003390351,0.00019211168,0.0075655105,0.026621034,-0.08130991,0.08428099,0.100346975,-0.13563132,1.5302732,0.050202265,0.0,0.10043406,0.03309006,0.01692517,0.058391634,0.033637255,inf,inf,inf,inf,1,1,1,1,4,3,2,3,4,0,0,1
1550561189,0,0.0,0.0,1.0068114,1.0301542,-0.072907105,1.1408086,0.91646695,-0.5153563,0.0043773125,0.0038337747,-0.0005324738,6.6998355e-06,0.0075655105,0.026621034,-0.08130991,0.11941894,-0.031113783,0.00069707906,1.5302348,0.050202265,0.0,0.10042088,0.0326057,0.01692517,0.058014214,0.033637267,inf,inf,inf,inf,1,1,1,1,4,3,2,3,4,0,0,1
1550581177,0,0.0,0.0,1.0068492,1.0301641,-0.072899565,1.1408086,0.91646695,-0.5153563,0.0029482036,0.0038006296,-0.000873327,-0.0003292241,0.0075655105,0.026621034,-0.08130991,-0.097077906,0.13572325,-0.033930976,1.530353,0.050202265,0.0,0.10041831,0.03258483,0.01692517,0.058076356,0.033637267,inf,inf,inf,inf,1,1,1,1,4,3,2,3,4,0,0,1
1550591172,0,0.0,0.0,1.0068607,1.0301793,-0.072896995,1.1408086,0.91646695,-0.5153563,0.0038108835,0.004631348,-0.0010047811,-0.00045831728,0.0075655105,0.026621034,-0.08130991,0.16047244,0.053367116,-0.0064735673,1.5302829,0.050202265,0.0,0.100417644,0.033021968,0.01692517,0.058562092,0.033637274,inf,inf,inf,inf,1,1,1,1,4,3,2,3,4,0,0,1
1550621154,0,0.0,0.0,1.0069218,1.0301987,-0.07289165,1.1408086,0.91646695,-0.5153563,0.0038354367,0.0036559482,-0.0010060243,-0.00045286914,0.0075655105,0.026621034,-0.08130991,0.1196993,0.17453676,0.036394037,1.5303435,0.050202265,0.0,0.100412644,0.032548655,0.01692517,0.058216747,0.033637278,inf,inf,inf,inf,1,1,1,1,4,3,2,3,4,0,0,1
1550641143,0,0.0,0.0,1.006964,1.0302225,-0.07289046,1.1408086,0.91646695,-0.5153563,0.0043670344,0.0037080504,-0.00083963823,-0.00028244467,0.0075655105,0.026621034,-0.08130991,-0.029677188,-0.092071205,0.062141255,1.5303453,0.050202265,0.0,0.10041514,0.0325333,0.01692517,0.058295544,0.03363728,inf,inf,inf,inf,1,1,1,1,4,3,2,3,4,0,0,1
1550651137,0,0.0,0.0,1.0069832,1.0302314,-0.07288823,1.1408086,0.91646695,-0.5153563,0.0037826404,0.0037173107,-0.0010707122,-0.0005117792,0.0075655105,0.026621034,-0.08130991,-0.020586941,-0.025331093,-0.033256143,1.5303926,0.050202265,0.0,0.10041291,0.03297117,0.01692517,0.05878564,0.03363728,inf,inf,inf,inf,1,1,1,1,4,3,2,3,4,0,0,1
1550671127,0,0.0,0.0,1.0070319,1.0302436,-0.07288815,1.1408086,0.91646695,-0.5153563,0.0040187538,0.0039366274,-0.0012935721,-0.00073133275,0.0075655105,0.026621034,-0.08130991,-0.13474534,0.15326148,0.009954829,1.5303662,0.050202265,0.0,0.10041283,0.032958012,0.01692517,0.058870852,0.03363729,inf,inf,inf,inf,1,1,1,1,4,3,2,3,4,0,0,1
1550701108,0,0.0,0.0,1.0070984,1.0302765,-0.07288806,1.1408086,0.91646695,-0.5153563,0.0044543943,0.0041690757,-0.0012528972,-0.00068676344,0.0075655105,0.026621034,-0.08130991,0.086356856,-0.0016381452,0.015846092,1.5303414,0.050202265,0.0,0.10041274,0.032498036,0.01692517,0.05855111,0.033637296,inf,inf,inf,inf,1,1,1,1,4,3,2,3,4,0,0,1
1550721097,0,0.0,0.0,1.0071479,1.030291,-0.07288536,1.1408086,0.91646695,-0.5153563,0.004352086,0.0038207697,-0.0011678858,-0.0005993761,0.0075655105,0.026621034,-0.08130991,0.031138942,-0.010875371,-0.005629331,1.5303221,0.050202265,0.0,0.10041004,0.03248978,0.01692517,0.058644578,0.033637308,inf,inf,inf,inf,1,1,1,1,4,3,2,3,4,0,0,1
1550731092,0,0.0,0.0,1.0071753,1.0303001,-0.07288513,1.1408086,0.91646695,-0.5153563,0.0049275006,0.0035162421,-0.00049228943,7.736601e-05,0.0075655105,0.026621034,-0.08130991,-0.03391085,-0.15321463,0.15201204,1.5302966,0.050202265,0.0,0.10040981,0.032929525,0.01692517,0.059142776,0.033637304,inf,inf,inf,inf,1,1,1,1,4,3,2,3,4,0,0,1
1550761074,0,0.0,0.0,1.007243,1.0303148,-0.072883666,1.1408086,0.91646695,-0.5153563,0.0049372334,0.004152633,-0.0013231295,-0.00075024343,0.0075655105,0.026621034,-0.08130991,0.08826144,0.27206147,-0.0066510825,1.53032,0.050202265,0.0,0.100408345,0.032478325,0.01692517,0.058837462,0.03363732,inf,inf,inf,inf,1,1,1,1,4,3,2,3,4,0,0,1
1550781064,0,0.0,0.0,1.0072902,1.0303321,-0.072881535,1.1408086,0.91646695,-0.5153563,0.002597471,0.0049434635,-0.00031411392,0.00026077617,0.0075655105,0.026621034,-0.08130991,-0.43548068,0.32929003,0.048986893,1.5302334,0.050202265,0.0,0.100406215,0.032475043,0.01692517,0.058936514,0.03363733,inf,inf,inf,inf,1,1,1,1,4,3,2,3,4,0,0,1
1550791060,0,0.0,0.0,1.0073023,1.0303438,-0.07288628,1.1408086,0.91646695,-0.5153563,0.002061252,0.0026299143,-0.0018125765,-0.0012367459,0.0075655105,0.026621034,-0.08130991,-0.51151264,-0.4675278,0.035836272,1.5302107,0.050202265,0.0,0.10041096,0.03291675,0.01692517,0.059439134,0.03363733,inf,inf,inf,inf,1,1,1,1,4,3,2,3,4,0,0,1
1550821042,0,0.0,0.0,1.0073606,1.0303546,-0.07289365,1.1408086,0.91646695,-0.5153563,0.0028387997,0.007371998,-0.0008147598,-0.00023635715,0.0075655105,0.026621034,-0.08130991,-0.50799954,1.3756967,-0.12945408,1.5302701,0.050202265,0.0,0.10041833,0.032473166,0.01692517,0.059137285,0.033637345,inf,inf,inf,inf,1,1,1,1,4,3,2,3,4,0,0,1
1550841029,0,0.0,0.0,1.0074115,1.0303711,-0.072902165,1.1408086,0.91646695,-0.5153563,0.003957822,0.0029458397,-0.00078420475,-0.00020486087,0.0075655105,0.026621034,-0.08130991,-0.73906195,-0.54041106,0.15757445,1.5301236,0.050202265,0.0,0.100426845,0.032474462,0.016925171,0.059239075,0.03363735,inf,inf,inf,inf,1,1,1,1,4,3,2,3,4,0,0,1
1550861018,0,0.0,0.0,1.0074536,1.0303749,-0.07288853,1.1408086,0.91646695,-0.5153563,0.0034756332,0.000947437,-3.301169e-05,0.00054671674,0.0075655105,0.026621034,-0.08130991,0.0007646142,-0.25785202,0.04346441,1.5303146,0.050202265,0.0,0.10041321,0.032477167,0.016925173,0.0593403,0.033637352,inf,inf,inf,inf,1,1,1,1,4,3,2,3,4,0,0,1
1550871013,0,0.0,0.0,1.0074826,1.0303819,-0.072883174,1.1408086,0.91646695,-0.5153563,0.005911695,0.0055146473,-0.001117617,-0.0005378548,0.0075655105,0.026621034,-0.08130991,0.011400998,0.16075107,-0.17359383,1.5302106,0.050202265,0.0,0.10040785,0.032922037,0.016925173,0.05984748,0.033637356,inf,inf,inf,inf,1,1,1,1,4,3,2,3,4,0,0,1
1550900994,0,0.0,0.0,1.0075444,1.0303853,-0.0728869,1.1408086,0.91646695,-0.5153563,0.0059383255,0.0053963317,-0.001256375,-0.0006764271,0.0075655105,0.026621034,-0.08130991,1.2131668,0.40697035,-0.044396378,1.5301657,0.050202265,0.0,0.10041158,0.032486577,0.016925177,0.05953995,0.033637363,inf,inf,inf,inf,1,1,1,1,4,3,2,3,4,0,0,1
1550920983,0,0.0,0.0,1.0075954,1.0303915,-0.072885595,1.1408086,0.91646695,-0.5153563,0.0049563334,0.0075245174,0.00021511751,0.0007952943,0.0075655105,0.026621034,-0.08130991,0.11301203,1.197681,0.06863441,1.5305021,0.050202265,0.0,0.100410275,0.032493148,0.016925178,0.059641436,0.03363738,inf,inf,inf,inf,1,1,1,1,4,3,2,3,4,0,0,1
1550930977,0,0.0,0.0,1.0076165,1.0303991,-0.07288209,1.1408086,0.91646695,-0.5153563,0.0021476962,-0.0002732357,0.00036662383,0.000946907,0.0075655105,0.026621034,-0.08130991,-0.7600659,-1.0073786,0.3595184,1.5300758,0.050202265,0.0,0.10040677,0.032940663,0.016925178,0.06015076,0.03363738,inf,inf,inf,inf,1,1,1,1,4,3,2,3,4,0,0,1
1550960960,0,0.0,0.0,1.0076659,1.0304236,-0.07287344,1.1408086,0.91646695,-0.5153563,0.0042029372,0.0063439067,-0.0019649866,-0.0013850864,0.0075655105,0.026621034,-0.08130991,-0.3207581,0.8250286,-0.28584766,1.530113,0.050202265,0.0,0.10039812,0.03250972,0.016925182,0.05983693,0.0336374,inf,inf,inf,inf,1,1,1,1,4,3,2,3,4,0,0,1
1550980948,0,0.0,0.0,1.0077183,1.0304325,-0.07287275,1.1408086,0.91646695,-0.5153563,0.00893984,0.0027106882,-0.00088655564,-0.0003071331,0.0075655105,0.026621034,-0.08130991,0.27263024,-1.221451,-0.019298395,1.5305587,0.050202265,0.0,0.10039743,0.03251961,0.016925184,0.05993078,0.033637412,inf,inf,inf,inf,1,1,1,1,4,3,2,3,4,0,0,1
1551000937,0,0.0,0.0,1.0077461,1.0304445,-0.072862014,1.1408086,0.91646695,-0.5153563,0.0036904458,0.004771839,-0.00092128164,-0.0003421251,0.0075655105,0.026621034,-0.08130991,-0.7304425,0.14552718,-0.070652336,1.5296992,0.050202265,0.0,0.100386694,0.03253042,0.016925186,0.060023993,0.033637416,inf,inf,inf,inf,1,1,1,1,4,3,2,3,4,0,0,1
1551010932,0,0.0,0.0,1.0077555,1.0304438,-0.07285823,1.1408086,0.91646695,-0.5153563,0.002892808,0.0064378553,0.0001322118,0.00071115716,0.0075655105,0.026621034,-0.08130991,-0.43169597,1.0913777,0.1421075,1.5306998,0.050202265,0.0,0.10038291,0.032981623,0.016925188,0.060533732,0.033637412,inf,inf,inf,inf,1,1,1,1,4,3,2,3,4,0,0,1
1551040916,0,0.0,0.0,1.0078099,1.0304826,-0.072842196,1.1408086,0.91646695,-0.5153563,0.0036444527,0.0036504515,-0.0014491717,-0.00087114016,0.0075655105,0.026621034,-0.08130991,-0.35342142,-0.163095,-0.04645033,1.5305492,0.050202265,0.0,0.100366876,0.032554604,0.01692519,0.060200915,0.033637423,inf,inf,inf,inf,1,1,1,1,4,3,2,3,4,0,0,1
1551060903,0,0.0,0.0,1.0078293,1.0304848,-0.07283881,1.1408086,0.91646695,-0.5153563,-0.00029000835,0.0006670045,-0.000116219395,0.00046097345,0.0075655105,0.026621034,-0.08130991,-0.90035784,-0.19186608,0.37152255,1.5293299,0.050202265,0.0,0.10036349,0.03256783,0.016925192,0.060286686,0.033637427,inf,inf,inf,inf,1,1,1,1,4,3,2,3,4,0,0,1
1551070897,0,0.0,0.0,1.007856,1.0305108,-0.07283908,1.1408086,0.91646695,-0.5153563,0.009999913,0.0051734536,-0.0019126557,-0.0013359176,0.0075655105,0.026621034,-0.08130991,0.6575495,-0.7959844,-0.24419157,1.5303822,0.050202265,0.0,0.10036376,0.033021793,0.016925192,0.06079888,0.033637427,inf,inf,inf,inf,1,1,1,1,4,3,2,3,4,0,0,1
1551100881,0,0.0,0.0,1.00788,1.0305196,-0.07286231,1.1408086,0.91646695,-0.5153563,0.0053270143,0.0058037518,0.00020437178,0.00078024226,0.0075655105,0.026621034,-0.08130991,0.14869452,0.92704415,0.54799247,1.530038,0.050202265,0.0,0.10038699,0.032596223,0.016925195,0.06044421,0.03363745,inf,inf,inf,inf,1,1,1,1,4,3,2,3,4,0,0,1
1551120869,0,0.0,0.0,1.0079001,1.0305399,-0.07287231,1.1408086,0.91646695,-0.5153563,0.0059126806,0.004706957,-0.0007774603,-0.00020236915,0.0075655105,0.026621034,-0.08130991,1.6123755,0.11188261,0.21985993,1.5294974,0.050202265,0.0,0.10039699,0.032611206,0.016925197,0.0605235,0.033637453,inf,inf,inf,inf,1,1,1,1,4,3,2,3,4,0,0,1
1551130863,0,0.0,0.0,1.007924,1.0305442,-0.07287146,1.1408086,0.91646695,-0.5153563,0.0043491186,0.004198722,-0.0019815485,-0.0014069035,0.0075655105,0.026621034,-0.08130991,-0.36190593,0.16082098,-0.3762745,1.5293354,0.050202265,0.0,0.10039614,0.033067856,0.016925197,0.061038073,0.03363745,inf,inf,inf,inf,1,1,1,1,4,3,2,3,4,0,0,1
1551150851,0,0.0,0.0,1.0079464,1.030555,-0.072882846,1.1408086,0.91646695,-0.5153563,0.00040534145,-0.0003116883,-0.000114146555,0.0004597775,0.0075655105,0.026621034,-0.08130991,-0.95938444,-0.94125617,0.33576065,1.5300481,0.050202265,0.0,0.100407526,0.03308418,0.016925197,0.061108414,0.03363744,inf,inf,inf,inf,1,1,1,1,4,3,2,3,4,0,0,1
1551180836,0,0.0,0.0,1.0079674,1.0305929,-0.07287175,1.1408086,0.91646695,-0.5153563,0.0034497809,0.007059104,-0.0013276458,-0.0007544112,0.0075655105,0.026621034,-0.08130991,-0.4199903,0.7837279,-0.41771922,1.530844,0.050202265,0.0,0.10039643,0.032658648,0.016925197,0.060728323,0.033637464,inf,inf,inf,inf,1,1,1,1,4,3,2,3,4,0,0,1
1551200824,0,0.0,0.0,1.0079777,1.0306078,-0.07287974,1.1408086,0.91646695,-0.5153563,0.007703045,0.0042027174,-0.0015707728,-0.0009978146,0.0075655105,0.026621034,-0.08130991,0.14301662,-1.1884462,-0.027163165,1.5301553,0.050202265,0.0,0.10040442,0.032675013,0.016925197,0.060792413,0.033637453,inf,inf,inf,inf,1,1,1,1,4,3,2,3,4,0,0,1
1551210819,0,0.0,0.0,1.0079672,1.0306084,-0.07288832,1.1408086,0.91646695,-0.5153563,0.0041996744,0.0021779346,-0.0016901052,-0.0011172668,0.0075655105,0.026621034,-0.08130991,1.0242723,-0.48069826,0.013628263,1.531439,0.050202265,0.0,0.100413,0.033134982,0.016925197,0.061306372,0.03363747,inf,inf,inf,inf,1,1,1,1,4,3,2,3,4,0,0,1
1551240801,0,0.0,0.0,1.0080094,1.0306239,-0.072897024,1.1408086,0.91646695,-0.5153563,0.0031830594,0.0020184212,-0.0012896946,-0.00071731745,0.0075655105,0.026621034,-0.08130991,-1.5390198,-0.9081237,0.001748457,1.5315956,0.050202265,0.0,0.100421704,0.032708265,0.016925197,0.06090788,0.033637464,inf,inf,inf,inf,1,1,1,1,4,3,2,3,4,0,0,1
1551260789,0,0.0,0.0,1.0079801,1.030618,-0.07290799,1.1408086,0.91646695,-0.5153563,0.002333776,0.0038862517,-0.0006575458,-8.595449e-05,0.0075655105,0.026621034,-0.08130991,0.3196413,0.39463606,-0.0049427445,1.5285401,0.050202265,0.0,0.10043267,0.03272503,0.016925197,0.060959976,0.033637483,inf,inf,inf,inf,1,1,1,1,4,3,2,3,4,0,0,1
1551280777,0,0.0,0.0,1.0079896,1.0306447,-0.072911255,1.1408086,0.91646695,-0.5153563,-0.0023007423,0.002923504,-0.0012604886,-0.0006897975,0.0075655105,0.026621034,-0.08130991,-1.4587297,0.08513953,0.1848085,1.5312997,0.050202265,0.0,0.100435935,0.032741774,0.016925197,0.061005935,0.033637486,inf,inf,inf,inf,1,1,1,1,4,3,2,3,4,0,0,1
1551300768,0,0.0,0.0,1.0079702,1.030665,-0.07291863,1.1408086,0.91646695,-0.5153563,0.006808691,0.00571411,-0.0011838955,-0.0006139435,0.0075655105,0.026621034,-0.08130991,1.2340944,0.52707547,-0.12982953,1.5298396,0.050202265,0.0,0.10044331,0.032758456,0.016925199,0.061049603,0.033637483,inf,inf,inf,inf,1,1,1,1,4,3,2,3,4,0,0,1
1551320755,0,0.0,0.0,1.0079701,1.0306816,-0.0729067,1.1408086,0.91646695,-0.5153563,0.00233362,0.007372115,-0.0011425917,-0.0005734091,0.0075655105,0.026621034,-0.08130991,0.15422113,1.3696783,-0.26863322,1.5293597,0.050202265,0.0,0.10043138,0.032775033,0.0169252,0.0610854,0.0336375,inf,inf,inf,inf,1,1,1,1,4,3,2,3,4,0,0,1
1551340746,0,0.0,0.0,1.0079906,1.0307043,-0.072917104,1.1408086,0.91646695,-0.5153563,0.008580787,0.00433976,-0.00012095143,0.0004478091,0.0075655105,0.026621034,-0.08130991,1.1816397,-0.382174,0.3287783,1.5315025,0.050202265,0.0,0.10044178,0.0327914,0.016925203,0.06112252,0.033637494,inf,inf,inf,inf,1,1,1,1,4,3,2,3,4,0,0,1
1551350737,0,0.0,0.0,1.0079958,1.0307028,-0.07292221,1.1408086,0.91646695,-0.5153563,0.0017908345,0.00265099,-0.0029572253,-0.0023885844,0.0075655105,0.026621034,-0.08130991,-0.404601,-0.3407108,-0.37297338,1.5301129,0.050202265,0.0,0.10044689,0.033256155,0.016925203,0.061634175,0.03363749,inf,inf,inf,inf,1,1,1,1,4,3,2,3,4,0,0,1
1551380720,0,0.0,0.0,1.0080316,1.030727,-0.07293809,1.1408086,0.91646695,-0.5153563,0.0057975342,0.0016381515,-0.0015994466,-0.0010307766,0.0075655105,0.026621034,-0.08130991,0.2554299,-1.1408683,0.0126444725,1.5307978,0.050202265,0.0,0.10046277,0.03282348,0.016925206,0.061185107,0.03363749,inf,inf,inf,inf,1,1,1,1,4,3,2,3,4,0,0,1
1551400709,0,0.0,0.0,1.0080199,1.0307366,-0.0729481,1.1408086,0.91646695,-0.5153563,0.0050581186,0.0066625224,-0.0011976437,-0.0006289604,0.0075655105,0.026621034,-0.08130991,-0.40837678,-0.19747719,0.044521537,1.5302715,0.050202265,0.0,0.10047278,0.032839105,0.016925208,0.061206114,0.03363749,inf,inf,inf,inf,1,1,1,1,4,3,2,3,4,0,0,1
1551420700,0,0.0,0.0,1.0080059,1.030735,-0.07296803,1.1408086,0.91646695,-0.5153563,0.0034132088,-0.00027015674,-0.0018026506,-0.0012335561,0.0075655105,0.026621034,-0.08130991,-0.7750571,-0.94990253,0.25800747,1.5291537,0.050202265,0.0,0.10049271,0.03285434,0.01692521,0.061231345,0.033637486,inf,inf,inf,inf,1,1,1,1,4,3,2,3,4,0,0,1
1551430691,0,0.0,0.0,1.0080087,1.0307337,-0.07296706,1.1408086,0.91646695,-0.5153563,0.010231816,0.0064526754,-0.0001406857,0.00042879206,0.0075655105,0.026621034,-0.08130991,1.6602265,0.26740515,0.07605666,1.5297637,0.050202265,0.0,0.10049174,0.033321142,0.01692521,0.061737273,0.033637498,inf,inf,inf,inf,1,1,1,1,4,3,2,3,4,0,0,1
1551460674,0,0.0,0.0,1.0080234,1.0307355,-0.072993375,1.1408086,0.91646695,-0.5153563,0.0009270288,0.0016044269,-0.00029905033,0.0002714243,0.0075655105,0.026621034,-0.08130991,-1.1749167,-0.42506334,0.34935644,1.5293226,0.050202265,0.0,0.100518055,0.032883655,0.016925214,0.061261185,0.03363749,inf,inf,inf,inf,1,1,1,1,4,3,2,3,4,0,0,1
1551480663,0,0.0,0.0,1.0080197,1.0307354,-0.073007815,1.1408086,0.91646695,-0.5153563,0.0004681007,0.0020811292,-0.00149993,-0.0009288332,0.0075655105,0.026621034,-0.08130991,0.022122165,-0.4174781,0.101283565,1.5300738,0.050202265,0.0,0.100532494,0.032897647,0.016925214,0.06127077,0.0336375,inf,inf,inf,inf,1,1,1,1,4,3,2,3,4,0,0,1
1551490657,0,0.0,0.0,1.008029,1.0307444,-0.073004656,1.1408086,0.91646695,-0.5153563,0.007926957,0.010428538,-0.0025378307,-0.0019664252,0.0075655105,0.026621034,-0.08130991,0.41168603,1.3281243,-0.7137536,1.5292013,0.050202265,0.0,0.100529335,0.033365585,0.016925214,0.061778963,0.033637505,inf,inf,inf,inf,1,1,1,1,4,3,2,3,4,0,0,1
1551520640,0,0.0,0.0,1.0080122,1.0307763,-0.07300824,1.1408086,0.91646695,-0.5153563,0.004432902,0.0037222675,0.00082476524,0.001397682,0.0075655105,0.026621034,-0.08130991,1.1587988,-0.24533266,0.12718913,1.5290579,0.050202265,0.0,0.10053292,0.032924138,0.016925216,0.06128746,0.03363751,inf,inf,inf,inf,1,1,1,1,4,3,2,3,4,0,0,1
1551540630,0,0.0,0.0,1.0080212,1.0307854,-0.0730068,1.1408086,0.91646695,-0.5153563,0.0014721487,0.0068631335,-0.00078340946,-0.00020895306,0.0075655105,0.026621034,-0.08130991,-0.4810275,1.6449128,0.23507552,1.5308857,0.050202265,0.0,0.10053148,0.03293665,0.016925216,0.06128477,0.033637512,inf,inf,inf,inf,1,1,1,1,4,3,2,3,4,0,0,1
1551550623,0,0.0,0.0,1.0080242,1.0307932,-0.073001936,1.1408086,0.91646695,-0.5153563,0.0037763617,0.0006373491,-8.243399e-05,0.0004929353,0.0075655105,0.026621034,-0.08130991,-0.5920547,-1.1792498,0.05159453,1.5291064,0.050202265,0.0,0.100526616,0.033405446,0.016925218,0.061790533,0.033637505,inf,inf,inf,inf,1,1,1,1,4,3,2,3,4,0,0,1
1551570612,0,0.0,0.0,1.0080369,1.0308208,-0.07301384,1.1408086,0.91646695,-0.5153563,0.002229668,0.0043228846,-0.0028268525,-0.0022493417,0.0075655105,0.026621034,-0.08130991,-0.9321495,-0.82085127,-0.042308804,1.5309848,0.050202265,0.0,0.10053852,0.033417586,0.01692522,0.061787043,0.033637512,inf,inf,inf,inf,1,1,1,1,4,3,2,3,4,0,0,1
1551600594,0,0.0,0.0,1.0080346,1.0308254,-0.073024586,1.1408086,0.91646695,-0.5153563,0.009089725,0.0051860167,-0.001180515,-0.0005991266,0.0075655105,0.026621034,-0.08130991,1.4447708,-0.33585298,0.21090904,1.53104,0.050202265,0.0,0.100549266,0.03297072,0.016925221,0.061268087,0.03363751,inf,inf,inf,inf,1,1,1,1,4,3,2,3,4,0,0,1
1551620583,0,0.0,0.0,1.0080185,1.0308247,-0.07302567,1.1408086,0.91646695,-0.5153563,0.008208435,0.010026239,-0.0021804413,-0.0015963847,0.0075655105,0.026621034,-0.08130991,0.87345785,1.5394202,-0.40724203,1.5293889,0.050202265,0.0,0.10055035,0.032980908,0.016925223,0.061259415,0.03363752,inf,inf,inf,inf,1,1,1,1,4,3,2,3,4,0,0,1
1551630577,0,0.0,0.0,1.0080323,1.0308347,-0.073037356,1.1408086,0.91646695,-0.5153563,9.419791e-05,0.0021140368,-0.0013448669,-0.0007593262,0.0075655105,0.026621034,-0.08130991,-1.4758868,-0.54791427,0.23304343,1.5308964,0.050202265,0.0,0.100562036,0.033450373,0.016925225,0.061759863,0.033637524,inf,inf,inf,inf,1,1,1,1,4,3,2,3,4,0,0,1
1551660560,0,0.0,0.0,1.008021,1.0308564,-0.07303699,1.1408086,0.91646695,-0.5153563,0.0064412053,0.010364264,-0.001351014,-0.0007604589,0.0075655105,0.026621034,-0.08130991,0.006799644,1.0668352,-0.1256766,1.53073,0.050202265,0.0,0.10056167,0.03299942,0.016925227,0.061233327,0.033637516,inf,inf,inf,inf,1,1,1,1,4,3,2,3,4,0,0,1
1551680549,0,0.0,0.0,1.0079994,1.0308486,-0.073022075,1.1408086,0.91646695,-0.5153563,0.0068105413,0.0027226051,-0.0017389015,-0.0011448376,0.0075655105,0.026621034,-0.08130991,0.63758314,-0.96833116,-0.3020393,1.529032,0.050202265,0.0,0.100546755,0.03300778,0.016925227,0.06120753,0.033637512,inf,inf,inf,inf,1,1,1,1,4,3,2,3,4,0,0,1
1551690543,0,0.0,0.0,1.0079799,1.0308484,-0.073033616,1.1408086,0.91646695,-0.5153563,0.0052544465,0.003587441,-0.0007176543,-0.00012169195,0.0075655105,0.026621034,-0.08130991,1.3129151,-0.5020768,0.48782215,1.5303711,0.050202265,0.0,0.100558296,0.033477385,0.016925227,0.061708584,0.033637516,inf,inf,inf,inf,1,1,1,1,4,3,2,3,4,0,0,1
1551710532,0,0.0,0.0,1.0079559,1.0308492,-0.073011085,1.1408086,0.91646695,-0.5153563,8.177368e-05,0.0053055524,6.1932646e-05,0.0006615511,0.0075655105,0.026621034,-0.08130991,-0.2283295,1.4367293,0.18592516,1.5293286,0.050202265,0.0,0.100535765,0.033485066,0.016925227,0.061690647,0.033637524,inf,inf,inf,inf,1,1,1,1,4,3,2,3,4,0,0,1
1551740514,0,0.0,0.0,1.0079893,1.0308686,-0.07301102,1.1408086,0.91646695,-0.5153563,0.0026050375,0.005394426,-0.0021102559,-0.0015050366,0.0075655105,0.026621034,-0.08130991,-0.8197503,-0.14140286,-0.28911373,1.5294949,0.050202265,0.0,0.1005357,0.033028927,0.016925227,0.0611482,0.03363752,inf,inf,inf,inf,1,1,1,1,4,3,2,3,4,0,0,1
1551760502,0,0.0,0.0,1.0079937,1.0308632,-0.07298814,1.1408086,0.91646695,-0.5153563,0.0021982247,0.0010996711,0.0003489038,0.00095763174,0.0075655105,0.026621034,-0.08130991,-1.6676264,-1.19263,0.053665157,1.5310636,0.050202265,0.0,0.10051282,0.033034746,0.016925227,0.061120432,0.033637524,inf,inf,inf,inf,1,1,1,1,4,3,2,3,4,0,0,1
1551770499,0,0.0,0.0,1.007961,1.0308545,-0.07297343,1.1408086,0.91646695,-0.5153563,0.006176739,0.0022813529,0.0009940884,0.0016044711,0.0075655105,0.026621034,-0.08130991,1.6447634,-0.7088799,0.16750906,1.5300341,0.050202265,0.0,0.10049811,0.03350425,0.016925227,0.061615482,0.033637512,inf,inf,inf,inf,1,1,1,1,4,3,2,3,4,0,0,1
1551800480,0,0.0,0.0,1.0079783,1.0308679,-0.07297562,1.1408086,0.91646695,-0.5153563,0.0012982422,-0.00030765822,-1.7625713e-05,0.0005975643,0.0075655105,0.026621034,-0.08130991,-1.2589259,-0.75268614,0.21494481,1.530442,0.050202265,0.0,0.1005003,0.033044558,0.016925227,0.061060246,0.033637524,inf,inf,inf,inf,1,1,1,1,4,3,2,3,4,0,0,1
1551820469,0,0.0,0.0,1.0079693,1.030872,-0.07295542,1.1408086,0.91646695,-0.5153563,0.0025828634,0.001591731,-0.0017684549,-0.0011501596,0.0075655105,0.026621034,-0.08130991,-0.26517272,-1.0906366,-0.14822839,1.5304202,0.050202265,0.0,0.1004801,0.03304852,0.016925227,0.061028775,0.033637516,inf,inf,inf,inf,1,1,1,1,4,3,2,3,4,0,0,1
1551830463,0,0.0,0.0,1.0079681,1.030861,-0.07295403,1.1408086,0.91646695,-0.5153563,0.003137502,0.008344776,-0.0006658307,-4.6034787e-05,0.0075655105,0.026621034,-0.08130991,-0.43780813,1.2589152,-0.018736085,1.5310203,0.050202265,0.0,0.10047871,0.033517644,0.016925227,0.061523385,0.033637516,inf,inf,inf,inf,1,1,1,1,4,3,2,3,4,0,0,1
1551850452,0,0.0,0.0,1.0079687,1.0308455,-0.07294838,1.1408086,0.91646695,-0.5153563,0.01187275,0.0065698377,-0.00081320695,-0.0001901739,0.0075655105,0.026621034,-0.08130991,1.2983931,-0.18609293,0.02709355,1.5299138,0.050202265,0.0,0.10047306,0.033520825,0.016925227,0.06149018,0.03363751,inf,inf,inf,inf,1,1,1,1,4,3,2,3,4,0,0,1
1551880435,0,0.0,0.0,1.0079623,1.0308281,-0.072952084,1.1408086,0.91646695,-0.5153563,0.0013285618,0.0031950956,-0.000182261,0.00044617333,0.0075655105,0.026621034,-0.08130991,-0.6439042,0.5392956,0.37334728,1.5293429,0.050202265,0.0,0.100476764,0.033056844,0.016925227,0.060922094,0.033637516,inf,inf,inf,inf,1,1,1,1,4,3,2,3,4,0,0,1
1551900423,0,0.0,0.0,1.0079604,1.0308312,-0.07293564,1.1408086,0.91646695,-0.5153563,0.0015697024,0.0016399685,0.00024752365,0.00087962043,0.0075655105,0.026621034,-0.08130991,0.41386333,-0.57606167,0.23641418,1.5300027,0.050202265,0.0,0.10046032,0.033058465,0.016925227,0.060886618,0.0336375,inf,inf,inf,inf,1,1,1,1,4,3,2,3,4,0,0,1
1551910417,0,0.0,0.0,1.007967,1.0308332,-0.07292551,1.1408086,0.91646695,-0.5153563,0.0071246643,0.009415492,-0.0016328614,-0.0009990414,0.0075655105,0.026621034,-0.08130991,0.326668,0.9962755,-0.43249604,1.5290798,0.050202265,0.0,0.10045019,0.033526793,0.016925227,0.06138109,0.03363751,inf,inf,inf,inf,1,1,1,1,4,3,2,3,4,0,0,1
1551940401,0,0.0,0.0,1.0079589,1.0308024,-0.07292204,1.1408086,0.91646695,-0.5153563,0.0058590886,0.0025586826,9.8387245e-05,0.0007373606,0.0075655105,0.026621034,-0.08130991,1.5896722,-0.31992906,0.19928469,1.5290065,0.050202265,0.0,0.10044672,0.033060044,0.016925227,0.060805943,0.0336375,inf,inf,inf,inf,1,1,1,1,4,3,2,3,4,0,0,1
1551960392,0,0.0,0.0,1.0079821,1.0307968,-0.07290307,1.1408086,0.91646695,-0.5153563,-0.0010628828,0.004745868,0.0003495008,0.000991369,0.0075655105,0.026621034,-0.08130991,-0.9179859,1.09478,0.21187437,1.5310628,0.050202265,0.0,0.10042775,0.03306005,0.016925227,0.060769424,0.033637512,inf,inf,inf,inf,1,1,1,1,4,3,2,3,4,0,0,1
1551970383,0,0.0,0.0,1.0079865,1.0307847,-0.0728957,1.1408086,0.91646695,-0.5153563,0.004911117,-0.00025021617,-5.847724e-05,0.00058465527,0.0075655105,0.026621034,-0.08130991,-0.5314754,-0.9896684,0.14909503,1.5291308,0.050202265,0.0,0.10042038,0.033527605,0.016925227,0.061257653,0.03363751,inf,inf,inf,inf,1,1,1,1,4,3,2,3,4,0,0,1
1552000366,0,0.0,0.0,1.0079885,1.0307499,-0.07288243,1.1408086,0.91646695,-0.5153563,0.0011624346,0.008661616,0.0007449462,0.001391657,0.0075655105,0.026621034,-0.08130991,0.20862208,2.1686876,0.0032987976,1.529755,0.050202265,0.0,0.10040711,0.033058517,0.016925227,0.060686603,0.03363751,inf,inf,inf,inf,1,1,1,1,4,3,2,3,4,0,0,1
1552020355,0,0.0,0.0,1.0079932,1.0307579,-0.07287411,1.1408086,0.91646695,-0.5153563,0.008948679,0.002753168,0.0014003477,0.0020489988,0.0075655105,0.026621034,-0.08130991,1.6492413,-0.8361839,0.50432354,1.5310178,0.050202265,0.0,0.10039879,0.033057023,0.016925227,0.06064474,0.0336375,inf,inf,inf,inf,1,1,1,1,4,3,2,3,4,0,0,1
1552040344,0,0.0,0.0,1.0079798,1.0307243,-0.0728416,1.1408086,0.91646695,-0.5153563,0.0043933652,0.008973124,-0.00087339827,-0.00022276748,0.0075655105,0.026621034,-0.08130991,0.58383745,2.199484,-0.3499963,1.5290744,0.050202265,0.0,0.10036628,0.033055086,0.016925227,0.060605425,0.033637505,inf,inf,inf,inf,1,1,1,1,4,3,2,3,4,0,0,1
1552050337,0,0.0,0.0,1.0080136,1.0307316,-0.07284928,1.1408086,0.91646695,-0.5153563,0.0024327426,0.0024167467,-0.0013647587,-0.00071309874,0.0075655105,0.026621034,-0.08130991,-1.9029909,-0.56784165,0.22075379,1.5305327,0.050202265,0.0,0.10037396,0.033521436,0.016925227,0.06108804,0.0336375,inf,inf,inf,inf,1,1,1,1,4,3,2,3,4,0,0,1
1552080320,0,0.0,0.0,1.0080098,1.0307004,-0.07281656,1.1408086,0.91646695,-0.5153563,0.0065136002,0.009458385,0.0005640833,0.0012187746,0.0075655105,0.026621034,-0.08130991,0.8087809,1.5378089,-0.1572472,1.5301425,0.050202265,0.0,0.10034124,0.033049837,0.016925227,0.060516898,0.0336375,inf,inf,inf,inf,1,1,1,1,4,3,2,3,4,0,0,1
1552100308,0,0.0,0.0,1.008005,1.030685,-0.07279004,1.1408086,0.91646695,-0.5153563,0.0076535856,0.0016971766,0.0015594942,0.00221573,0.0075655105,0.026621034,-0.08130991,1.6875784,-0.5901605,0.2561079,1.5294188,0.050202265,0.0,0.10031472,0.03304661,0.016925227,0.06047218,0.033637498,inf,inf,inf,inf,1,1,1,1,4,3,2,3,4,0,0,1
1552110303,0,0.0,0.0,1.0080212,1.0306787,-0.0727902,1.1408086,0.91646695,-0.5153563,0.004645818,0.0031188286,-0.0028451835,-0.002188155,0.0075655105,0.026621034,-0.08130991,-0.14796883,-0.596933,-0.26532492,1.5294906,0.050202265,0.0,0.10031488,0.033511918,0.016925227,0.060955107,0.033637498,inf,inf,inf,inf,1,1,1,1,4,3,2,3,4,0,0,1
1552140286,0,0.0,0.0,1.008021,1.030633,-0.07276842,1.1408086,0.91646695,-0.5153563,0.011015095,0.0037041674,0.00012374471,0.0007829087,0.0075655105,0.026621034,-0.08130991,1.965213,-0.37983048,0.12896642,1.5291889,0.050202265,0.0,0.1002931,0.03303895,0.016925227,0.06038192,0.03363749,inf,inf,inf,inf,1,1,1,1,4,3,2,3,4,0,0,1
1552160274,0,0.0,0.0,1.0080221,1.030627,-0.07274685,1.1408086,0.91646695,-0.5153563,0.0020401347,0.009354247,0.00059263816,0.0012525389,0.0075655105,0.026621034,-0.08130991,-0.31707472,1.2947966,-0.17547412,1.5303742,0.050202265,0.0,0.10027153,0.03303458,0.016925227,0.060340825,0.03363749,inf,inf,inf,inf,1,1,1,1,4,3,2,3,4,0,0,1
1552180264,0,0.0,0.0,1.0080116,1.030608,-0.072729945,1.1408086,0.91646695,-0.5153563,0.010759566,0.005067699,0.0007359186,0.0013963371,0.0075655105,0.026621034,-0.08130991,1.2605354,-0.079987854,0.17076394,1.5305306,0.050202265,0.0,0.100254625,0.03302987,0.016925227,0.06029629,0.03363749,inf,inf,inf,inf,1,1,1,1,4,3,2,3,4,0,0,1
1552190258,0,0.0,0.0,1.0080106,1.0305989,-0.072724015,1.1408086,0.91646695,-0.5153563,0.0008650724,-0.00091231754,-0.0015911909,-0.0009307241,0.0075655105,0.026621034,-0.08130991,-0.31337044,-1.34975,-0.23790294,1.5307003,0.050202265,0.0,0.100248694,0.033493713,0.016925227,0.060773335,0.033637486,inf,inf,inf,inf,1,1,1,1,4,3,2,3,4,0,0,1
1552220240,0,0.0,0.0,1.0080189,1.0305839,-0.07271365,1.1408086,0.91646695,-0.5153563,0.00845111,0.0029663595,0.001580677,0.002240217,0.0075655105,0.026621034,-0.08130991,0.96443444,-0.8507258,0.48208845,1.5309976,0.050202265,0.0,0.10023833,0.033019483,0.016925227,0.0602072,0.033637486,inf,inf,inf,inf,1,1,1,1,4,3,2,3,4,0,0,1
1552240230,0,0.0,0.0,1.0079887,1.0305563,-0.072685406,1.1408086,0.91646695,-0.5153563,0.0069616954,0.011092282,-0.0011286403,-0.0004704902,0.0075655105,0.026621034,-0.08130991,0.87277895,1.6958971,-0.43989596,1.5295256,0.050202265,0.0,0.100210086,0.033013858,0.016925227,0.060162373,0.033637483,inf,inf,inf,inf,1,1,1,1,4,3,2,3,4,0,0,1
1552250223,0,0.0,0.0,1.0080185,1.030551,-0.07268405,1.1408086,0.91646695,-0.5153563,-0.00017545748,0.0033011392,-0.00039084943,0.00026640613,0.0075655105,0.026621034,-0.08130991,-2.1939123,0.43833688,0.07103394,1.5310621,0.050202265,0.0,0.10020873,0.033476535,0.016925227,0.060640533,0.033637486,inf,inf,inf,inf,1,1,1,1,4,3,2,3,4,0,0,1
1552280206,0,0.0,0.0,1.007998,1.0305258,-0.072658755,1.1408086,0.91646695,-0.5153563,0.006425056,0.008709093,-0.0008203764,-0.00016592005,0.0075655105,0.026621034,-0.08130991,0.66419303,0.95681226,-0.07055691,1.5310246,0.050202265,0.0,0.100183435,0.03300178,0.016925227,0.06007831,0.033637483,inf,inf,inf,inf,1,1,1,1,4,3,2,3,4,0,0,1
1552300194,0,0.0,0.0,1.0079793,1.0304968,-0.072638065,1.1408086,0.91646695,-0.5153563,0.008272444,0.0032279226,-0.00031803502,0.0003342247,0.0075655105,0.026621034,-0.08130991,1.2207865,-0.40264305,-0.19580479,1.5288453,0.050202265,0.0,0.100162745,0.03299543,0.016925227,0.060029987,0.03363749,inf,inf,inf,inf,1,1,1,1,4,3,2,3,4,0,0,1
1552320183,0,0.0,0.0,1.007996,1.0304838,-0.072627395,1.1408086,0.91646695,-0.5153563,0.006037312,0.0093515795,0.00026637633,0.00091594574,0.0075655105,0.026621034,-0.08130991,0.23414345,1.174495,-0.36340857,1.5309612,0.050202265,0.0,0.100152075,0.03298882,0.016925227,0.059986882,0.03363748,inf,inf,inf,inf,1,1,1,1,4,3,2,3,4,0,0,1
1552330178,0,0.0,0.0,1.007999,1.0304544,-0.07262077,1.1408086,0.91646695,-0.5153563,-0.0006839068,0.0017929453,-0.0010183308,-0.00037013442,0.0075655105,0.026621034,-0.08130991,-1.4343133,0.73273325,-0.21552362,1.5290091,0.050202265,0.0,0.10014545,0.033449914,0.016925227,0.060464237,0.033637486,inf,inf,inf,inf,1,1,1,1,4,3,2,3,4,0,0,1
1552360160,0,0.0,0.0,1.0079906,1.0304445,-0.072584175,1.1408086,0.91646695,-0.5153563,0.003662366,0.008807304,0.0014332942,0.002076527,0.0075655105,0.026621034,-0.08130991,0.25966147,1.308362,-0.10552962,1.5295098,0.050202265,0.0,0.100108854,0.032975003,0.016925227,0.059904486,0.033637483,inf,inf,inf,inf,1,1,1,1,4,3,2,3,4,0,0,1
1552380149,0,0.0,0.0,1.0079865,1.0304115,-0.07257542,1.1408086,0.91646695,-0.5153563,0.010355989,0.0048983763,-0.0015637751,-0.0009239706,0.0075655105,0.026621034,-0.08130991,1.0392355,0.1740392,0.009708862,1.531035,0.050202265,0.0,0.1001001,0.03296787,0.016925227,0.05986162,0.03363748,inf,inf,inf,inf,1,1,1,1,4,3,2,3,4,0,0,1
1552390143,0,0.0,0.0,1.0079789,1.0304006,-0.07257764,1.1408086,0.91646695,-0.5153563,0.0017222358,-0.001011141,8.214944e-05,0.0007202092,0.0075655105,0.026621034,-0.08130991,0.10177921,-1.2550981,0.25599977,1.5300114,0.050202265,0.0,0.10010232,0.03342779,0.016925227,0.060333867,0.033637475,inf,inf,inf,inf,1,1,1,1,4,3,2,3,4,0,0,1
1552420127,0,0.0,0.0,1.0080023,1.0303644,-0.07256846,1.1408086,0.91646695,-0.5153563,0.010122854,0.00066544657,0.0018244723,0.0024564676,0.0075655105,0.026621034,-0.08130991,1.4384507,-0.6730428,0.5401267,1.5306882,0.050202265,0.0,0.10009314,0.03295308,0.016925227,0.05977786,0.03363748,inf,inf,inf,inf,1,1,1,1,4,3,2,3,4,0,0,1
1552440116,0,0.0,0.0,1.0079968,1.030333,-0.072520345,1.1408086,0.91646695,-0.5153563,0.0082477145,0.009111945,0.0012770336,0.001904334,0.0075655105,0.026621034,-0.08130991,0.8189255,1.1116991,-0.3430353,1.5301291,0.050202265,0.0,0.100045025,0.032945476,0.016925227,0.059738994,0.033637475,inf,inf,inf,inf,1,1,1,1,4,3,2,3,4,0,0,1
1552460104,0,0.0,0.0,1.007995,1.0302999,-0.07250266,1.1408086,0.91646695,-0.5153563,0.009954754,0.0029001662,0.0022736131,0.0028958132,0.0075655105,0.026621034,-0.08130991,1.6480336,0.06846645,0.38349158,1.5292622,0.050202265,0.0,0.10002734,0.03293779,0.016925227,0.05969442,0.03363749,inf,inf,inf,inf,1,1,1,1,4,3,2,3,4,0,0,1
1552470099,0,0.0,0.0,1.008009,1.0302954,-0.07248693,1.1408086,0.91646695,-0.5153563,0.003955257,0.0006126566,-0.00084072095,-0.00022109336,0.0075655105,0.026621034,-0.08130991,-0.09039075,-1.1600513,-0.40695173,1.5293051,0.050202265,0.0,0.10001161,0.03339613,0.016925227,0.060172495,0.033637475,inf,inf,inf,inf,1,1,1,1,4,3,2,3,4,0,0,1
1552500080,0,0.0,0.0,1.0079973,1.0302503,-0.07245708,1.1408086,0.91646695,-0.5153563,0.009717721,0.0032970367,0.0024534874,0.003064567,0.0075655105,0.026621034,-0.08130991,1.3072573,-0.25992614,0.11457443,1.5290368,0.050202265,0.0,0.1,0.03292209,0.016925227,0.059620272,0.033637486,inf,inf,inf,inf,1,1,1,1,4,3,2,3,4,0,0,1
1552520069,0,0.0,0.0,1.0080065,1.030221,-0.07244724,1.1408086,0.91646695,-0.5153563,0.0036899662,0.007877129,0.0003666472,0.00097140385,0.0075655105,0.026621034,-0.08130991,0.24283849,1.534811,0.016436858,1.530633,0.050202265,0.0,0.1,0.032914132,0.016925227,0.0595792,0.033637486,inf,inf,inf,inf,1,1,1,1,4,3,2,3,4,0,0,1
1552530064,0,0.0,0.0,1.0080109,1.0301914,-0.07243599,1.1408086,0.91646695,-0.5153563,-0.0011137107,0.002129708,0.00019781933,0.0007992501,0.0075655105,0.026621034,-0.08130991,-1.7989336,0.8486045,-0.15561412,1.5288826,0.050202265,0.0,0.1,0.033371333,0.016925227,0.060051274,0.03363749,inf,inf,inf,inf,1,1,1,1,4,3,2,3,4,0,0,1
1552555048,0,0.0,0.0,1.008032,1.030179,-0.0724229,1.1408086,0.91646695,-0.5153563,2.0604522e-05,0.0001793662,0.0013979478,0.0019926988,0.0075655105,0.026621034,-0.08130991,-0.47701982,0.5429436,0.40656808,1.5301303,0.050202265,0.0,0.1,0.032471564,0.016925227,0.059078477,0.033637486,inf,inf,inf,inf,1,1,1,1,4,3,2,3,4,0,0,1
1552575037,0,0.0,0.0,1.0080328,1.0301574,-0.07240557,1.1408086,0.91646695,-0.5153563,0.00281002,0.0032814392,-7.1929266e-05,0.0005160916,0.0075655105,0.026621034,-0.08130991,0.34068513,0.3572182,0.033501476,1.530654,0.050202265,0.0,0.1,0.032486767,0.016925227,0.0590808,0.033637494,inf,inf,inf,inf,1,1,1,1,4,3,2,3,4,0,0,1
1552595026,0,0.0,0.0,1.0080355,1.0301017,-0.0723983,1.1408086,0.91646695,-0.5153563,0.0024465106,-0.001511493,0.0020571216,0.0026379812,0.0075655105,0.026621034,-0.08130991,-0.016243283,0.28864184,0.66552603,1.5288141,0.050202265,0.0,0.1,0.03250112,0.016925227,0.05907876,0.033637486,inf,inf,inf,inf,1,1,1,1,4,3,2,3,4,0,0,1
1552615014,0,0.0,0.0,1.0080663,1.0300758,-0.072388835,1.1408086,0.91646695,-0.5153563,-0.0002846041,0.00020800126,-0.0016563467,-0.0010829703,0.0075655105,0.026621034,-0.08130991,-0.52794546,-0.395913,-0.016433591,1.5312514,0.050202265,0.0,0.1,0.032514542,0.016925227,0.059079796,0.03363749,inf,inf,inf,inf,1,1,1,1,4,3,2,3,4,0,0,1
1552635006,0,0.0,0.0,1.0080677,1.0300206,-0.0723871,1.1408086,0.91646695,-0.5153563,0.0028554937,0.0011973493,0.0009142282,0.0014801363,0.0075655105,0.026621034,-0.08130991,-0.29198793,0.28535873,0.27572724,1.529084,0.050202265,0.0,0.1,0.032527156,0.016925227,0.059075978,0.033637483,inf,inf,inf,inf,1,1,1,1,4,3,2,3,4,0,0,1
1552654992,0,0.0,0.0,1.00808,1.0299919,-0.07237027,1.1408086,0.91646695,-0.5153563,-0.0009281671,0.0010146388,0.00084735354,0.0014058125,0.0075655105,0.026621034,-0.08130991,-0.15256263,0.1768719,0.0010816841,1.5301385,0.050202265,0.0,0.1,0.03253893,0.016925227,0.059079766,0.033637486,inf,inf,inf,inf,1,1,1,1,4,3,2,3,4,0,0,1
1552674983,0,0.0,0.0,1.0081109,1.0299356,-0.07237662,1.1408086,0.91646695,-0.5153563,0.0035012094,-0.0023854466,-0.00037210374,0.00017882667,0.0075655105,0.026621034,-0.08130991,-0.6899069,-0.49148467,0.5364751,1.53058,0.050202265,0.0,0.1,0.032549918,0.016925227,0.059066303,0.033637483,inf,inf,inf,inf,1,1,1,1,4,3,2,3,4,0,0,1
1552694969,0,0.0,0.0,1.0081178,1.029871,-0.07237446,1.1408086,0.91646695,-0.5153563,0.000189115,0.002740675,-0.00048785645,5.509357e-05,0.0075655105,0.026621034,-0.08130991,-0.44090772,0.5798074,-0.09161669,1.5288548,0.050202265,0.0,0.1,0.03256009,0.016925227,0.059063096,0.033637483,inf,inf,inf,inf,1,1,1,1,4,3,2,3,4,0,0,1
1552714957,0,0.0,0.0,1.0081415,1.0298517,-0.072366275,1.1408086,0.91646695,-0.5153563,0.00071062066,-0.002476849,0.0009497965,0.0014840618,0.0075655105,0.026621034,-0.08130991,-1.3246392,-0.49011683,0.32913557,1.5311085,0.050202265,0.0,0.1,0.03256951,0.016925227,0.05914768,0.03363752,inf,inf,inf,inf,1,1,1,1,4,3,2,3,4,0,0,1
1552734946,0,0.0,0.0,1.0081406,1.0297959,-0.0723472,1.1408086,0.91646695,-0.5153563,0.002787894,0.0021523263,-0.001390357,-0.00086555537,0.0075655105,0.026621034,-0.08130991,-0.3342439,0.32362694,-0.20771566,1.529069,0.050202265,0.0,0.1,0.032579303,0.016925227,0.05913629,0.033637516,inf,inf,inf,inf,1,1,1,1,4,3,2,3,4,0,0,1
1552754934,0,0.0,0.0,1.0081434,1.0297562,-0.07235544,1.1408086,0.91646695,-0.5153563,0.0010786173,-0.004274138,0.0020445848,0.002559554,0.0075655105,0.026621034,-0.08130991,-0.62035096,-0.91238797,0.73620516,1.5299562,0.050202265,0.0,0.1,0.032588318,0.016925227,0.059128337,0.033637516,inf,inf,inf,inf,1,1,1,1,4,3,2,3,4,0,0,1
1552774923,0,0.0,0.0,1.0081393,1.029727,-0.07233069,1.1408086,0.91646695,-0.5153563,-0.00038670842,0.00064374553,-0.0021848097,-0.001679732,0.0075655105,0.026621034,-0.08130991,-0.9928111,-0.4274739,-0.29901105,1.5305719,0.050202265,0.0,0.1,0.032596566,0.016925227,0.059112225,0.033637524,inf,inf,inf,inf,1,1,1,1,4,3,2,3,4,0,0,1
1552794911,0,0.0,0.0,1.0081434,1.0296552,-0.072340585,1.1408086,0.91646695,-0.5153563,0.0015184229,-0.003896908,0.000846906,0.0013417432,0.0075655105,0.026621034,-0.08130991,-0.9271949,-0.69985306,0.25857204,1.528676,0.050202265,0.0,0.1,0.032604095,0.016925227,0.059099525,0.033637516,inf,inf,inf,inf,1,1,1,1,4,3,2,3,4,0,0,1
1552814900,0,0.0,0.0,1.0081811,1.0296408,-0.072326384,1.1408086,0.91646695,-0.5153563,-2.8626906e-05,-0.0012562422,-0.0021599522,-0.0016751906,0.0075655105,0.026621034,-0.08130991,-1.5247979,-1.1040636,-0.26648393,1.5311792,0.050202265,0.0,0.1,0.03261089,0.016925227,0.05908465,0.033637516,inf,inf,inf,inf,1,1,1,1,4,3,2,3,4,0,0,1
1552834890,0,0.0,0.0,1.0081953,1.029577,-0.072318465,1.1408086,0.91646695,-0.5153563,0.0040361993,-0.0028328886,-0.00044605322,2.885724e-05,0.0075655105,0.026621034,-0.08130991,-0.94920254,-1.3312492,0.002704749,1.5289547,0.050202265,0.0,0.1,0.032616995,0.016925227,0.059072588,0.03363752,inf,inf,inf,inf,1,1,1,1,4,3,2,3,4,0,0,1
1552854877,0,0.0,0.0,1.008186,1.0295396,-0.07232152,1.1408086,0.91646695,-0.5153563,-0.0027709669,0.001031477,-0.00036818074,9.715071e-05,0.0075655105,0.026621034,-0.08130991,-1.987638,-0.25264886,-0.058998544,1.530065,0.050202265,0.0,0.1,0.03262248,0.016925227,0.059051316,0.03363752,inf,inf,inf,inf,1,1,1,1,4,3,2,3,4,0,0,1
1552874866,0,0.0,0.0,1.0082148,1.0295035,-0.07230844,1.1408086,0.91646695,-0.5153563,0.008079936,-0.0009174353,-0.0008442281,-0.00038819227,0.0075655105,0.026621034,-0.08130991,-0.9601866,-1.4069582,-0.12822846,1.5304071,0.050202265,0.0,0.1,0.032627296,0.016925227,0.05903351,0.033637524,inf,inf,inf,inf,1,1,1,1,4,3,2,3,4,0,0,1
1552894856,0,0.0,0.0,1.0082148,1.029469,-0.07232465,1.1408086,0.91646695,-0.5153563,0.0021057082,0.0038229527,-0.0025430403,-0.002096191,0.0075655105,0.026621034,-0.08130991,-1.3411967,0.38450974,-0.4542848,1.5286177,0.050202265,0.0,0.1,0.032631483,0.016925227,0.059013195,0.033637516,inf,inf,inf,inf,1,1,1,1,4,3,2,3,4,0,0,1
1552914843,0,0.0,0.0,1.0082412,1.0294324,-0.07233859,1.1408086,0.91646695,-0.5153563,0.0076803565,-0.0037250202,0.00039194737,0.0008294369,0.0075655105,0.026621034,-0.08130991,-0.27886665,-2.099728,0.26994744,1.5311526,0.050202265,0.0,0.1,0.032635104,0.016925227,0.059000913,0.03363752,inf,inf,inf,inf,1,1,1,1,4,3,2,3,4,0,0,1
1552934831,0,0.0,0.0,1.008237,1.0293866,-0.072337836,1.1408086,0.91646695,-0.5153563,0.006679328,0.0070069204,-0.0022268523,-0.001798488,0.0075655105,0.026621034,-0.08130991,-0.74143046,0.86125594,-0.42226744,1.5289096,0.050202265,0.0,0.1,0.032638166,0.016925227,0.058973733,0.03363751,inf,inf,inf,inf,1,1,1,1,4,3,2,3,4,0,0,1
1552954820,0,0.0,0.0,1.008271,1.0293548,-0.0723463,1.1408086,0.91646695,-0.5153563,0.009365243,-0.0024310828,-0.00022383983,0.00019541486,0.0075655105,0.026621034,-0.08130991,0.7080623,-1.7972184,-0.024380306,1.5300679,0.050202265,0.0,0.1,0.032640696,0.016925227,0.05896007,0.033637512,inf,inf,inf,inf,1,1,1,1,4,3,2,3,4,0,0,1
1552974809,0,0.0,0.0,1.008294,1.029327,-0.07235421,1.1408086,0.91646695,-0.5153563,0.00704839,0.0074405745,-0.0014495737,-0.0010396205,0.0075655105,0.026621034,-0.08130991,-0.8654335,0.7803398,-0.53796196,1.5304105,0.050202265,0.0,0.1,0.032642726,0.016925227,0.05893476,0.03363752,inf,inf,inf,inf,1,1,1,1,4,3,2,3,4,0,0,1
1552994797,0,0.0,0.0,1.0082854,1.0292823,-0.07234427,1.1408086,0.91646695,-0.5153563,0.010867479,-0.0014488692,0.0016160813,0.0020166896,0.0075655105,0.026621034,-0.08130991,1.680439,-1.5593458,0.14165343,1.528771,0.050202265,0.0,0.1,0.03264428,0.016925227,0.058914207,0.0336375,inf,inf,inf,inf,1,1,1,1,4,3,2,3,4,0,0,1
1553014786,0,0.0,0.0,1.0083321,1.029241,-0.07235455,1.1408086,0.91646695,-0.5153563,0.0058307988,0.006830109,-0.002241584,-0.0018500178,0.0075655105,0.026621034,-0.08130991,-1.1070449,1.2886362,-0.4132359,1.5313616,0.050202265,0.0,0.1,0.032645352,0.016925227,0.058896344,0.0336375,inf,inf,inf,inf,1,1,1,1,4,3,2,3,4,0,0,1
1553034775,0,0.0,0.0,1.0083499,1.0291771,-0.07234514,1.1408086,0.91646695,-0.5153563,0.013835815,0.0026196667,0.0007640065,0.0011467495,0.0075655105,0.026621034,-0.08130991,1.8588556,-0.7883509,-0.37486735,1.5285922,0.050202265,0.0,0.1,0.032646015,0.016925227,0.05887438,0.033637498,inf,inf,inf,inf,1,1,1,1,4,3,2,3,4,0,0,1
1553054763,0,0.0,0.0,1.0083684,1.0291443,-0.07236402,1.1408086,0.91646695,-0.5153563,0.005456964,0.0067901057,4.045059e-05,0.00041447274,0.0075655105,0.026621034,-0.08130991,-0.2604784,1.5724636,-0.037529793,1.5306304,0.050202265,0.0,0.1,0.03264627,0.016925227,0.058857627,0.03363749,inf,inf,inf,inf,1,1,1,1,4,3,2,3,4,0,0,1
1553074752,0,0.0,0.0,1.0083828,1.0291111,-0.07234718,1.1408086,0.91646695,-0.5153563,0.01488376,0.0043726563,0.0015021083,0.0018678181,0.0075655105,0.026621034,-0.08130991,2.260694,-0.398994,-0.0656828,1.5299553,0.050202265,0.0,0.1,0.032646183,0.016925227,0.058835488,0.03363749,inf,inf,inf,inf,1,1,1,1,4,3,2,3,4,0,0,1
1553094741,0,0.0,0.0,1.0083889,1.0290674,-0.07234711,1.1408086,0.91646695,-0.5153563,0.0066897916,0.005649448,0.001172715,0.0015304986,0.0075655105,0.026621034,-0.08130991,0.49880943,2.1527503,0.053407956,1.5291436,0.050202265,0.0,0.1,0.03264569,0.016925227,0.05881227,0.033637483,inf,inf,inf,inf,1,1,1,1,4,3,2,3,4,0,0,1
1553114729,0,0.0,0.0,1.0084084,1.0290575,-0.072354086,1.1408086,0.91646695,-0.5153563,0.009489043,0.0034631193,0.00012749279,0.0004776766,0.0075655105,0.026621034,-0.08130991,1.8361503,0.023486683,0.096521184,1.5312042,0.050202265,0.0,0.1,0.032644883,0.016925227,0.058790494,0.03363748,inf,inf,inf,inf,1,1,1,1,4,3,2,3,4,0,0,1
1553134717,0,0.0,0.0,1.0084107,1.0290142,-0.07235172,1.1408086,0.91646695,-0.5153563,0.006403654,0.004476803,-4.228982e-05,0.0003006221,0.0075655105,0.026621034,-0.08130991,0.6223838,1.6468586,-0.12775683,1.5285683,0.050202265,0.0,0.1,0.032643728,0.016925227,0.058773693,0.033637475,inf,inf,inf,inf,1,1,1,1,4,3,2,3,4,0,0,1
1553154706,0,0.0,0.0,1.008453,1.0290031,-0.07236023,1.1408086,0.91646695,-0.5153563,0.005627888,0.000545614,0.0003839876,0.0007200161,0.0075655105,0.026621034,-0.08130991,1.3565929,-0.39642465,0.11095426,1.5309772,0.050202265,0.0,0.1,0.03264232,0.016925227,0.05874711,0.03363747,inf,inf,inf,inf,1,1,1,1,4,3,2,3,4,0,0,1
1553174698,0,0.0,0.0,1.008474,1.0289555,-0.0723568,1.1408086,0.91646695,-0.5153563,0.0037760455,0.002888676,0.00087989727,0.0012092027,0.0075655105,0.026621034,-0.08130991,-0.22623949,1.0761459,0.210351,1.5294411,0.050202265,0.0,0.1,0.03264056,0.016925227,0.058732413,0.03363746,inf,inf,inf,inf,1,1,1,1,4,3,2,3,4,0,0,1
1553194684,0,0.0,0.0,1.0084871,1.028945,-0.072365336,1.1408086,0.91646695,-0.5153563,0.0013570158,0.0015984358,0.00096503296,0.0012873753,0.0075655105,0.026621034,-0.08130991,0.4245488,0.5061491,0.40446866,1.5296288,0.050202265,0.0,0.1,0.03263864,0.016925227,0.058705065,0.033637457,inf,inf,inf,inf,1,1,1,1,4,3,2,3,4,0,0,1
1553214675,0,0.0,0.0,1.0085151,1.0289466,-0.072361164,1.1408086,0.91646695,-0.5153563,0.0023480384,0.0002900287,-0.0019545925,-0.0016392933,0.0075655105,0.026621034,-0.08130991,-0.7656861,0.05505332,0.010863628,1.5307528,0.050202265,0.0,0.1,0.032636397,0.016925227,0.058693845,0.03363745,inf,inf,inf,inf,1,1,1,1,4,3,2,3,4,0,0,1
1553234661,0,0.0,0.0,1.0084969,1.0289297,-0.072368346,1.1408086,0.91646695,-0.5153563,0.0012291934,0.0007711716,0.0007600735,0.0010683489,0.0075655105,0.026621034,-0.08130991,-0.17384414,0.11815121,-0.107894056,1.5285789,0.050202265,0.0,0.1,0.032634005,0.016925227,0.058665507,0.03363744,inf,inf,inf,inf,1,1,1,1,4,3,2,3,4,0,0,1
1553254649,0,0.0,0.0,1.0085514,1.0289147,-0.0723656,1.1408086,0.91646695,-0.5153563,0.0029781256,-0.004137648,0.0010191618,0.0013208725,0.0075655105,0.026621034,-0.08130991,-1.4765751,-1.1566439,0.40133643,1.5310582,0.050202265,0.0,0.1,0.032631345,0.016925227,0.058650255,0.033637434,inf,inf,inf,inf,1,1,1,1,4,3,2,3,4,0,0,1
1553274637,0,0.0,0.0,1.0085684,1.0288925,-0.07239034,1.1408086,0.91646695,-0.5153563,0.0041960585,0.003056617,-0.0031954944,-0.002900057,0.0075655105,0.026621034,-0.08130991,-0.9100867,0.23211822,0.0406464,1.5289515,0.050202265,0.0,0.1,0.032628536,0.016925227,0.058629658,0.033637412,inf,inf,inf,inf,1,1,1,1,4,3,2,3,4,0,0,1
1553294630,0,0.0,0.0,1.0086021,1.0288688,-0.07241341,1.1408086,0.91646695,-0.5153563,0.0041894577,-0.007257312,-0.0017282069,-0.0014391728,0.0075655105,0.026621034,-0.08130991,-0.71567196,-1.8147311,0.03103779,1.5300505,0.050202265,0.0,0.1,0.032625563,0.016925227,0.0586099,0.033637404,inf,inf,inf,inf,1,1,1,1,4,3,2,3,4,0,0,1
1553314619,0,0.0,0.0,1.0086069,1.0288619,-0.07243541,1.1408086,0.91646695,-0.5153563,0.005155252,0.0044510453,-0.0028514878,-0.002568757,0.0075655105,0.026621034,-0.08130991,-0.76399934,-0.23238589,-0.3709209,1.5303478,0.050202265,0.0,0.10001312,0.032622445,0.016925227,0.058589455,0.033637393,inf,inf,inf,inf,1,1,1,1,4,3,2,3,4,0,0,1
1553334604,0,0.0,0.0,1.0086204,1.0288453,-0.07249737,1.1408086,0.91646695,-0.5153563,0.013159575,-0.0043552076,-0.0020812037,-0.0018044547,0.0075655105,0.026621034,-0.08130991,1.4897329,-2.2926795,0.19668663,1.5294535,0.050202265,0.0,0.10007508,0.032619175,0.016925227,0.05856978,0.033637375,inf,inf,inf,inf,1,1,1,1,4,3,2,3,4,0,0,1
1553354592,0,0.0,0.0,1.0085742,1.0288278,-0.07252309,1.1408086,0.91646695,-0.5153563,0.011739703,-0.0061825966,-0.0011734858,-0.0009026646,0.0075655105,0.026621034,-0.08130991,3.3219547,-1.8266443,-0.3852884,1.5309684,0.050202265,0.0,0.1001008,0.03261577,0.016925225,0.058551572,0.033637363,inf,inf,inf,inf,1,1,1,1,4,3,2,3,4,0,0,1
1553374581,0,0.0,0.0,1.0086623,1.0287828,-0.072646,1.1408086,0.91646695,-0.5153563,-0.005276951,0.00052857585,-0.0057490338,-0.0054840413,0.0075655105,0.026621034,-0.08130991,0.6562181,-0.7919757,0.7577338,1.5302091,0.050202265,0.0,0.10022371,0.03261226,0.016925225,0.05853081,0.033637352,inf,inf,inf,inf,1,1,1,1,4,3,2,3,4,0,0,1
1553394569,0,0.0,0.0,1.0088081,1.0287203,-0.072736554,1.1408086,0.91646695,-0.5153563,0.0025476546,-0.007356735,-0.0133754425,-0.013116639,0.0075655105,0.026621034,-0.08130991,-2.660469,-1.0889018,-1.231015,1.5309517,0.050202265,0.0,0.10031427,0.032608673,0.016925223,0.058513135,0.033637334,inf,inf,inf,inf,1,1,1,1,4,3,2,3,4,0,0,1
1553414561,0,0.0,0.0,1.0088003,1.0286582,-0.07277963,1.1408086,0.91646695,-0.5153563,0.007144734,0.005504715,0.007655762,0.007908137,0.0075655105,0.026621034,-0.08130991,-0.6221502,0.4558383,0.27458724,1.529837,0.050202265,0.0,0.100357346,0.032604966,0.016925221,0.058496006,0.033637322,inf,inf,inf,inf,1,1,1,1,4,3,2,3,4,0,0,1
1553434547,0,0.0,0.0,1.0087264,1.0286651,-0.07268989,1.1408086,0.91646695,-0.5153563,0.021134555,-0.0020561228,-0.0036874802,-0.0034414977,0.0075655105,0.026621034,-0.08130991,3.2631552,-0.36234045,-1.5142928,1.5312122,0.050202265,0.0,0.100267604,0.032601193,0.01692522,0.05847772,0.033637304,inf,inf,inf,inf,1,1,1,1,4,3,2,3,4,0,0,1
1553454535,0,0.0,0.0,1.0089473,1.0285711,-0.07299173,1.1408086,0.91646695,-0.5153563,0.0056543765,0.0025487344,-0.015845263,-0.015605617,0.0075655105,0.026621034,-0.08130991,-0.6762824,0.89521503,0.77184117,1.5305423,0.050202265,0.0,0.10056944,0.032597404,0.016925218,0.05845993,0.03363729,inf,inf,inf,inf,1,1,1,1,4,3,2,3,4,0,0,1
1553474524,0,0.0,0.0,1.0089551,1.028581,-0.07302918,1.1408086,0.91646695,-0.5153563,-0.0004653674,0.0030060431,0.010629733,0.01086318,0.0075655105,0.026621034,-0.08130991,-1.4031799,0.15650252,0.95572406,1.531768,0.050202265,0.0,0.100606896,0.032593533,0.016925216,0.05844259,0.033637263,inf,inf,inf,inf,1,1,1,1,4,3,2,3,4,0,0,1
1553494512,0,0.0,0.0,1.0088667,1.028524,-0.07284653,1.1408086,0.91646695,-0.5153563,0.015265087,-0.0012608309,0.0016911902,0.0019186325,0.0075655105,0.026621034,-0.08130991,1.5528024,-0.20018946,-1.3611213,1.5302428,0.050202265,0.0,0.100424245,0.032589633,0.016925214,0.05843174,0.033637248,inf,inf,inf,inf,1,1,1,1,4,3,2,3,4,0,0,1
1553514501,0,0.0,0.0,1.0090499,1.0284432,-0.07304332,1.1408086,0.91646695,-0.5153563,0.0063935425,-0.0004417336,-0.012570678,-0.012348885,0.0075655105,0.026621034,-0.08130991,-0.85992354,0.31104124,0.28523105,1.5315197,0.050202265,0.0,0.10062103,0.03258572,0.016925212,0.05841097,0.033637248,inf,inf,inf,inf,1,1,1,1,4,3,2,3,4,0,0,1
1553534489,0,0.0,0.0,1.0091325,1.0284753,-0.07313026,1.1408086,0.91646695,-0.5153563,0.008838228,0.0024235405,-0.00075873005,-0.0005420884,0.0075655105,0.026621034,-0.08130991,-0.6688351,-1.1016694,-0.08874575,1.530896,0.050202265,0.0,0.10070797,0.032581747,0.016925212,0.05840756,0.033637226,inf,inf,inf,inf,1,1,1,1,4,3,2,3,4,0,0,1
1553554477,0,0.0,0.0,1.0090699,1.0284194,-0.07318245,1.1408086,0.91646695,-0.5153563,0.011140494,-0.0035695117,-0.0024030076,-0.0021910726,0.0075655105,0.026621034,-0.08130991,1.8937494,-0.5829605,-0.09989222,1.5312052,0.050202265,0.0,0.10076016,0.03257788,0.01692521,0.058377493,0.03363723,inf,inf,inf,inf,1,1,1,1,4,3,2,3,4,0,0,1
1553574466,0,0.0,0.0,1.0092208,1.0282607,-0.07325415,1.1408086,0.91646695,-0.5153563,0.004135464,-0.00037304574,-0.004866935,-0.0046585985,0.0075655105,0.026621034,-0.08130991,-1.2071751,0.9254507,-0.0702885,1.5315533,0.050202265,0.0,0.100831866,0.032573998,0.016925208,0.058362752,0.033637162,inf,inf,inf,inf,1,1,1,1,4,3,2,3,4,0,0,1
1553594457,0,0.0,0.0,1.0092409,1.0282327,-0.073217615,1.1408086,0.91646695,-0.5153563,0.009337421,0.0034414725,0.0049331686,0.005139146,0.0075655105,0.026621034,-0.08130991,0.34666395,0.4775073,-0.057515915,1.5317811,0.050202265,0.0,0.10079533,0.032569855,0.016925205,0.058332887,0.033637173,inf,inf,inf,inf,1,1,1,1,4,3,2,3,4,0,0,1
1553614443,0,0.0,0.0,1.0092235,1.028267,-0.073226415,1.1408086,0.91646695,-0.5153563,0.0075143515,0.003365609,-0.0038128097,-0.0036084258,0.0075655105,0.026621034,-0.08130991,1.3078085,-0.10700811,-0.16628428,1.5316337,0.050202265,0.0,0.10080413,0.032565765,0.016925203,0.058366384,0.03363716,inf,inf,inf,inf,1,1,1,1,4,3,2,3,4,0,0,1
1553634432,0,0.0,0.0,1.0094229,1.0282221,-0.07341275,1.1408086,0.91646695,-0.5153563,0.014347038,-0.0030386604,-0.015205823,-0.015001051,0.0075655105,0.026621034,-0.08130991,-1.1323994,-0.04637529,-0.52269846,1.5311317,0.050202265,0.0,0.10099047,0.03256213,0.016925199,0.05831838,0.0336371,inf,inf,inf,inf,1,1,1,1,4,3,2,3,4,0,0,1
1553654420,0,0.0,0.0,1.0094581,1.0281371,-0.073626995,1.1408086,0.91646695,-0.5153563,0.008452762,0.0012532265,0.00042983945,0.00063677074,0.0075655105,0.026621034,-0.08130991,0.7364549,0.59502745,1.3197682,1.5320519,0.050202265,0.0,0.10120471,0.032557957,0.016925197,0.058278512,0.03363709,inf,inf,inf,inf,1,1,1,1,4,3,2,3,4,0,0,1
1553674409,0,0.0,0.0,1.0094345,1.0280706,-0.07346243,1.1408086,0.91646695,-0.5153563,-0.0011449985,-0.0009364667,0.012985373,0.013195166,0.0075655105,0.026621034,-0.08130991,-0.077404015,-0.23354448,0.4370708,1.5314227,0.050202265,0.0,0.10104014,0.032553762,0.016925195,0.05831164,0.03363708,inf,inf,inf,inf,1,1,1,1,4,3,2,3,4,0,0,1
1553694398,0,0.0,0.0,1.0094646,1.0280758,-0.07329225,1.1408086,0.91646695,-0.5153563,0.017461868,-0.00011005268,-0.0016187209,-0.0014051774,0.0075655105,0.026621034,-0.08130991,0.83377427,-0.74552566,-1.3514808,1.5322818,0.050202265,0.0,0.10086996,0.03255006,0.016925193,0.058277074,0.033637036,inf,inf,inf,inf,1,1,1,1,4,3,2,3,4,0,0,1
1553714386,0,0.0,0.0,1.0097342,1.0280142,-0.07356791,1.1408086,0.91646695,-0.5153563,0.016235989,-0.0016142566,-0.024365313,-0.024146918,0.0075655105,0.026621034,-0.08130991,-0.60477465,-0.04464098,-0.9174368,1.5312417,0.050202265,0.0,0.101145625,0.0325461,0.016925192,0.058266394,0.033637024,inf,inf,inf,inf,1,1,1,1,4,3,2,3,4,0,0,1
1553734374,0,0.0,0.0,1.0099446,1.0279454,-0.07397148,1.1408086,0.91646695,-0.5153563,0.013302648,-0.0052903183,-0.0077909566,-0.007566558,0.0075655105,0.026621034,-0.08130991,-0.7343092,-0.97262406,1.7762635,1.5321518,0.050202265,0.0,0.10154919,0.032542203,0.016925188,0.058253877,0.03363701,inf,inf,inf,inf,1,1,1,1,4,3,2,3,4,0,0,1
1553754363,0,0.0,0.0,1.009871,1.0278628,-0.07385724,1.1408086,0.91646695,-0.5153563,-0.0064858296,0.0013188148,0.014725203,0.0149569,0.0075655105,0.026621034,-0.08130991,-0.49138862,0.5006674,0.7070387,1.5315275,0.050202265,0.0,0.10143495,0.032538377,0.016925184,0.058226284,0.033636954,inf,inf,inf,inf,1,1,1,1,4,3,2,3,4,0,0,1
1553774352,0,0.0,0.0,1.0097587,1.0278872,-0.07356721,1.1408086,0.91646695,-0.5153563,0.0056412607,-5.576391e-05,0.0070628067,0.0073030754,0.0075655105,0.026621034,-0.08130991,0.06855413,-0.47252765,-1.228137,1.5323482,0.050202265,0.0,0.101144925,0.032534372,0.01692518,0.0582211,0.03363694,inf,inf,inf,inf,1,1,1,1,4,3,2,3,4,0,0,1
1553794341,0,0.0,0.0,1.009923,1.0278369,-0.073615946,1.1408086,0.91646695,-0.5153563,0.022397524,-0.0005290966,-0.013732196,-0.013482229,0.0075655105,0.026621034,-0.08130991,1.0082418,0.28341898,-1.0716517,1.5316064,0.050202265,0.0,0.10119366,0.032530565,0.016925177,0.05822552,0.03363694,inf,inf,inf,inf,1,1,1,1,4,3,2,3,4,0,0,1
1553814329,0,0.0,0.0,1.0103806,1.0277051,-0.07399279,1.1408086,0.91646695,-0.5153563,0.027325438,-0.009154969,-0.021664225,-0.021403033,0.0075655105,0.026621034,-0.08130991,-0.7237863,-0.25570595,0.103696786,1.5328958,0.050202265,0.0,0.1015705,0.03252704,0.016925173,0.058222752,0.03363689,inf,inf,inf,inf,1,1,1,1,4,3,2,3,4,0,0,1
1553834318,0,0.0,0.0,1.0106227,1.0275482,-0.07428821,1.1408086,0.91646695,-0.5153563,0.009125308,-0.0011136812,-0.0077267415,-0.007452203,0.0075655105,0.026621034,-0.08130991,-0.6487342,0.69247353,1.0768408,1.5324383,0.050202265,0.0,0.101865925,0.03252341,0.01692517,0.05816418,0.03363686,inf,inf,inf,inf,1,1,1,1,4,3,2,3,4,0,0,1
1553854306,0,0.0,0.0,1.0106426,1.0275317,-0.07417891,1.1408086,0.91646695,-0.5153563,0.0026171177,-0.0004095498,0.013947709,0.0142364735,0.0075655105,0.026621034,-0.08130991,-0.8197964,-0.23120707,0.70879215,1.5330399,0.050202265,0.0,0.101756625,0.03251938,0.016925167,0.058150183,0.03363683,inf,inf,inf,inf,1,1,1,1,4,3,2,3,4,0,0,1
