timestamp,q[0],q[1],q[2],q[3],delta_q_reset[0],delta_q_reset[1],delta_q_reset[2],delta_q_reset[3],quat_reset_counter
368444928,0.7253767,0.00661735,0.0005401069,0.68832016,0.94608575,-2.4219032e-10,-5.337894e-11,0.32391635,3
368449924,0.7253757,0.0066150697,0.00054056617,0.68832123,0.94608575,-2.4219032e-10,-5.337894e-11,0.32391635,3
368469909,0.7253759,0.0066223857,0.0005391645,0.688321,0.94608575,-2.4219032e-10,-5.337894e-11,0.32391635,3
368489894,0.7253772,0.006626355,0.0005415528,0.6883195,0.94608575,-2.4219032e-10,-5.337894e-11,0.32391635,3
368509879,0.72537786,0.006637016,0.0005308273,0.6883188,0.94608575,-2.4219032e-10,-5.337894e-11,0.32391635,3
368524873,0.7253283,0.006643805,0.0005349109,0.6883708,0.94608575,-2.4219032e-10,-5.337894e-11,0.32391635,3
368549851,0.7253653,0.00662981,0.00052777247,0.68833214,0.94608575,-2.4219032e-10,-5.337894e-11,0.32391635,3
368569837,0.72540206,0.0066095246,0.00053372304,0.6882935,0.94608575,-2.4219032e-10,-5.337894e-11,0.32391635,3
368584826,0.725418,0.006621115,0.00054168067,0.6882766,0.94608575,-2.4219032e-10,-5.337894e-11,0.32391635,3
368609806,0.72540724,0.006649215,0.00054963795,0.6882877,0.94608575,-2.4219032e-10,-5.337894e-11,0.32391635,3
368629792,0.7253711,0.0066507403,0.0005586293,0.68832576,0.94608575,-2.4219032e-10,-5.337894e-11,0.32391635,3
368644781,0.7253929,0.0066065458,0.0005331311,0.6883032,0.94608575,-2.4219032e-10,-5.337894e-11,0.32391635,3
368664768,0.72538704,0.0066669267,0.0005780256,0.6883087,0.94608575,-2.4219032e-10,-5.337894e-11,0.32391635,3
368689748,0.72537637,0.00660845,0.0005318866,0.6883206,0.94608575,-2.4219032e-10,-5.337894e-11,0.32391635,3
368709734,0.72539896,0.0066148415,0.00055110216,0.6882967,0.94608575,-2.4219032e-10,-5.337894e-11,0.32391635,3
368724723,0.725361,0.006640068,0.00056118454,0.68833643,0.94608575,-2.4219032e-10,-5.337894e-11,0.32391635,3
368749705,0.7253633,0.006618131,0.0005503113,0.6883343,0.94608575,-2.4219032e-10,-5.337894e-11,0.32391635,3
368769691,0.7254188,0.006619281,0.0005669357,0.68827575,0.94608575,-2.4219032e-10,-5.337894e-11,0.32391635,3
368789675,0.72535354,0.006634885,0.0005653713,0.6883444,0.94608575,-2.4219032e-10,-5.337894e-11,0.32391635,3
368804664,0.72539616,0.0066600847,0.0005681426,0.6882992,0.94608575,-2.4219032e-10,-5.337894e-11,0.32391635,3
368829646,0.72536504,0.006657579,0.0005496622,0.68833196,0.94608575,-2.4219032e-10,-5.337894e-11,0.32391635,3
368849632,0.725352,0.0066675316,0.00057030283,0.68834573,0.94608575,-2.4219032e-10,-5.337894e-11,0.32391635,3
368869618,0.7253672,0.006639915,0.0005323204,0.68833,0.94608575,-2.4219032e-10,-5.337894e-11,0.32391635,3
368889602,0.72536165,0.006639554,0.00052824564,0.6883357,0.94608575,-2.4219032e-10,-5.337894e-11,0.32391635,3
368909587,0.7253499,0.0066698682,0.00055853877,0.68834794,0.94608575,-2.4219032e-10,-5.337894e-11,0.32391635,3
368929573,0.7253906,0.006634201,0.0005277206,0.6883054,0.94608575,-2.4219032e-10,-5.337894e-11,0.32391635,3
368944565,0.72533727,0.006698142,0.00057718006,0.6883609,0.94608575,-2.4219032e-10,-5.337894e-11,0.32391635,3
368969544,0.7254124,0.0065964055,0.000619932,0.68828267,0.94608575,-2.4219032e-10,-5.337894e-11,0.32391635,3
368989529,0.7252882,0.0065988544,0.0006657557,0.6884135,0.94608575,-2.4219032e-10,-5.337894e-11,0.32391635,3
369004519,0.7253716,0.0066299904,0.0006287513,0.68832535,0.94608575,-2.4219032e-10,-5.337894e-11,0.32391635,3
369029500,0.7254448,0.006577415,0.00061888667,0.68824875,0.94608575,-2.4219032e-10,-5.337894e-11,0.32391635,3
369049487,0.72525996,0.0066351527,0.000712173,0.68844277,0.94608575,-2.4219032e-10,-5.337894e-11,0.32391635,3
369069471,0.72548306,0.0065871896,0.0006756376,0.68820816,0.94608575,-2.4219032e-10,-5.337894e-11,0.32391635,3
369084462,0.72537047,0.0065278504,0.0005866094,0.68832755,0.94608575,-2.4219032e-10,-5.337894e-11,0.32391635,3
369109442,0.72525847,0.006555675,0.00069836125,0.68844515,0.94608575,-2.4219032e-10,-5.337894e-11,0.32391635,3
369129427,0.7256389,0.006546748,0.00059920904,0.6880443,0.94608575,-2.4219032e-10,-5.337894e-11,0.32391635,3
369149413,0.7251495,0.0065891985,0.00062242587,0.6885598,0.94608575,-2.4219032e-10,-5.337894e-11,0.32391635,3
369169399,0.7255278,0.006538756,0.00053486676,0.6881617,0.94608575,-2.4219032e-10,-5.337894e-11,0.32391635,3
369189383,0.7254177,0.0065467292,0.00055151834,0.68827766,0.94608575,-2.4219032e-10,-5.337894e-11,0.32391635,3
369209370,0.7251484,0.0066024447,0.00064024876,0.6885608,0.94608575,-2.4219032e-10,-5.337894e-11,0.32391635,3
369224359,0.72542125,0.0065005617,0.00061861053,0.6882743,0.94608575,-2.4219032e-10,-5.337894e-11,0.32391635,3
369249340,0.7250352,0.00659079,0.0005824287,0.68868005,0.94608575,-2.4219032e-10,-5.337894e-11,0.32391635,3
369269325,0.7256681,0.006523403,0.00061517337,0.6880138,0.94608575,-2.4219032e-10,-5.337894e-11,0.32391635,3
369289311,0.7251536,0.0067094974,0.0007080302,0.6885541,0.94608575,-2.4219032e-10,-5.337894e-11,0.32391635,3
369309295,0.7254275,0.0065843486,0.00066035404,0.6882669,0.94608575,-2.4219032e-10,-5.337894e-11,0.32391635,3
369329281,0.7256668,0.0065027378,0.00069317635,0.6880152,0.94608575,-2.4219032e-10,-5.337894e-11,0.32391635,3
369349269,0.72492784,0.006621763,0.0007598937,0.68879265,0.94608575,-2.4219032e-10,-5.337894e-11,0.32391635,3
369364256,0.7256383,0.006583751,0.0006239678,0.68804467,0.94608575,-2.4219032e-10,-5.337894e-11,0.32391635,3
369389237,0.72493684,0.006618662,0.0007192622,0.6887832,0.94608575,-2.4219032e-10,-5.337894e-11,0.32391635,3
369409223,0.7257641,0.0065553156,0.00059403654,0.68791217,0.94608575,-2.4219032e-10,-5.337894e-11,0.32391635,3
369429208,0.7251017,0.0067433794,0.0008363234,0.6886083,0.94608575,-2.4219032e-10,-5.337894e-11,0.32391635,3
369449195,0.7253916,0.0065469043,0.0006097192,0.688305,0.94608575,-2.4219032e-10,-5.337894e-11,0.32391635,3
369469179,0.72529334,0.0064782463,0.00065517524,0.6884092,0.94608575,-2.4219032e-10,-5.337894e-11,0.32391635,3
369489165,0.72506195,0.0063244966,0.0009730426,0.68865395,0.94608575,-2.4219032e-10,-5.337894e-11,0.32391635,3
369509150,0.725221,0.006591707,0.0009507726,0.6884841,0.94608575,-2.4219032e-10,-5.337894e-11,0.32391635,3
369529135,0.72487265,0.0064786877,0.0010177125,0.6888518,0.94608575,-2.4219032e-10,-5.337894e-11,0.32391635,3
369549121,0.72553223,0.005902308,0.0005764477,0.6881627,0.94608575,-2.4219032e-10,-5.337894e-11,0.32391635,3
369569107,0.72512686,0.0059905103,0.00078681874,0.6885889,0.94608575,-2.4219032e-10,-5.337894e-11,0.32391635,3
369589091,0.7254638,0.0055052903,0.00048608155,0.6882382,0.94608575,-2.4219032e-10,-5.337894e-11,0.32391635,3
369609077,0.7249502,0.0060033225,0.0005387098,0.688775,0.94608575,-2.4219032e-10,-5.337894e-11,0.32391635,3
369629062,0.7252294,0.0056936312,0.0001886364,0.6884838,0.94608575,-2.4219032e-10,-5.337894e-11,0.32391635,3
369649048,0.7247243,0.0062095844,0.0003699957,0.6890109,0.94608575,-2.4219032e-10,-5.337894e-11,0.32391635,3
369669035,0.72485936,0.0059279776,-2.7475158e-05,0.68887144,0.94608575,-2.4219032e-10,-5.337894e-11,0.32391635,3
369689019,0.7245014,0.0063204216,7.059419e-05,0.6892445,0.94608575,-2.4219032e-10,-5.337894e-11,0.32391635,3
369704009,0.7244775,0.0060532973,-0.000221194,0.6892718,0.94608575,-2.4219032e-10,-5.337894e-11,0.32391635,3
369728990,0.7240608,0.0059245247,-0.00036064297,0.68971074,0.94608575,-2.4219032e-10,-5.337894e-11,0.32391635,3
369748976,0.7240454,0.005196899,-0.00089289254,0.68973225,0.94608575,-2.4219032e-10,-5.337894e-11,0.32391635,3
369768961,0.7237999,0.0051467842,-0.0007737273,0.6899904,0.94608575,-2.4219032e-10,-5.337894e-11,0.32391635,3
369788946,0.7235246,0.0048049046,-0.0010394017,0.69028115,0.94608575,-2.4219032e-10,-5.337894e-11,0.32391635,3
369808931,0.7233757,0.005005754,-0.00044794907,0.6904365,0.94608575,-2.4219032e-10,-5.337894e-11,0.32391635,3
369828917,0.72334594,0.0050535663,-0.00038909735,0.69046724,0.94608575,-2.4219032e-10,-5.337894e-11,0.32391635,3
369848902,0.7233089,0.005409928,-0.00014451174,0.6905035,0.94608575,-2.4219032e-10,-5.337894e-11,0.32391635,3
369868887,0.7235224,0.0049499217,-0.00046197852,0.690283,0.94608575,-2.4219032e-10,-5.337894e-11,0.32391635,3
369888873,0.7236594,0.004582552,-0.00097158813,0.6901415,0.94608575,-2.4219032e-10,-5.337894e-11,0.32391635,3
369908858,0.7237695,0.0035750074,-0.0016938873,0.6900306,0.94608575,-2.4219032e-10,-5.337894e-11,0.32391635,3
369928844,0.7236366,0.0031261954,-0.00238238,0.69017,0.94608575,-2.4219032e-10,-5.337894e-11,0.32391635,3
369948829,0.7234672,0.002572343,-0.0033361455,0.690346,0.94608575,-2.4219032e-10,-5.337894e-11,0.32391635,3
369968814,0.7230368,0.0015511569,-0.0043851417,0.6907939,0.94608575,-2.4219032e-10,-5.337894e-11,0.32391635,3
369988799,0.72263736,0.0008823368,-0.005157383,0.6912076,0.94608575,-2.4219032e-10,-5.337894e-11,0.32391635,3
370008785,0.7223166,-1.4264623e-05,-0.006006415,0.6915365,0.94608575,-2.4219032e-10,-5.337894e-11,0.32391635,3
370028776,0.72200745,-0.00045497352,-0.006042718,0.6918588,0.94608575,-2.4219032e-10,-5.337894e-11,0.32391635,3
370048757,0.72186166,-0.0007387639,-0.006184017,0.6920094,0.94608575,-2.4219032e-10,-5.337894e-11,0.32391635,3
370068742,0.72174656,-0.000919592,-0.0060536675,0.6921303,0.94608575,-2.4219032e-10,-5.337894e-11,0.32391635,3
370088727,0.7218465,-0.0008635173,-0.0060290447,0.69202644,0.94608575,-2.4219032e-10,-5.337894e-11,0.32391635,3
370108712,0.7218772,-0.0014600243,-0.0063476223,0.69199055,0.94608575,-2.4219032e-10,-5.337894e-11,0.32391635,3
370128699,0.7219972,-0.0017743356,-0.0064486125,0.6918637,0.94608575,-2.4219032e-10,-5.337894e-11,0.32391635,3
370148684,0.72179514,-0.001907945,-0.0067093475,0.6920717,0.94608575,-2.4219032e-10,-5.337894e-11,0.32391635,3
370168669,0.7216919,-0.0024143052,-0.007214565,0.69217265,0.94608575,-2.4219032e-10,-5.337894e-11,0.32391635,3
370193654,0.7212726,-0.0037234044,-0.007906363,0.69259626,0.94608575,-2.4219032e-10,-5.337894e-11,0.32391635,3
370208639,0.7210601,-0.0039774375,-0.008602746,0.69280773,0.94608575,-2.4219032e-10,-5.337894e-11,0.32391635,3
370228625,0.72089666,-0.0044615897,-0.008501856,0.6929761,0.94608575,-2.4219032e-10,-5.337894e-11,0.32391635,3
370248609,0.72053254,-0.004616866,-0.008533155,0.69335335,0.94608575,-2.4219032e-10,-5.337894e-11,0.32391635,3
370268595,0.7201457,-0.004751838,-0.008022222,0.6937603,0.94608575,-2.4219032e-10,-5.337894e-11,0.32391635,3
370288581,0.7197981,-0.004692163,-0.008233324,0.6941189,0.94608575,-2.4219032e-10,-5.337894e-11,0.32391635,3
370308566,0.7194446,-0.004660995,-0.007972314,0.6944886,0.94608575,-2.4219032e-10,-5.337894e-11,0.32391635,3
370328551,0.71882224,-0.0050037703,-0.008203104,0.69512755,0.94608575,-2.4219032e-10,-5.337894e-11,0.32391635,3
370348540,0.7180487,-0.005454568,-0.00878267,0.6959161,0.94608575,-2.4219032e-10,-5.337894e-11,0.32391635,3
370368522,0.71733123,-0.0063326573,-0.009957575,0.6966324,0.94608575,-2.4219032e-10,-5.337894e-11,0.32391635,3
370388508,0.7160448,-0.0074594724,-0.011589905,0.69791836,0.94608575,-2.4219032e-10,-5.337894e-11,0.32391635,3
370408494,0.7150294,-0.008809077,-0.012926263,0.6989194,0.94608575,-2.4219032e-10,-5.337894e-11,0.32391635,3
370428480,0.7142958,-0.009124405,-0.012655969,0.69967,0.94608575,-2.4219032e-10,-5.337894e-11,0.32391635,3
370448464,0.71337146,-0.008034594,-0.012205136,0.7006338,0.94608575,-2.4219032e-10,-5.337894e-11,0.32391635,3
370468449,0.71278787,-0.0072332234,-0.0116845835,0.7012451,0.94608575,-2.4219032e-10,-5.337894e-11,0.32391635,3
370488435,0.7123836,-0.006539067,-0.010628088,0.70167935,0.94608575,-2.4219032e-10,-5.337894e-11,0.32391635,3
370508422,0.71204644,-0.0065846764,-0.010389213,0.7020247,0.94608575,-2.4219032e-10,-5.337894e-11,0.32391635,3
370528408,0.7116142,-0.0065507344,-0.010165295,0.70246637,0.94608575,-2.4219032e-10,-5.337894e-11,0.32391635,3
370548391,0.71132636,-0.0075085307,-0.011247795,0.7027318,0.94608575,-2.4219032e-10,-5.337894e-11,0.32391635,3
370568376,0.71045095,-0.00889631,-0.012956863,0.7035712,0.94608575,-2.4219032e-10,-5.337894e-11,0.32391635,3
370588361,0.7096367,-0.011201877,-0.0145750195,0.704328,0.94608575,-2.4219032e-10,-5.337894e-11,0.32391635,3
370608348,0.70951957,-0.012640398,-0.015743282,0.70439655,0.94608575,-2.4219032e-10,-5.337894e-11,0.32391635,3
370628332,0.70907176,-0.01459623,-0.01753948,0.70476717,0.94608575,-2.4219032e-10,-5.337894e-11,0.32391635,3
370648318,0.7091451,-0.015416042,-0.018405277,0.7046537,0.94608575,-2.4219032e-10,-5.337894e-11,0.32391635,3
370668303,0.7090373,-0.015931372,-0.017611006,0.7047711,0.94608575,-2.4219032e-10,-5.337894e-11,0.32391635,3
370688290,0.70909834,-0.016236234,-0.016053203,0.7047399,0.94608575,-2.4219032e-10,-5.337894e-11,0.32391635,3
370708275,0.7096585,-0.016518276,-0.01605762,0.70416915,0.94608575,-2.4219032e-10,-5.337894e-11,0.32391635,3
370728260,0.7097059,-0.016610065,-0.016864436,0.7041004,0.94608575,-2.4219032e-10,-5.337894e-11,0.32391635,3
370748247,0.71028155,-0.016097901,-0.01688965,0.7035309,0.94608575,-2.4219032e-10,-5.337894e-11,0.32391635,3
370768230,0.71070766,-0.016217237,-0.016772091,0.70310056,0.94608575,-2.4219032e-10,-5.337894e-11,0.32391635,3
370788216,0.7108078,-0.017540216,-0.01616046,0.7029818,0.94608575,-2.4219032e-10,-5.337894e-11,0.32391635,3
370808201,0.71102417,-0.018006103,-0.014419682,0.70278907,0.94608575,-2.4219032e-10,-5.337894e-11,0.32391635,3
370828186,0.7111742,-0.018087594,-0.013870434,0.7026463,0.94608575,-2.4219032e-10,-5.337894e-11,0.32391635,3
370848172,0.71091324,-0.017946718,-0.015111797,0.7028883,0.94608575,-2.4219032e-10,-5.337894e-11,0.32391635,3
370868158,0.7107858,-0.01706162,-0.017038882,0.70299506,0.94608575,-2.4219032e-10,-5.337894e-11,0.32391635,3
370888143,0.71063465,-0.014957737,-0.017329836,0.7031888,0.94608575,-2.4219032e-10,-5.337894e-11,0.32391635,3
370908129,0.7101463,-0.013720507,-0.017436253,0.7037044,0.94608575,-2.4219032e-10,-5.337894e-11,0.32391635,3
370928113,0.7096156,-0.013828423,-0.018502017,0.7042104,0.94608575,-2.4219032e-10,-5.337894e-11,0.32391635,3
370948099,0.70895046,-0.013225699,-0.020399112,0.70483917,0.94608575,-2.4219032e-10,-5.337894e-11,0.32391635,3
370968085,0.7082974,-0.011149029,-0.02065935,0.7055238,0.94608575,-2.4219032e-10,-5.337894e-11,0.32391635,3
370988070,0.7081037,-0.008262258,-0.018358048,0.70582145,0.94608575,-2.4219032e-10,-5.337894e-11,0.32391635,3
371008055,0.7081005,-0.0060977945,-0.01620057,0.70589954,0.94608575,-2.4219032e-10,-5.337894e-11,0.32391635,3
371028041,0.70777035,-0.0032882353,-0.016307617,0.70624673,0.94608575,-2.4219032e-10,-5.337894e-11,0.32391635,3
371048026,0.70752394,-0.0017433024,-0.019116372,0.7064287,0.94608575,-2.4219032e-10,-5.337894e-11,0.32391635,3
371068011,0.70744365,-0.0018606777,-0.020758774,0.70646244,0.94608575,-2.4219032e-10,-5.337894e-11,0.32391635,3
371087997,0.7075214,-0.0033695612,-0.019218165,0.70642257,0.94608575,-2.4219032e-10,-5.337894e-11,0.32391635,3
371107982,0.7078368,-0.005493618,-0.0168763,0.7061531,0.94608575,-2.4219032e-10,-5.337894e-11,0.32391635,3
371127967,0.7085092,-0.0051566246,-0.016969578,0.70547867,0.94608575,-2.4219032e-10,-5.337894e-11,0.32391635,3
371147953,0.70877904,-0.006606952,-0.020157965,0.70511156,0.94608575,-2.4219032e-10,-5.337894e-11,0.32391635,3
371167938,0.709341,-0.005168143,-0.021267565,0.7045257,0.94608575,-2.4219032e-10,-5.337894e-11,0.32391635,3
371187924,0.7096377,-0.00042420474,-0.01974473,0.7042899,0.94608575,-2.4219032e-10,-5.337894e-11,0.32391635,3
371207909,0.70968777,0.0043054647,-0.0185266,0.7042596,0.94608575,-2.4219032e-10,-5.337894e-11,0.32391635,3
371227894,0.7098263,0.008426181,-0.018404255,0.7040859,0.94608575,-2.4219032e-10,-5.337894e-11,0.32391635,3
371247880,0.7095076,0.009870723,-0.019787343,0.70435077,0.94608575,-2.4219032e-10,-5.337894e-11,0.32391635,3
371267865,0.70912737,0.011027788,-0.021575905,0.70466405,0.94608575,-2.4219032e-10,-5.337894e-11,0.32391635,3
371287852,0.7085934,0.013393178,-0.023098333,0.7051117,0.94608575,-2.4219032e-10,-5.337894e-11,0.32391635,3
371307836,0.7079006,0.01762126,-0.02371236,0.7056941,0.94608575,-2.4219032e-10,-5.337894e-11,0.32391635,3
371327822,0.7074986,0.022174273,-0.022915188,0.7059951,0.94608575,-2.4219032e-10,-5.337894e-11,0.32391635,3
371347807,0.7069341,0.026071364,-0.02056893,0.7064994,0.94608575,-2.4219032e-10,-5.337894e-11,0.32391635,3
371367792,0.7066953,0.029110357,-0.018861625,0.7066673,0.94608575,-2.4219032e-10,-5.337894e-11,0.32391635,3
371387781,0.7066663,0.030367013,-0.018771535,0.70664585,0.94608575,-2.4219032e-10,-5.337894e-11,0.32391635,3
371407763,0.7061427,0.03125869,-0.018134344,0.7071467,0.94608575,-2.4219032e-10,-5.337894e-11,0.32391635,3
371427750,0.70607954,0.032133315,-0.014838672,0.70724744,0.94608575,-2.4219032e-10,-5.337894e-11,0.32391635,3
371447734,0.7060454,0.034179732,-0.009492571,0.7072776,0.94608575,-2.4219032e-10,-5.337894e-11,0.32391635,3
371467720,0.7057592,0.036465585,-0.006387945,0.7074839,0.94608575,-2.4219032e-10,-5.337894e-11,0.32391635,3
371487705,0.70568645,0.03845987,-0.007127658,0.7074438,0.94608575,-2.4219032e-10,-5.337894e-11,0.32391635,3
371507690,0.7057366,0.039382905,-0.009976687,0.7073086,0.94608575,-2.4219032e-10,-5.337894e-11,0.32391635,3
371527676,0.70558953,0.0406994,-0.010858166,0.7073678,0.94608575,-2.4219032e-10,-5.337894e-11,0.32391635,3
371547662,0.7057074,0.042611763,-0.008606305,0.7071686,0.94608575,-2.4219032e-10,-5.337894e-11,0.32391635,3
371567647,0.70599586,0.044099517,-0.004785526,0.70682555,0.94608575,-2.4219032e-10,-5.337894e-11,0.32391635,3
371587632,0.70604366,0.04408741,-0.0032008619,0.7067874,0.94608575,-2.4219032e-10,-5.337894e-11,0.32391635,3
371607618,0.70633584,0.043603547,-0.0054410486,0.7065118,0.94608575,-2.4219032e-10,-5.337894e-11,0.32391635,3
371627603,0.7062321,0.044106755,-0.00856908,0.7065532,0.94608575,-2.4219032e-10,-5.337894e-11,0.32391635,3
371647588,0.7063143,0.045664568,-0.009413834,0.7063613,0.94608575,-2.4219032e-10,-5.337894e-11,0.32391635,3
371667574,0.7062717,0.04687609,-0.008192328,0.70633984,0.94608575,-2.4219032e-10,-5.337894e-11,0.32391635,3
371687559,0.70627654,0.047416877,-0.006172642,0.7063194,0.94608575,-2.4219032e-10,-5.337894e-11,0.32391635,3
371707545,0.70669657,0.046072908,-0.0054194676,0.7059943,0.94608575,-2.4219032e-10,-5.337894e-11,0.32391635,3
371727530,0.70696896,0.04230621,-0.006154507,0.7059514,0.94608575,-2.4219032e-10,-5.337894e-11,0.32391635,3
371747515,0.70753473,0.039034307,-0.007057868,0.7055644,0.94608575,-2.4219032e-10,-5.337894e-11,0.32391635,3
371767501,0.7077757,0.038806703,-0.005711508,0.7053474,0.94608575,-2.4219032e-10,-5.337894e-11,0.32391635,3
371787486,0.7082392,0.03847852,-0.0045108497,0.7049088,0.94608575,-2.4219032e-10,-5.337894e-11,0.32391635,3
371807472,0.7084671,0.03773619,-0.005109644,0.7047157,0.94608575,-2.4219032e-10,-5.337894e-11,0.32391635,3
371827457,0.70867044,0.036722627,-0.0069085513,0.70454943,0.94608575,-2.4219032e-10,-5.337894e-11,0.32391635,3
371847443,0.7089929,0.035623897,-0.008473432,0.7042644,0.94608575,-2.4219032e-10,-5.337894e-11,0.32391635,3
371867428,0.7089959,0.036466718,-0.0076679774,0.70422745,0.94608575,-2.4219032e-10,-5.337894e-11,0.32391635,3
371887413,0.70924526,0.036808003,-0.00579609,0.7039764,0.94608575,-2.4219032e-10,-5.337894e-11,0.32391635,3
371907399,0.70912874,0.03654749,-0.0036882183,0.70412153,0.94608575,-2.4219032e-10,-5.337894e-11,0.32391635,3
371927384,0.70943046,0.037042722,-0.0013011467,0.7038002,0.94608575,-2.4219032e-10,-5.337894e-11,0.32391635,3
371947370,0.7093898,0.036853123,-0.00061292964,0.703852,0.94608575,-2.4219032e-10,-5.337894e-11,0.32391635,3
371967355,0.7093303,0.034808576,-0.00087953603,0.70401573,0.94608575,-2.4219032e-10,-5.337894e-11,0.32391635,3
371987341,0.70914084,0.033158343,0.0006928961,0.70428646,0.94608575,-2.4219032e-10,-5.337894e-11,0.32391635,3
372007326,0.70856595,0.032292895,0.0029537112,0.7048992,0.94608575,-2.4219032e-10,-5.337894e-11,0.32391635,3
372027314,0.7079786,0.031824335,0.0043269787,0.7055032,0.94608575,-2.4219032e-10,-5.337894e-11,0.32391635,3
372047296,0.70718014,0.031504393,0.0045662005,0.7063165,0.94608575,-2.4219032e-10,-5.337894e-11,0.32391635,3
372067282,0.7064674,0.031068508,0.0034041563,0.70705515,0.94608575,-2.4219032e-10,-5.337894e-11,0.32391635,3
372087267,0.7056603,0.030475872,0.002585142,0.70789,0.94608575,-2.4219032e-10,-5.337894e-11,0.32391635,3
372107253,0.70474744,0.03171699,0.004182397,0.70873666,0.94608575,-2.4219032e-10,-5.337894e-11,0.32391635,3
372127239,0.7040444,0.033798177,0.0067719184,0.709319,0.94608575,-2.4219032e-10,-5.337894e-11,0.32391635,3
372147226,0.70341265,0.03584292,0.00967615,0.70981145,0.94608575,-2.4219032e-10,-5.337894e-11,0.32391635,3
372167208,0.70306015,0.037636373,0.012336025,0.7100267,0.94608575,-2.4219032e-10,-5.337894e-11,0.32391635,3
372187194,0.7029511,0.038494937,0.014846644,0.71004057,0.94608575,-2.4219032e-10,-5.337894e-11,0.32391635,3
372207179,0.7028572,0.03887545,0.017513648,0.710052,0.94608575,-2.4219032e-10,-5.337894e-11,0.32391635,3
372227167,0.7032682,0.039962616,0.019137725,0.70954263,0.94608575,-2.4219032e-10,-5.337894e-11,0.32391635,3
372247150,0.703693,0.040862806,0.019050939,0.7090723,0.94608575,-2.4219032e-10,-5.337894e-11,0.32391635,3
372267136,0.70448524,0.04004635,0.017458325,0.7083729,0.94608575,-2.4219032e-10,-5.337894e-11,0.32391635,3
372287121,0.7054521,0.036766503,0.015356273,0.7076368,0.94608575,-2.4219032e-10,-5.337894e-11,0.32391635,3
372307107,0.70564044,0.03350854,0.013557913,0.7076475,0.94608575,-2.4219032e-10,-5.337894e-11,0.32391635,3
372327092,0.7062708,0.03209707,0.013441441,0.7070861,0.94608575,-2.4219032e-10,-5.337894e-11,0.32391635,3
372347078,0.706278,0.031741586,0.012946521,0.7071042,0.94608575,-2.4219032e-10,-5.337894e-11,0.32391635,3
372367063,0.7063038,0.032473434,0.012054636,0.70706093,0.94608575,-2.4219032e-10,-5.337894e-11,0.32391635,3
372387048,0.70665723,0.031849165,0.00992429,0.7067692,0.94608575,-2.4219032e-10,-5.337894e-11,0.32391635,3
372407034,0.70647883,0.029321587,0.007681099,0.7070849,0.94608575,-2.4219032e-10,-5.337894e-11,0.32391635,3
372427020,0.70664173,0.027456265,0.0055822805,0.7070167,0.94608575,-2.4219032e-10,-5.337894e-11,0.32391635,3
372447005,0.70676637,0.026686003,0.0039273817,0.7069327,0.94608575,-2.4219032e-10,-5.337894e-11,0.32391635,3
372466990,0.7068278,0.025856065,0.0032645105,0.70690536,0.94608575,-2.4219032e-10,-5.337894e-11,0.32391635,3
372486975,0.7071626,0.024059312,0.0018738256,0.706639,0.94608575,-2.4219032e-10,-5.337894e-11,0.32391635,3
372506960,0.7071112,0.020632954,-0.0019732863,0.7067986,0.94608575,-2.4219032e-10,-5.337894e-11,0.32391635,3
372526946,0.707068,0.016991233,-0.0065389914,0.7069112,0.94608575,-2.4219032e-10,-5.337894e-11,0.32391635,3
372546933,0.7068556,0.015709193,-0.009731787,0.7071165,0.94608575,-2.4219032e-10,-5.337894e-11,0.32391635,3
372566918,0.7064666,0.017333625,-0.009859789,0.70746547,0.94608575,-2.4219032e-10,-5.337894e-11,0.32391635,3
372586902,0.7063365,0.018504329,-0.009783411,0.7075667,0.94608575,-2.4219032e-10,-5.337894e-11,0.32391635,3
372606888,0.70627,0.015728334,-0.011658037,0.7076718,0.94608575,-2.4219032e-10,-5.337894e-11,0.32391635,3
372626876,0.7063462,0.010638838,-0.016869958,0.7075856,0.94608575,-2.4219032e-10,-5.337894e-11,0.32391635,3
372646859,0.7063937,0.007221669,-0.021964904,0.70744145,0.94608575,-2.4219032e-10,-5.337894e-11,0.32391635,3
372666845,0.70665205,0.00685813,-0.023943778,0.70712274,0.94608575,-2.4219032e-10,-5.337894e-11,0.32391635,3
372686830,0.7068915,0.008539733,-0.023520453,0.7068794,0.94608575,-2.4219032e-10,-5.337894e-11,0.32391635,3
372706815,0.7070657,0.0096153505,-0.02371917,0.7066846,0.94608575,-2.4219032e-10,-5.337894e-11,0.32391635,3
372726800,0.7073498,0.008395979,-0.02572951,0.70634544,0.94608575,-2.4219032e-10,-5.337894e-11,0.32391635,3
372746787,0.7074955,0.0076847533,-0.027598081,0.706137,0.94608575,-2.4219032e-10,-5.337894e-11,0.32391635,3
372766772,0.70756155,0.008033778,-0.028556248,0.7060289,0.94608575,-2.4219032e-10,-5.337894e-11,0.32391635,3
372786756,0.70794505,0.010003686,-0.027755417,0.70565104,0.94608575,-2.4219032e-10,-5.337894e-11,0.32391635,3
372806742,0.70791554,0.011639317,-0.026376968,0.7057084,0.94608575,-2.4219032e-10,-5.337894e-11,0.32391635,3
372826728,0.7082563,0.011596304,-0.026277758,0.7053709,0.94608575,-2.4219032e-10,-5.337894e-11,0.32391635,3
372851709,0.708674,0.011052788,-0.027616194,0.7049088,0.94608575,-2.4219032e-10,-5.337894e-11,0.32391635,3
372866699,0.7088646,0.010345743,-0.028038528,0.70471114,0.94608575,-2.4219032e-10,-5.337894e-11,0.32391635,3
372886683,0.7094076,0.010014004,-0.027410014,0.70419407,0.94608575,-2.4219032e-10,-5.337894e-11,0.32391635,3
372906670,0.70921504,0.010671779,-0.026615638,0.7044089,0.94608575,-2.4219032e-10,-5.337894e-11,0.32391635,3
372926655,0.7089585,0.012148977,-0.026127571,0.7046613,0.94608575,-2.4219032e-10,-5.337894e-11,0.32391635,3
372946640,0.7086324,0.012487551,-0.025396565,0.70501006,0.94608575,-2.4219032e-10,-5.337894e-11,0.32391635,3
372966626,0.7081602,0.012191177,-0.02263728,0.70558345,0.94608575,-2.4219032e-10,-5.337894e-11,0.32391635,3
372986611,0.708359,0.012926795,-0.018979626,0.7054788,0.94608575,-2.4219032e-10,-5.337894e-11,0.32391635,3
373006598,0.70854515,0.013224656,-0.01784899,0.70531577,0.94608575,-2.4219032e-10,-5.337894e-11,0.32391635,3
373026582,0.7085118,0.013612259,-0.018739674,0.70531875,0.94608575,-2.4219032e-10,-5.337894e-11,0.32391635,3
373046569,0.70874953,0.0146610215,-0.019027073,0.7050512,0.94608575,-2.4219032e-10,-5.337894e-11,0.32391635,3
373066553,0.7088658,0.014707774,-0.017502096,0.70497286,0.94608575,-2.4219032e-10,-5.337894e-11,0.32391635,3
373086538,0.7089593,0.014758297,-0.01487121,0.7049382,0.94608575,-2.4219032e-10,-5.337894e-11,0.32391635,3
373106523,0.70928955,0.0155926375,-0.0130191,0.7046246,0.94608575,-2.4219032e-10,-5.337894e-11,0.32391635,3
373131505,0.7093327,0.017234286,-0.012593304,0.7045506,0.94608575,-2.4219032e-10,-5.337894e-11,0.32391635,3
373146495,0.70936245,0.018268203,-0.012080567,0.7045036,0.94608575,-2.4219032e-10,-5.337894e-11,0.32391635,3
373166480,0.7095363,0.018154463,-0.010814743,0.70435196,0.94608575,-2.4219032e-10,-5.337894e-11,0.32391635,3
373191463,0.7094347,0.018461397,-0.007685779,0.7044875,0.94608575,-2.4219032e-10,-5.337894e-11,0.32391635,3
373206451,0.7094442,0.019348502,-0.005698073,0.7044729,0.94608575,-2.4219032e-10,-5.337894e-11,0.32391635,3
373226441,0.70901006,0.020459993,-0.003829341,0.7048911,0.94608575,-2.4219032e-10,-5.337894e-11,0.32391635,3
373246421,0.7084398,0.022645816,-0.001608897,0.705406,0.94608575,-2.4219032e-10,-5.337894e-11,0.32391635,3
373271404,0.70804274,0.025297163,0.00066198816,0.705716,0.94608575,-2.4219032e-10,-5.337894e-11,0.32391635,3
373286392,0.70737404,0.02702076,0.0010927765,0.706322,0.94608575,-2.4219032e-10,-5.337894e-11,0.32391635,3
373306378,0.7068274,0.029882593,0.002589066,0.7067499,0.94608575,-2.4219032e-10,-5.337894e-11,0.32391635,3
373331359,0.706343,0.033904415,0.005920023,0.7070326,0.94608575,-2.4219032e-10,-5.337894e-11,0.32391635,3
373346349,0.7055723,0.035095595,0.0076883445,0.70772666,0.94608575,-2.4219032e-10,-5.337894e-11,0.32391635,3
373366335,0.7050012,0.03616775,0.008822727,0.70822847,0.94608575,-2.4219032e-10,-5.337894e-11,0.32391635,3
373386319,0.70445675,0.03642643,0.009040956,0.7087539,0.94608575,-2.4219032e-10,-5.337894e-11,0.32391635,3
373411301,0.7037787,0.035352852,0.009606144,0.70947415,0.94608575,-2.4219032e-10,-5.337894e-11,0.32391635,3
373426291,0.7033934,0.03413921,0.009577725,0.70991594,0.94608575,-2.4219032e-10,-5.337894e-11,0.32391635,3
373446276,0.7027108,0.0329622,0.009180589,0.7106524,0.94608575,-2.4219032e-10,-5.337894e-11,0.32391635,3
373471257,0.70193905,0.033381425,0.006850938,0.71142143,0.94608575,-2.4219032e-10,-5.337894e-11,0.32391635,3
373491243,0.70165926,0.03432431,0.0060781008,0.7116595,0.94608575,-2.4219032e-10,-5.337894e-11,0.32391635,3
373506236,0.70125335,0.034505684,0.006913267,0.7120431,0.94608575,-2.4219032e-10,-5.337894e-11,0.32391635,3
373526218,0.7006513,0.034430448,0.009324815,0.71261173,0.94608575,-2.4219032e-10,-5.337894e-11,0.32391635,3
373546203,0.7003845,0.0326293,0.00986262,0.7129514,0.94608575,-2.4219032e-10,-5.337894e-11,0.32391635,3
373566189,0.7003364,0.03010653,0.008151977,0.71313125,0.94608575,-2.4219032e-10,-5.337894e-11,0.32391635,3
373586174,0.69986266,0.028438613,0.006233906,0.7136839,0.94608575,-2.4219032e-10,-5.337894e-11,0.32391635,3
373611156,0.69961685,0.030585079,0.0057139196,0.7138404,0.94608575,-2.4219032e-10,-5.337894e-11,0.32391635,3
373626144,0.6994783,0.032096963,0.0063486076,0.7139045,0.94608575,-2.4219032e-10,-5.337894e-11,0.32391635,3
373646130,0.699041,0.032477245,0.0068842797,0.7143106,0.94608575,-2.4219032e-10,-5.337894e-11,0.32391635,3
373666115,0.6987622,0.03146426,0.00558788,0.7146399,0.94608575,-2.4219032e-10,-5.337894e-11,0.32391635,3
373686101,0.69870865,0.029964214,0.0029004044,0.71477276,0.94608575,-2.4219032e-10,-5.337894e-11,0.32391635,3
373706086,0.6981994,0.03096748,0.002128277,0.71523017,0.94608575,-2.4219032e-10,-5.337894e-11,0.32391635,3
373726072,0.6979153,0.034826074,0.0047892574,0.715317,0.94608575,-2.4219032e-10,-5.337894e-11,0.32391635,3
373751053,0.69796115,0.037630312,0.0075886613,0.7151061,0.94608575,-2.4219032e-10,-5.337894e-11,0.32391635,3
373766043,0.6980553,0.037795734,0.007644987,0.71500486,0.94608575,-2.4219032e-10,-5.337894e-11,0.32391635,3
373786029,0.6981708,0.036761127,0.0057763974,0.71496356,0.94608575,-2.4219032e-10,-5.337894e-11,0.32391635,3
373806015,0.6980288,0.0370109,0.0038153797,0.7151025,0.94608575,-2.4219032e-10,-5.337894e-11,0.32391635,3
373826002,0.6978137,0.038645647,0.0030210784,0.7152297,0.94608575,-2.4219032e-10,-5.337894e-11,0.32391635,3
373845984,0.6976034,0.041658383,0.004425648,0.71525836,0.94608575,-2.4219032e-10,-5.337894e-11,0.32391635,3
373865969,0.6975115,0.044804685,0.0055418448,0.71515006,0.94608575,-2.4219032e-10,-5.337894e-11,0.32391635,3
373890951,0.6978764,0.047708463,0.0056759887,0.71460503,0.94608575,-2.4219032e-10,-5.337894e-11,0.32391635,3
373905940,0.6983894,0.047981218,0.0059807263,0.7140829,0.94608575,-2.4219032e-10,-5.337894e-11,0.32391635,3
373925926,0.69898593,0.04628065,0.0069560762,0.7136025,0.94608575,-2.4219032e-10,-5.337894e-11,0.32391635,3
373945912,0.6995424,0.045089167,0.008396919,0.7131178,0.94608575,-2.4219032e-10,-5.337894e-11,0.32391635,3
373965897,0.70008963,0.046416912,0.0091473665,0.7124861,0.94608575,-2.4219032e-10,-5.337894e-11,0.32391635,3
373985882,0.700975,0.048918612,0.008373227,0.71145695,0.94608575,-2.4219032e-10,-5.337894e-11,0.32391635,3
374005867,0.7013597,0.05015333,0.0061095697,0.7110148,0.94608575,-2.4219032e-10,-5.337894e-11,0.32391635,3
374030851,0.7018966,0.04705037,0.0031713536,0.7107162,0.94608575,-2.4219032e-10,-5.337894e-11,0.32391635,3
374050836,0.70250785,0.044262182,0.0020646234,0.71029526,0.94608575,-2.4219032e-10,-5.337894e-11,0.32391635,3
374065824,0.70296097,0.042653706,0.0009175617,0.7099477,0.94608575,-2.4219032e-10,-5.337894e-11,0.32391635,3
374085809,0.70341265,0.04084545,-0.0017513682,0.709605,0.94608575,-2.4219032e-10,-5.337894e-11,0.32391635,3
374105794,0.7039608,0.041614495,-0.0052281762,0.7089994,0.94608575,-2.4219032e-10,-5.337894e-11,0.32391635,3
374125780,0.70435417,0.041167796,-0.009418878,0.7085914,0.94608575,-2.4219032e-10,-5.337894e-11,0.32391635,3
374145765,0.7046144,0.041354574,-0.012535888,0.7082734,0.94608575,-2.4219032e-10,-5.337894e-11,0.32391635,3
374170747,0.7045953,0.03944141,-0.01646913,0.708321,0.94608575,-2.4219032e-10,-5.337894e-11,0.32391635,3
374185736,0.704612,0.03810338,-0.018136155,0.7083369,0.94608575,-2.4219032e-10,-5.337894e-11,0.32391635,3
374205722,0.70444715,0.035911467,-0.019903872,0.708568,0.94608575,-2.4219032e-10,-5.337894e-11,0.32391635,3
374230707,0.7041848,0.031138428,-0.022057666,0.7089907,0.94608575,-2.4219032e-10,-5.337894e-11,0.32391635,3
374250689,0.7038635,0.032181844,-0.021160627,0.7092904,0.94608575,-2.4219032e-10,-5.337894e-11,0.32391635,3
374265678,0.7038803,0.03434725,-0.020386972,0.70919484,0.94608575,-2.4219032e-10,-5.337894e-11,0.32391635,3
374285663,0.70362765,0.03591718,-0.019325038,0.70939744,0.94608575,-2.4219032e-10,-5.337894e-11,0.32391635,3
374310645,0.7033655,0.0366548,-0.019942455,0.7096025,0.94608575,-2.4219032e-10,-5.337894e-11,0.32391635,3
374330630,0.7030987,0.037393942,-0.021948809,0.7097691,0.94608575,-2.4219032e-10,-5.337894e-11,0.32391635,3
374345619,0.70283735,0.03757902,-0.022744484,0.7099932,0.94608575,-2.4219032e-10,-5.337894e-11,0.32391635,3
374370601,0.703085,0.038352814,-0.021566551,0.7097432,0.94608575,-2.4219032e-10,-5.337894e-11,0.32391635,3
374390592,0.7030416,0.036492188,-0.020364927,0.70991987,0.94608575,-2.4219032e-10,-5.337894e-11,0.32391635,3
374405576,0.70286095,0.034149304,-0.019876035,0.7102291,0.94608575,-2.4219032e-10,-5.337894e-11,0.32391635,3
374425561,0.70266414,0.030525316,-0.021301452,0.71054745,0.94608575,-2.4219032e-10,-5.337894e-11,0.32391635,3
374450542,0.70225143,0.029825252,-0.02142222,0.7109814,0.94608575,-2.4219032e-10,-5.337894e-11,0.32391635,3
374470529,0.7022965,0.03085886,-0.019494824,0.7109483,0.94608575,-2.4219032e-10,-5.337894e-11,0.32391635,3
374485518,0.7018694,0.032572825,-0.017882455,0.7113358,0.94608575,-2.4219032e-10,-5.337894e-11,0.32391635,3
374510499,0.70163393,0.03426995,-0.01762513,0.7114948,0.94608575,-2.4219032e-10,-5.337894e-11,0.32391635,3
374530484,0.70188373,0.0345971,-0.01789534,0.71122575,0.94608575,-2.4219032e-10,-5.337894e-11,0.32391635,3
374545475,0.70185065,0.034626756,-0.017965311,0.71125525,0.94608575,-2.4219032e-10,-5.337894e-11,0.32391635,3
374565459,0.7023025,0.03399453,-0.0185347,0.7108249,0.94608575,-2.4219032e-10,-5.337894e-11,0.32391635,3
374590440,0.7031198,0.0348037,-0.018563977,0.7099765,0.94608575,-2.4219032e-10,-5.337894e-11,0.32391635,3
374610426,0.7038124,0.035487343,-0.016893556,0.7092978,0.94608575,-2.4219032e-10,-5.337894e-11,0.32391635,3
374625417,0.70424294,0.034967415,-0.016433893,0.70890707,0.94608575,-2.4219032e-10,-5.337894e-11,0.32391635,3
374650397,0.7052238,0.033393543,-0.017725723,0.70797604,0.94608575,-2.4219032e-10,-5.337894e-11,0.32391635,3
374670384,0.7060276,0.03266427,-0.019139765,0.7071717,0.94608575,-2.4219032e-10,-5.337894e-11,0.32391635,3
374685372,0.706809,0.034359794,-0.018435214,0.70632905,0.94608575,-2.4219032e-10,-5.337894e-11,0.32391635,3
374705358,0.7076379,0.037738092,-0.016400943,0.70537615,0.94608575,-2.4219032e-10,-5.337894e-11,0.32391635,3
374730339,0.7092057,0.03611979,-0.014362003,0.7039293,0.94608575,-2.4219032e-10,-5.337894e-11,0.32391635,3
374750325,0.7102633,0.031961173,-0.015274205,0.7030443,0.94608575,-2.4219032e-10,-5.337894e-11,0.32391635,3
374765314,0.71097314,0.029804083,-0.017397221,0.7023719,0.94608575,-2.4219032e-10,-5.337894e-11,0.32391635,3
374790295,0.7119741,0.029148044,-0.020861818,0.7012903,0.94608575,-2.4219032e-10,-5.337894e-11,0.32391635,3
374810281,0.7125758,0.02740924,-0.020779392,0.70075154,0.94608575,-2.4219032e-10,-5.337894e-11,0.32391635,3
374825271,0.7128896,0.0250854,-0.020544223,0.70052636,0.94608575,-2.4219032e-10,-5.337894e-11,0.32391635,3
374845256,0.713218,0.02100532,-0.020360643,0.70033157,0.94608575,-2.4219032e-10,-5.337894e-11,0.32391635,3
374870238,0.71352094,0.017056301,-0.022239814,0.7000731,0.94608575,-2.4219032e-10,-5.337894e-11,0.32391635,3
374890224,0.7135389,0.015133079,-0.023377487,0.70006204,0.94608575,-2.4219032e-10,-5.337894e-11,0.32391635,3
374905214,0.7135443,0.013382827,-0.02330243,0.70009464,0.94608575,-2.4219032e-10,-5.337894e-11,0.32391635,3
374930194,0.71395636,0.00944818,-0.023183959,0.69974256,0.94608575,-2.4219032e-10,-5.337894e-11,0.32391635,3
374950187,0.714161,0.0065105404,-0.023142613,0.69956857,0.94608575,-2.4219032e-10,-5.337894e-11,0.32391635,3
374965173,0.71417964,0.0037550696,-0.023669831,0.6995521,0.94608575,-2.4219032e-10,-5.337894e-11,0.32391635,3
374990149,0.7141667,0.00017457551,-0.025164789,0.69952315,0.94608575,-2.4219032e-10,-5.337894e-11,0.32391635,3
375010136,0.7140863,-0.0015844012,-0.026186459,0.699566,0.94608575,-2.4219032e-10,-5.337894e-11,0.32391635,3
375030120,0.71378475,-0.0005662794,-0.027218275,0.6998359,0.94608575,-2.4219032e-10,-5.337894e-11,0.32391635,3
375045112,0.7136955,-0.0010052334,-0.02938113,0.69983894,0.94608575,-2.4219032e-10,-5.337894e-11,0.32391635,3
375070092,0.71358573,-0.002923426,-0.033130784,0.6997781,0.94608575,-2.4219032e-10,-5.337894e-11,0.32391635,3
375090076,0.7131548,-0.004507336,-0.034369092,0.70014906,0.94608575,-2.4219032e-10,-5.337894e-11,0.32391635,3
375105068,0.71297026,-0.0056129396,-0.034619365,0.70031667,0.94608575,-2.4219032e-10,-5.337894e-11,0.32391635,3
375130047,0.7125303,-0.0070396885,-0.035271358,0.7007189,0.94608575,-2.4219032e-10,-5.337894e-11,0.32391635,3
375150033,0.7120736,-0.0066333897,-0.03465602,0.70121765,0.94608575,-2.4219032e-10,-5.337894e-11,0.32391635,3
375170018,0.7117406,-0.006621087,-0.03286144,0.70164216,0.94608575,-2.4219032e-10,-5.337894e-11,0.32391635,3
375185008,0.7116102,-0.007352165,-0.03141095,0.7018335,0.94608575,-2.4219032e-10,-5.337894e-11,0.32391635,3
375209990,0.7113957,-0.009573057,-0.03179282,0.702007,0.94608575,-2.4219032e-10,-5.337894e-11,0.32391635,3
375229974,0.7110016,-0.009600662,-0.03145728,0.7024209,0.94608575,-2.4219032e-10,-5.337894e-11,0.32391635,3
375244965,0.7108986,-0.009764011,-0.029611392,0.7026031,0.94608575,-2.4219032e-10,-5.337894e-11,0.32391635,3
375269949,0.7112679,-0.010307056,-0.024696914,0.70241153,0.94608575,-2.4219032e-10,-5.337894e-11,0.32391635,3
375289932,0.71171033,-0.010173664,-0.021627283,0.7020665,0.94608575,-2.4219032e-10,-5.337894e-11,0.32391635,3
375309917,0.7121677,-0.00937622,-0.019665714,0.70167136,0.94608575,-2.4219032e-10,-5.337894e-11,0.32391635,3
375324905,0.71268636,-0.009058173,-0.019208826,0.7011613,0.94608575,-2.4219032e-10,-5.337894e-11,0.32391635,3
375349887,0.7136915,-0.0061811446,-0.019121168,0.70017195,0.94608575,-2.4219032e-10,-5.337894e-11,0.32391635,3
375369872,0.7143932,-0.006071108,-0.021460231,0.69938904,0.94608575,-2.4219032e-10,-5.337894e-11,0.32391635,3
375384862,0.71487457,-0.00635759,-0.02394054,0.6988139,0.94608575,-2.4219032e-10,-5.337894e-11,0.32391635,3
375409845,0.7154664,-0.008464817,-0.028648967,0.6980083,0.94608575,-2.4219032e-10,-5.337894e-11,0.32391635,3
375429829,0.71565336,-0.009214114,-0.028896524,0.6977969,0.94608575,-2.4219032e-10,-5.337894e-11,0.32391635,3
375444819,0.7158788,-0.008367248,-0.02723314,0.6976432,0.94608575,-2.4219032e-10,-5.337894e-11,0.32391635,3
375464805,0.71612,-0.0058117253,-0.02583303,0.6974748,0.94608575,-2.4219032e-10,-5.337894e-11,0.32391635,3
375489785,0.71593595,-0.0051845913,-0.027662238,0.6975985,0.94608575,-2.4219032e-10,-5.337894e-11,0.32391635,3
375509771,0.71581167,-0.0044119563,-0.027563872,0.6977352,0.94608575,-2.4219032e-10,-5.337894e-11,0.32391635,3
375524761,0.7157415,-0.0032280427,-0.025711002,0.6978844,0.94608575,-2.4219032e-10,-5.337894e-11,0.32391635,3
375549741,0.71545696,-0.000679981,-0.02150414,0.6983255,0.94608575,-2.4219032e-10,-5.337894e-11,0.32391635,3
375569727,0.7150622,0.0016821322,-0.02055287,0.69875664,0.94608575,-2.4219032e-10,-5.337894e-11,0.32391635,3
375584717,0.7147565,0.0027199562,-0.021441983,0.6990394,0.94608575,-2.4219032e-10,-5.337894e-11,0.32391635,3
375604703,0.714158,0.005027578,-0.02255074,0.69960314,0.94608575,-2.4219032e-10,-5.337894e-11,0.32391635,3
375629684,0.7136883,0.009562131,-0.020883624,0.7000867,0.94608575,-2.4219032e-10,-5.337894e-11,0.32391635,3
375649669,0.71373206,0.011846925,-0.01916926,0.70005625,0.94608575,-2.4219032e-10,-5.337894e-11,0.32391635,3
375664658,0.71368307,0.012375011,-0.018308198,0.7001201,0.94608575,-2.4219032e-10,-5.337894e-11,0.32391635,3
375689639,0.7133197,0.013349902,-0.017560748,0.70049155,0.94608575,-2.4219032e-10,-5.337894e-11,0.32391635,3
375709624,0.71309614,0.014162894,-0.018566253,0.70067734,0.94608575,-2.4219032e-10,-5.337894e-11,0.32391635,3
375729610,0.7126024,0.017345116,-0.01739412,0.701138,0.94608575,-2.4219032e-10,-5.337894e-11,0.32391635,3
375744600,0.712134,0.01849156,-0.015152592,0.7016364,0.94608575,-2.4219032e-10,-5.337894e-11,0.32391635,3
375769582,0.7117119,0.020154057,-0.011134886,0.7020941,0.94608575,-2.4219032e-10,-5.337894e-11,0.32391635,3
375789566,0.7111758,0.021410536,-0.010843312,0.7026045,0.94608575,-2.4219032e-10,-5.337894e-11,0.32391635,3
375809553,0.7105035,0.022115411,-0.011170998,0.7032574,0.94608575,-2.4219032e-10,-5.337894e-11,0.32391635,3
375829537,0.7100284,0.024794675,-0.0091003645,0.70367765,0.94608575,-2.4219032e-10,-5.337894e-11,0.32391635,3
375849522,0.70995045,0.026205909,-0.0063029123,0.70373565,0.94608575,-2.4219032e-10,-5.337894e-11,0.32391635,3
375869508,0.7097296,0.025905859,-0.0038520612,0.70398724,0.94608575,-2.4219032e-10,-5.337894e-11,0.32391635,3
375889493,0.70946926,0.02641549,-0.0028013932,0.7042357,0.94608575,-2.4219032e-10,-5.337894e-11,0.32391635,3
375909478,0.7096128,0.028300168,-0.0025682698,0.7040187,0.94608575,-2.4219032e-10,-5.337894e-11,0.32391635,3
375929464,0.7095134,0.033730384,-0.0005086716,0.7038841,0.94608575,-2.4219032e-10,-5.337894e-11,0.32391635,3
375949449,0.70961165,0.03604084,0.0009994566,0.70366997,0.94608575,-2.4219032e-10,-5.337894e-11,0.32391635,3
375969435,0.70988536,0.035748955,0.0016552396,0.70340747,0.94608575,-2.4219032e-10,-5.337894e-11,0.32391635,3
375989420,0.7098866,0.034140967,0.0010264314,0.70348734,0.94608575,-2.4219032e-10,-5.337894e-11,0.32391635,3
376009405,0.7095879,0.03526742,0.001158406,0.7037329,0.94608575,-2.4219032e-10,-5.337894e-11,0.32391635,3
376029391,0.7091494,0.038676064,0.0017916645,0.70399433,0.94608575,-2.4219032e-10,-5.337894e-11,0.32391635,3
376049377,0.7088595,0.04421798,0.0034163196,0.70395404,0.94608575,-2.4219032e-10,-5.337894e-11,0.32391635,3
376069363,0.7084067,0.04650992,0.00433715,0.704257,0.94608575,-2.4219032e-10,-5.337894e-11,0.32391635,3
376089347,0.7079241,0.044455584,0.005118997,0.7048695,0.94608575,-2.4219032e-10,-5.337894e-11,0.32391635,3
376109334,0.70722866,0.042074252,0.006586564,0.7057012,0.94608575,-2.4219032e-10,-5.337894e-11,0.32391635,3
376129318,0.7063689,0.042634416,0.01080748,0.7064761,0.94608575,-2.4219032e-10,-5.337894e-11,0.32391635,3
376149304,0.7049608,0.047361907,0.01578538,0.70748705,0.94608575,-2.4219032e-10,-5.337894e-11,0.32391635,3
376169289,0.7039824,0.0525616,0.017763147,0.70804703,0.94608575,-2.4219032e-10,-5.337894e-11,0.32391635,3
376189274,0.70351166,0.05394635,0.01642675,0.708443,0.94608575,-2.4219032e-10,-5.337894e-11,0.32391635,3
376209260,0.70288074,0.05200019,0.014940216,0.7092472,0.94608575,-2.4219032e-10,-5.337894e-11,0.32391635,3
376229245,0.7026554,0.050052766,0.0170192,0.7095637,0.94608575,-2.4219032e-10,-5.337894e-11,0.32391635,3
376249231,0.7022316,0.0505912,0.021666411,0.7098182,0.94608575,-2.4219032e-10,-5.337894e-11,0.32391635,3
376269217,0.7014379,0.052006334,0.026196338,0.71034783,0.94608575,-2.4219032e-10,-5.337894e-11,0.32391635,3
376289202,0.7011323,0.054455943,0.027543087,0.710415,0.94608575,-2.4219032e-10,-5.337894e-11,0.32391635,3
376309187,0.7011243,0.05576317,0.025746519,0.71038884,0.94608575,-2.4219032e-10,-5.337894e-11,0.32391635,3
376329173,0.7008349,0.056132115,0.025028925,0.71067107,0.94608575,-2.4219032e-10,-5.337894e-11,0.32391635,3
376349158,0.7008483,0.055416685,0.027315527,0.7106297,0.94608575,-2.4219032e-10,-5.337894e-11,0.32391635,3
376369143,0.7009066,0.055190776,0.03078127,0.7104481,0.94608575,-2.4219032e-10,-5.337894e-11,0.32391635,3
376389129,0.7011057,0.05731055,0.032914568,0.70998806,0.94608575,-2.4219032e-10,-5.337894e-11,0.32391635,3
376409115,0.701949,0.0599765,0.032614592,0.70894766,0.94608575,-2.4219032e-10,-5.337894e-11,0.32391635,3
376429100,0.7028444,0.059916537,0.03038897,0.7081641,0.94608575,-2.4219032e-10,-5.337894e-11,0.32391635,3
376449086,0.70363367,0.05817255,0.028743094,0.70759416,0.94608575,-2.4219032e-10,-5.337894e-11,0.32391635,3
376469070,0.7044199,0.056752253,0.028913105,0.70691997,0.94608575,-2.4219032e-10,-5.337894e-11,0.32391635,3
376489056,0.70491827,0.05647924,0.029665744,0.70641375,0.94608575,-2.4219032e-10,-5.337894e-11,0.32391635,3
376509043,0.7057409,0.05868407,0.03022578,0.70538807,0.94608575,-2.4219032e-10,-5.337894e-11,0.32391635,3
376529027,0.7063761,0.05786378,0.028336534,0.7048984,0.94608575,-2.4219032e-10,-5.337894e-11,0.32391635,3
376549012,0.70680064,0.05490636,0.024646768,0.704848,0.94608575,-2.4219032e-10,-5.337894e-11,0.32391635,3
376568998,0.7074116,0.05252489,0.020783495,0.704541,0.94608575,-2.4219032e-10,-5.337894e-11,0.32391635,3
376588983,0.7075361,0.051325228,0.017336084,0.70459765,0.94608575,-2.4219032e-10,-5.337894e-11,0.32391635,3
376608968,0.70769167,0.052210055,0.016424973,0.7043983,0.94608575,-2.4219032e-10,-5.337894e-11,0.32391635,3
376628954,0.7075007,0.051608026,0.016433658,0.70463425,0.94608575,-2.4219032e-10,-5.337894e-11,0.32391635,3
376648939,0.7072154,0.049358048,0.015706256,0.7050982,0.94608575,-2.4219032e-10,-5.337894e-11,0.32391635,3
376668924,0.70720834,0.04729017,0.01351775,0.70529234,0.94608575,-2.4219032e-10,-5.337894e-11,0.32391635,3
376688910,0.7068351,0.04612654,0.01058234,0.70579356,0.94608575,-2.4219032e-10,-5.337894e-11,0.32391635,3
376708896,0.70640814,0.04588569,0.009438898,0.7062528,0.94608575,-2.4219032e-10,-5.337894e-11,0.32391635,3
376728881,0.70628,0.045836497,0.009624087,0.7063816,0.94608575,-2.4219032e-10,-5.337894e-11,0.32391635,3
376748868,0.70625246,0.04483641,0.008771226,0.7064845,0.94608575,-2.4219032e-10,-5.337894e-11,0.32391635,3
376768852,0.70593303,0.04442067,0.006945166,0.7068502,0.94608575,-2.4219032e-10,-5.337894e-11,0.32391635,3
376788837,0.70592886,0.0436573,0.0043182923,0.7069228,0.94608575,-2.4219032e-10,-5.337894e-11,0.32391635,3
376808823,0.7058604,0.042956475,0.0029428499,0.7070412,0.94608575,-2.4219032e-10,-5.337894e-11,0.32391635,3
376828808,0.7056546,0.040940233,0.0012636797,0.7073711,0.94608575,-2.4219032e-10,-5.337894e-11,0.32391635,3
376848795,0.7053092,0.038412347,-0.0012016644,0.7078574,0.94608575,-2.4219032e-10,-5.337894e-11,0.32391635,3
376868779,0.70514685,0.037899412,-0.0029852805,0.70804155,0.94608575,-2.4219032e-10,-5.337894e-11,0.32391635,3
376888764,0.7050696,0.0381432,-0.0035316336,0.7081028,0.94608575,-2.4219032e-10,-5.337894e-11,0.32391635,3
376908750,0.7050645,0.037829734,-0.0031237288,0.70812666,0.94608575,-2.4219032e-10,-5.337894e-11,0.32391635,3
376928735,0.7052898,0.035908595,-0.0043675187,0.70799565,0.94608575,-2.4219032e-10,-5.337894e-11,0.32391635,3
376948721,0.70569736,0.03338714,-0.006244675,0.70769876,0.94608575,-2.4219032e-10,-5.337894e-11,0.32391635,3
376968706,0.70592874,0.030299861,-0.0087816045,0.70758,0.94608575,-2.4219032e-10,-5.337894e-11,0.32391635,3
376988692,0.7060624,0.027037917,-0.011129047,0.7075459,0.94608575,-2.4219032e-10,-5.337894e-11,0.32391635,3
377008681,0.7063183,0.025841618,-0.013240091,0.7072987,0.94608575,-2.4219032e-10,-5.337894e-11,0.32391635,3
377028662,0.70651877,0.024156822,-0.015035712,0.7071221,0.94608575,-2.4219032e-10,-5.337894e-11,0.32391635,3
377048648,0.706758,0.020453312,-0.01699725,0.7069554,0.94608575,-2.4219032e-10,-5.337894e-11,0.32391635,3
377068635,0.7071104,0.017075878,-0.018091392,0.70666546,0.94608575,-2.4219032e-10,-5.337894e-11,0.32391635,3
377088618,0.7076947,0.015789561,-0.018435644,0.70610136,0.94608575,-2.4219032e-10,-5.337894e-11,0.32391635,3
377108604,0.708339,0.015239916,-0.020481462,0.7054106,0.94608575,-2.4219032e-10,-5.337894e-11,0.32391635,3
377128589,0.70856994,0.01457562,-0.025091458,0.7050437,0.94608575,-2.4219032e-10,-5.337894e-11,0.32391635,3
377148576,0.7087936,0.010351369,-0.031153427,0.70465165,0.94608575,-2.4219032e-10,-5.337894e-11,0.32391635,3
377168560,0.70886475,0.006348409,-0.0333081,0.70452905,0.94608575,-2.4219032e-10,-5.337894e-11,0.32391635,3
377188545,0.7089802,0.0038664062,-0.030518647,0.7045571,0.94608575,-2.4219032e-10,-5.337894e-11,0.32391635,3
377208531,0.7091951,0.005742202,-0.024977082,0.7045464,0.94608575,-2.4219032e-10,-5.337894e-11,0.32391635,3
377228517,0.70951736,0.008286741,-0.023880117,0.7042346,0.94608575,-2.4219032e-10,-5.337894e-11,0.32391635,3
377248501,0.7091806,0.011463223,-0.0282879,0.7043659,0.94608575,-2.4219032e-10,-5.337894e-11,0.32391635,3
377268487,0.7086687,0.013580015,-0.033576164,0.7046112,0.94608575,-2.4219032e-10,-5.337894e-11,0.32391635,3
377288472,0.70868367,0.01368488,-0.035162956,0.7045167,0.94608575,-2.4219032e-10,-5.337894e-11,0.32391635,3
377308458,0.70873475,0.012535746,-0.033859793,0.70455056,0.94608575,-2.4219032e-10,-5.337894e-11,0.32391635,3
377328443,0.7090562,0.00995758,-0.030557152,0.7044192,0.94608575,-2.4219032e-10,-5.337894e-11,0.32391635,3
377348429,0.70940167,0.007707235,-0.028828306,0.7041725,0.94608575,-2.4219032e-10,-5.337894e-11,0.32391635,3
377368414,0.71033925,0.0047966125,-0.029973373,0.7032047,0.94608575,-2.4219032e-10,-5.337894e-11,0.32391635,3
377388399,0.7107684,0.0012095359,-0.032705043,0.70266443,0.94608575,-2.4219032e-10,-5.337894e-11,0.32391635,3
377408385,0.7109025,-0.0020335487,-0.03407844,0.7024616,0.94608575,-2.4219032e-10,-5.337894e-11,0.32391635,3
377428371,0.71087384,-0.003475226,-0.033859182,0.7024955,0.94608575,-2.4219032e-10,-5.337894e-11,0.32391635,3
377448356,0.7104335,-0.0032658204,-0.03280019,0.702992,0.94608575,-2.4219032e-10,-5.337894e-11,0.32391635,3
377468342,0.71000123,-0.0019906654,-0.030975336,0.7035162,0.94608575,-2.4219032e-10,-5.337894e-11,0.32391635,3
377488327,0.70984375,-0.0034816598,-0.030140199,0.7037055,0.94608575,-2.4219032e-10,-5.337894e-11,0.32391635,3
377508313,0.709966,-0.0062799365,-0.029623868,0.7035847,0.94608575,-2.4219032e-10,-5.337894e-11,0.32391635,3
377528298,0.71034,-0.0095897075,-0.030625628,0.7031267,0.94608575,-2.4219032e-10,-5.337894e-11,0.32391635,3
377548283,0.71101105,-0.012378792,-0.035663273,0.70216686,0.94608575,-2.4219032e-10,-5.337894e-11,0.32391635,3
377568269,0.7113757,-0.013236733,-0.041557603,0.7014574,0.94608575,-2.4219032e-10,-5.337894e-11,0.32391635,3
377588258,0.7117347,-0.01406922,-0.045607384,0.7008251,0.94608575,-2.4219032e-10,-5.337894e-11,0.32391635,3
377608240,0.7125424,-0.0144233005,-0.047446094,0.69987434,0.94608575,-2.4219032e-10,-5.337894e-11,0.32391635,3
377628225,0.71249753,-0.015991377,-0.049267646,0.69976014,0.94608575,-2.4219032e-10,-5.337894e-11,0.32391635,3
377648210,0.7127072,-0.01733286,-0.05172648,0.6993371,0.94608575,-2.4219032e-10,-5.337894e-11,0.32391635,3
377668195,0.71272576,-0.015873825,-0.053378318,0.69922876,0.94608575,-2.4219032e-10,-5.337894e-11,0.32391635,3
377688181,0.7129635,-0.014899462,-0.0548634,0.69889283,0.94608575,-2.4219032e-10,-5.337894e-11,0.32391635,3
377708166,0.71322775,-0.016259804,-0.056806024,0.6984375,0.94608575,-2.4219032e-10,-5.337894e-11,0.32391635,3
377728152,0.7136211,-0.018192308,-0.058720917,0.6978295,0.94608575,-2.4219032e-10,-5.337894e-11,0.32391635,3
377748137,0.7142705,-0.01935519,-0.059471663,0.6970698,0.94608575,-2.4219032e-10,-5.337894e-11,0.32391635,3
377768123,0.71462345,-0.017525023,-0.059236474,0.6967763,0.94608575,-2.4219032e-10,-5.337894e-11,0.32391635,3
377788111,0.7151971,-0.014583456,-0.058936376,0.6962809,0.94608575,-2.4219032e-10,-5.337894e-11,0.32391635,3
377808094,0.7154866,-0.014002388,-0.058543805,0.6960285,0.94608575,-2.4219032e-10,-5.337894e-11,0.32391635,3
377828080,0.71567535,-0.0139726335,-0.05721152,0.69594574,0.94608575,-2.4219032e-10,-5.337894e-11,0.32391635,3
377848066,0.7157718,-0.016002435,-0.057286195,0.69579667,0.94608575,-2.4219032e-10,-5.337894e-11,0.32391635,3
377868050,0.715313,-0.014736251,-0.056583587,0.69635373,0.94608575,-2.4219032e-10,-5.337894e-11,0.32391635,3
377888035,0.7155296,-0.012520552,-0.054849204,0.6963134,0.94608575,-2.4219032e-10,-5.337894e-11,0.32391635,3
377908020,0.71495646,-0.010560855,-0.054208327,0.69698435,0.94608575,-2.4219032e-10,-5.337894e-11,0.32391635,3
377928006,0.71416014,-0.008888178,-0.054188784,0.69782513,0.94608575,-2.4219032e-10,-5.337894e-11,0.32391635,3
377947993,0.71398735,-0.007894961,-0.053781252,0.6980453,0.94608575,-2.4219032e-10,-5.337894e-11,0.32391635,3
377967977,0.7140648,-0.007092853,-0.050859496,0.6981937,0.94608575,-2.4219032e-10,-5.337894e-11,0.32391635,3
377987962,0.7136588,-0.0064528,-0.046566274,0.69891423,0.94608575,-2.4219032e-10,-5.337894e-11,0.32391635,3
378007948,0.71323335,-0.007493996,-0.04554579,0.6994052,0.94608575,-2.4219032e-10,-5.337894e-11,0.32391635,3
378027933,0.7131789,-0.0067742076,-0.045131095,0.69949496,0.94608575,-2.4219032e-10,-5.337894e-11,0.32391635,3
378047918,0.71257293,-0.0044221263,-0.044228118,0.70018876,0.94608575,-2.4219032e-10,-5.337894e-11,0.32391635,3
378067905,0.7124345,-0.00075620465,-0.042008117,0.7004798,0.94608575,-2.4219032e-10,-5.337894e-11,0.32391635,3
378087889,0.71249413,0.0021770217,-0.039232194,0.7005771,0.94608575,-2.4219032e-10,-5.337894e-11,0.32391635,3
378107876,0.7124653,0.004783501,-0.03640192,0.7007463,0.94608575,-2.4219032e-10,-5.337894e-11,0.32391635,3
378127860,0.71228313,0.0067384145,-0.03294883,0.7010861,0.94608575,-2.4219032e-10,-5.337894e-11,0.32391635,3
378147846,0.71248347,0.009006967,-0.029030038,0.7010303,0.94608575,-2.4219032e-10,-5.337894e-11,0.32391635,3
378167831,0.71228534,0.011319047,-0.026068978,0.7013144,0.94608575,-2.4219032e-10,-5.337894e-11,0.32391635,3
378187816,0.71201986,0.015630925,-0.022942234,0.7016104,0.94608575,-2.4219032e-10,-5.337894e-11,0.32391635,3
378207803,0.711801,0.020404587,-0.019900821,0.7018027,0.94608575,-2.4219032e-10,-5.337894e-11,0.32391635,3
378227789,0.7115879,0.023398953,-0.017220013,0.7019962,0.94608575,-2.4219032e-10,-5.337894e-11,0.32391635,3
378247773,0.71143675,0.024422772,-0.015133433,0.70216256,0.94608575,-2.4219032e-10,-5.337894e-11,0.32391635,3
378267766,0.7112993,0.02422757,-0.011359717,0.70237976,0.94608575,-2.4219032e-10,-5.337894e-11,0.32391635,3
378287745,0.7111737,0.02502868,-0.00814479,0.7025235,0.94608575,-2.4219032e-10,-5.337894e-11,0.32391635,3
378307729,0.7109083,0.029582802,-0.005417441,0.7026414,0.94608575,-2.4219032e-10,-5.337894e-11,0.32391635,3
378327714,0.71087396,0.036322676,-0.0018870577,0.70237833,0.94608575,-2.4219032e-10,-5.337894e-11,0.32391635,3
378347701,0.7106134,0.03917492,0.0005562074,0.702491,0.94608575,-2.4219032e-10,-5.337894e-11,0.32391635,3
378367686,0.71056074,0.038683686,0.0005929284,0.7025715,0.94608575,-2.4219032e-10,-5.337894e-11,0.32391635,3
378387671,0.71092767,0.0350326,0.00033474487,0.702392,0.94608575,-2.4219032e-10,-5.337894e-11,0.32391635,3
378407663,0.71105963,0.034562726,0.0021455027,0.70227855,0.94608575,-2.4219032e-10,-5.337894e-11,0.32391635,3
378427642,0.7108078,0.036384378,0.005155698,0.7024258,0.94608575,-2.4219032e-10,-5.337894e-11,0.32391635,3
378447627,0.71051055,0.03914453,0.006338737,0.70256835,0.94608575,-2.4219032e-10,-5.337894e-11,0.32391635,3
378467615,0.7099385,0.04238727,0.005949503,0.7029618,0.94608575,-2.4219032e-10,-5.337894e-11,0.32391635,3
378487598,0.7099725,0.045330666,0.007141205,0.70273274,0.94608575,-2.4219032e-10,-5.337894e-11,0.32391635,3
378507583,0.70959884,0.047735624,0.009516234,0.70292276,0.94608575,-2.4219032e-10,-5.337894e-11,0.32391635,3
378527569,0.7089951,0.04931646,0.01238156,0.70337796,0.94608575,-2.4219032e-10,-5.337894e-11,0.32391635,3
378547557,0.7087543,0.04837853,0.012902353,0.7036763,0.94608575,-2.4219032e-10,-5.337894e-11,0.32391635,3
378567540,0.70822465,0.04787712,0.010710406,0.70428044,0.94608575,-2.4219032e-10,-5.337894e-11,0.32391635,3
378587526,0.707423,0.050991658,0.010647525,0.70486826,0.94608575,-2.4219032e-10,-5.337894e-11,0.32391635,3
378607511,0.70738316,0.05512665,0.012805013,0.70456105,0.94608575,-2.4219032e-10,-5.337894e-11,0.32391635,3
378627496,0.7074263,0.057275835,0.015138309,0.70429987,0.94608575,-2.4219032e-10,-5.337894e-11,0.32391635,3
378647482,0.7070974,0.05629974,0.015042451,0.7047109,0.94608575,-2.4219032e-10,-5.337894e-11,0.32391635,3
378667467,0.7073472,0.05361359,0.013852319,0.7046941,0.94608575,-2.4219032e-10,-5.337894e-11,0.32391635,3
378687452,0.7075947,0.052468397,0.013449835,0.70453954,0.94608575,-2.4219032e-10,-5.337894e-11,0.32391635,3
378707439,0.70759076,0.05221601,0.014359401,0.7045443,0.94608575,-2.4219032e-10,-5.337894e-11,0.32391635,3
378727423,0.70704037,0.053699248,0.015894419,0.7049523,0.94608575,-2.4219032e-10,-5.337894e-11,0.32391635,3
378747409,0.7071569,0.05345466,0.017750215,0.70480967,0.94608575,-2.4219032e-10,-5.337894e-11,0.32391635,3
378767395,0.7073408,0.051670436,0.017815959,0.7047566,0.94608575,-2.4219032e-10,-5.337894e-11,0.32391635,3
378787379,0.70742035,0.048927665,0.015423705,0.7049289,0.94608575,-2.4219032e-10,-5.337894e-11,0.32391635,3
378807365,0.707707,0.048737764,0.013480934,0.70469415,0.94608575,-2.4219032e-10,-5.337894e-11,0.32391635,3
378827351,0.70785064,0.049058106,0.0114177745,0.7045641,0.94608575,-2.4219032e-10,-5.337894e-11,0.32391635,3
378847336,0.70771456,0.050122254,0.009662579,0.70465213,0.94608575,-2.4219032e-10,-5.337894e-11,0.32391635,3
378867321,0.7075397,0.047716368,0.0084476685,0.7050103,0.94608575,-2.4219032e-10,-5.337894e-11,0.32391635,3
378887307,0.70770055,0.042479433,0.007981502,0.7051892,0.94608575,-2.4219032e-10,-5.337894e-11,0.32391635,3
378907294,0.70768857,0.038877364,0.0070493193,0.7054189,0.94608575,-2.4219032e-10,-5.337894e-11,0.32391635,3
378927277,0.7073925,0.040029775,0.008541234,0.7056349,0.94608575,-2.4219032e-10,-5.337894e-11,0.32391635,3
378947264,0.70741326,0.04293362,0.01031842,0.7054196,0.94608575,-2.4219032e-10,-5.337894e-11,0.32391635,3
378967250,0.70757467,0.043359652,0.009459519,0.70524365,0.94608575,-2.4219032e-10,-5.337894e-11,0.32391635,3
378987234,0.70753807,0.039518684,0.0064714868,0.70553976,0.94608575,-2.4219032e-10,-5.337894e-11,0.32391635,3
379007220,0.7076225,0.035458278,0.0037910445,0.70569026,0.94608575,-2.4219032e-10,-5.337894e-11,0.32391635,3
379027205,0.7079459,0.035004243,0.003376562,0.70539063,0.94608575,-2.4219032e-10,-5.337894e-11,0.32391635,3
379047192,0.7083269,0.03659662,0.0044755167,0.7049211,0.94608575,-2.4219032e-10,-5.337894e-11,0.32391635,3
379067175,0.7085383,0.03666315,0.0042566075,0.70470655,0.94608575,-2.4219032e-10,-5.337894e-11,0.32391635,3
379092161,0.7090144,0.03170614,0.0021879117,0.70447755,0.94608575,-2.4219032e-10,-5.337894e-11,0.32391635,3
379107147,0.7093487,0.028583487,-0.00034452716,0.7042779,0.94608575,-2.4219032e-10,-5.337894e-11,0.32391635,3
379127132,0.7099907,0.025540272,-0.0021359655,0.7037446,0.94608575,-2.4219032e-10,-5.337894e-11,0.32391635,3
379147117,0.7104181,0.024674112,-0.0023263802,0.7033434,0.94608575,-2.4219032e-10,-5.337894e-11,0.32391635,3
379167103,0.71060765,0.024349311,-0.0026572729,0.7031621,0.94608575,-2.4219032e-10,-5.337894e-11,0.32391635,3
379187088,0.7107123,0.022446845,-0.0042739036,0.70311165,0.94608575,-2.4219032e-10,-5.337894e-11,0.32391635,3
379207073,0.71105075,0.019554691,-0.0054830443,0.7028475,0.94608575,-2.4219032e-10,-5.337894e-11,0.32391635,3
379227059,0.7110121,0.01787019,-0.005509857,0.7029311,0.94608575,-2.4219032e-10,-5.337894e-11,0.32391635,3
379247045,0.71116686,0.017366536,-0.0045072613,0.7027943,0.94608575,-2.4219032e-10,-5.337894e-11,0.32391635,3
379267030,0.7114916,0.01456411,-0.0042929924,0.7025306,0.94608575,-2.4219032e-10,-5.337894e-11,0.32391635,3
379287015,0.71175516,0.010033002,-0.0069285664,0.7023219,0.94608575,-2.4219032e-10,-5.337894e-11,0.32391635,3
379307001,0.71160924,0.0051971595,-0.0105878115,0.7024765,0.94608575,-2.4219032e-10,-5.337894e-11,0.32391635,3
379326986,0.71176505,0.003300966,-0.012309734,0.70230204,0.94608575,-2.4219032e-10,-5.337894e-11,0.32391635,3
379346972,0.71195126,0.0035348276,-0.011169589,0.7021312,0.94608575,-2.4219032e-10,-5.337894e-11,0.32391635,3
379366958,0.7121916,0.0036589205,-0.011235278,0.7018857,0.94608575,-2.4219032e-10,-5.337894e-11,0.32391635,3
379386943,0.7122237,0.0014438771,-0.016241001,0.7017632,0.94608575,-2.4219032e-10,-5.337894e-11,0.32391635,3
379406928,0.7121137,-0.0024433348,-0.02109469,0.70174295,0.94608575,-2.4219032e-10,-5.337894e-11,0.32391635,3
379426913,0.7121825,-0.005177834,-0.02262123,0.70161074,0.94608575,-2.4219032e-10,-5.337894e-11,0.32391635,3
