timestamp,ref_timestamp,ref_lat,ref_lon,x,y,z,delta_xy[0],delta_xy[1],delta_z,vx,vy,vz,z_deriv,delta_vxy[0],delta_vxy[1],delta_vz,ax,ay,az,heading,delta_heading,ref_alt,dist_bottom,eph,epv,evh,evv,vxy_max,vz_max,hagl_min,hagl_max,xy_valid,z_valid,v_xy_valid,v_z_valid,xy_reset_counter,z_reset_counter,vxy_reset_counter,vz_reset_counter,heading_reset_counter,xy_global,z_global,dist_bottom_valid
368444928,0,0.0,0.0,-0.057249755,-0.010757771,-0.09889304,-0.036738444,-0.035467714,-0.24821874,0.0014985941,0.0001683363,-0.0006384506,-9.705725e-05,0.00033288862,0.0002680258,-0.030127008,-0.039239682,-0.0076533244,0.009978545,1.5183402,0.65973216,0.0,0.100168936,0.03314089,0.016826648,0.058115084,0.033193234,inf,inf,inf,inf,1,1,1,1,2,1,1,1,3,0,0,1
368454920,0,0.0,0.0,-0.05723513,-0.0107565075,-0.09889422,-0.036738444,-0.035467714,-0.24821874,0.0015235356,0.00017397836,-0.00071777764,-0.00017948757,0.00033288862,0.0002680258,-0.030127008,0.007499348,0.001905636,-0.011076807,1.5183433,0.65973216,0.0,0.10017012,0.03267667,0.016826646,0.05763654,0.033193216,inf,inf,inf,inf,1,1,1,1,2,1,1,1,3,0,0,1
368464917,0,0.0,0.0,-0.05722066,-0.010754691,-0.09889517,-0.036738444,-0.035467714,-0.24821874,0.0013326966,0.00023085478,-0.0006163109,-8.123455e-05,0.00033288862,0.0002680258,-0.030127008,-0.03372457,-0.0032750703,-0.004909377,1.5183493,0.65973216,0.0,0.10017107,0.03311496,0.016826643,0.05808416,0.033193197,inf,inf,inf,inf,1,1,1,1,2,1,1,1,3,0,0,1
368484898,0,0.0,0.0,-0.057195596,-0.0107521145,-0.09889663,-0.036738444,-0.035467714,-0.24821874,0.0013458438,0.00022519144,-0.00050804013,2.0339361e-05,0.00033288862,0.0002680258,-0.030127008,-0.0014262251,0.017377317,0.010097826,1.518333,0.65973216,0.0,0.10017253,0.03221985,0.016826637,0.057188813,0.033193167,inf,inf,inf,inf,1,1,1,1,2,1,1,1,3,0,0,1
368504885,0,0.0,0.0,-0.057170562,-0.010747713,-0.098900475,-0.036738444,-0.035467714,-0.24821874,0.0015509365,0.00056988635,-0.00066571793,-0.00014445752,0.00033288862,0.0002680258,-0.030127008,0.107621,0.053115115,0.046392724,1.5183086,0.65973216,0.0,0.10017637,0.033089757,0.016826632,0.058102172,0.033193137,inf,inf,inf,inf,1,1,1,1,2,1,1,1,3,0,0,1
368524873,0,0.0,0.0,-0.057138015,-0.010734868,-0.09889528,-0.036738444,-0.035467714,-0.24821874,0.0017076586,0.0005804872,-7.0298556e-05,0.00044358952,0.00033288862,0.0002680258,-0.030127008,0.087704256,-0.038864423,0.07295738,1.51848,0.65973216,0.0,0.10017118,0.033066176,0.016826626,0.05810824,0.03319311,inf,inf,inf,inf,1,1,1,1,2,1,1,1,3,0,0,1
368544856,0,0.0,0.0,-0.05710234,-0.010724936,-0.0988904,-0.036738444,-0.035467714,-0.24821874,0.0015359094,0.0007457225,-6.4677597e-06,0.0004999359,0.00033288862,0.0002680258,-0.030127008,-0.070959195,-0.004436266,-0.005388954,1.5183129,0.65973216,0.0,0.1001663,0.033043742,0.01682662,0.058126774,0.03319308,inf,inf,inf,inf,1,1,1,1,2,1,1,1,3,0,0,1
368564841,0,0.0,0.0,-0.057068672,-0.010712218,-0.09888128,-0.036738444,-0.035467714,-0.24821874,0.0019731834,5.7756308e-05,0.00029547472,0.0007943179,0.00033288862,0.0002680258,-0.030127008,-0.058546755,-0.074198194,0.012610925,1.5183328,0.65973216,0.0,0.10015718,0.032157455,0.016826615,0.057287794,0.03319305,inf,inf,inf,inf,1,1,1,1,2,1,1,1,3,0,0,1
368584826,0,0.0,0.0,-0.05703588,-0.010708041,-0.09887011,-0.036738444,-0.035467714,-0.24821874,0.0022139247,0.0006906552,-0.00044644068,4.4811426e-05,0.00033288862,0.0002680258,-0.030127008,0.019967785,0.04751965,-0.16381963,1.5182202,0.65973216,0.0,0.10014601,0.03302586,0.016826607,0.058238342,0.033193026,inf,inf,inf,inf,1,1,1,1,2,1,1,1,3,0,0,1
368604812,0,0.0,0.0,-0.057002388,-0.010695816,-0.09886379,-0.036738444,-0.035467714,-0.24821874,0.0022380773,0.0006753862,-0.0007132987,-0.00022950527,0.00033288862,0.0002680258,-0.030127008,8.696393e-05,0.07086916,-0.2642386,1.518297,0.65973216,0.0,0.100139685,0.03214249,0.016826602,0.057420928,0.033193003,inf,inf,inf,inf,1,1,1,1,2,1,1,1,3,0,0,1
368624796,0,0.0,0.0,-0.056957994,-0.010689258,-0.09886556,-0.036738444,-0.035467714,-0.24821874,0.0025348847,0.00020505518,-0.0013462194,-0.0008697188,0.00033288862,0.0002680258,-0.030127008,-0.07295892,0.005253528,-0.18349609,1.5183371,0.65973216,0.0,0.10014146,0.032147232,0.016826596,0.057521187,0.033192985,inf,inf,inf,inf,1,1,1,1,2,1,1,1,3,0,0,1
368644781,0,0.0,0.0,-0.056922663,-0.010691759,-0.09885979,-0.036738444,-0.035467714,-0.24821874,0.0027461257,0.00043012347,0.00063245,0.0011018737,0.00033288862,0.0002680258,-0.030127008,0.21490772,0.03608396,0.1941738,1.5182935,0.65973216,0.0,0.100135684,0.032152537,0.016826589,0.057628665,0.033192966,inf,inf,inf,inf,1,1,1,1,2,1,1,1,3,0,0,1
368664768,0,0.0,0.0,-0.056877982,-0.010671425,-0.09885313,-0.036738444,-0.035467714,-0.24821874,0.0026555622,0.0005965464,-0.00020588457,0.0002566626,0.00033288862,0.0002680258,-0.030127008,-0.022380657,-0.06738796,0.0009613608,1.5183089,0.65973216,0.0,0.10012903,0.032158453,0.016826583,0.057743646,0.033192944,inf,inf,inf,inf,1,1,1,1,2,1,1,1,3,0,0,1
368684752,0,0.0,0.0,-0.056830022,-0.010674127,-0.09884555,-0.036738444,-0.035467714,-0.24821874,0.00272125,-0.0008168538,-0.00046368476,-7.774514e-06,0.00033288862,0.0002680258,-0.030127008,0.092898645,-0.12954591,0.1855145,1.5183406,0.65973216,0.0,0.100121446,0.032165058,0.016826576,0.05786231,0.033192933,inf,inf,inf,inf,1,1,1,1,2,1,1,1,3,0,0,1
368704740,0,0.0,0.0,-0.05678135,-0.010666182,-0.09884215,-0.036738444,-0.035467714,-0.24821874,0.0025700799,0.00120006,-0.0009802877,-0.0005307884,0.00033288862,0.0002680258,-0.030127008,-0.10489035,-0.009808445,-0.14471702,1.5182613,0.65973216,0.0,0.10011805,0.033038653,0.016826572,0.058864422,0.03319291,inf,inf,inf,inf,1,1,1,1,2,1,1,1,3,0,0,1
368724723,0,0.0,0.0,-0.056727685,-0.010654434,-0.09883683,-0.036738444,-0.035467714,-0.24821874,0.002425832,1.7028651e-06,-0.001070334,-0.00062697486,0.00033288862,0.0002680258,-0.030127008,-0.18569387,-0.07532471,-0.19905417,1.5183852,0.65973216,0.0,0.10011273,0.03302387,0.016826566,0.05895803,0.0331929,inf,inf,inf,inf,1,1,1,1,2,1,1,1,3,0,0,1
368744710,0,0.0,0.0,-0.056674022,-0.010649224,-0.09883732,-0.036738444,-0.035467714,-0.24821874,0.003910912,0.00016406234,-0.0007421342,-0.00030467616,0.00033288862,0.0002680258,-0.030127008,0.08475856,-0.022558697,-0.1210403,1.5182806,0.65973216,0.0,0.10011322,0.032986857,0.016826559,0.0590166,0.033192884,inf,inf,inf,inf,1,1,1,1,2,1,1,1,3,0,0,1
368764694,0,0.0,0.0,-0.05661916,-0.010649409,-0.09884199,-0.036738444,-0.035467714,-0.24821874,0.0029757721,-0.0002113358,-0.0007105334,-0.00027881528,0.00033288862,0.0002680258,-0.030127008,0.048661683,-0.040350724,-0.0030513976,1.5182779,0.65973216,0.0,0.100117885,0.032952465,0.016826553,0.05908524,0.033192877,inf,inf,inf,inf,1,1,1,1,2,1,1,1,3,0,0,1
368784679,0,0.0,0.0,-0.056568936,-0.010645535,-0.098846756,-0.036738444,-0.035467714,-0.24821874,0.003165977,0.000102448656,-0.00018058978,0.00024553732,0.00033288862,0.0002680258,-0.030127008,0.1219702,-0.020150812,0.10684802,1.5184216,0.65973216,0.0,0.10012265,0.032920696,0.016826548,0.059163608,0.03319286,inf,inf,inf,inf,1,1,1,1,2,1,1,1,3,0,0,1
368804664,0,0.0,0.0,-0.05652086,-0.0106379865,-0.09884679,-0.036738444,-0.035467714,-0.24821874,0.00328034,0.0001396317,-0.0005563501,-0.00013573882,0.00033288862,0.0002680258,-0.030127008,0.0060651535,-0.07767036,0.041644704,1.5182825,0.65973216,0.0,0.10012269,0.032891564,0.016826542,0.059250847,0.033192854,inf,inf,inf,inf,1,1,1,1,2,1,1,1,3,0,0,1
368824652,0,0.0,0.0,-0.056469224,-0.010630262,-0.09885005,-0.036738444,-0.035467714,-0.24821874,0.0034452386,-0.00037552594,-0.0005926173,-0.00017748578,0.00033288862,0.0002680258,-0.030127008,0.085068904,-0.07548707,0.07498865,1.5183365,0.65973216,0.0,0.100125946,0.032865018,0.016826537,0.059346825,0.03319285,inf,inf,inf,inf,1,1,1,1,2,1,1,1,3,0,0,1
368844635,0,0.0,0.0,-0.056422185,-0.010622876,-0.098852426,-0.036738444,-0.035467714,-0.24821874,0.0026821233,0.0003761161,-0.0010013913,-0.00059170136,0.00033288862,0.0002680258,-0.030127008,-0.037264552,0.089332655,-0.03799121,1.5183277,0.65973216,0.0,0.10012832,0.032841105,0.01682653,0.059446562,0.033192836,inf,inf,inf,inf,1,1,1,1,2,1,1,1,3,0,0,1
368864622,0,0.0,0.0,-0.0563778,-0.0106155425,-0.09884964,-0.036738444,-0.035467714,-0.24821874,0.0034251285,-0.00023709101,-0.00072911725,-0.00032489182,0.00033288862,0.0002680258,-0.030127008,-0.02700318,-0.15991528,-0.09691136,1.5183381,0.65973216,0.0,0.10012554,0.032819767,0.016826527,0.059556905,0.033192836,inf,inf,inf,inf,1,1,1,1,2,1,1,1,3,0,0,1
368884607,0,0.0,0.0,-0.05633561,-0.01060324,-0.09884953,-0.036738444,-0.035467714,-0.24821874,0.0030963141,0.00029550155,-0.00035376952,4.508757e-05,0.00033288862,0.0002680258,-0.030127008,-0.16859217,-0.17746954,-0.024540588,1.5183479,0.65973216,0.0,0.100125425,0.03280101,0.016826522,0.059670597,0.033192832,inf,inf,inf,inf,1,1,1,1,2,1,1,1,3,0,0,1
368904593,0,0.0,0.0,-0.05629727,-0.010598084,-0.09884587,-0.036738444,-0.035467714,-0.24821874,0.0017601728,0.0007092093,0.00048860733,0.00088216254,0.00033288862,0.0002680258,-0.030127008,-0.36058798,-0.022274088,-0.010406902,1.5183411,0.65973216,0.0,0.10012177,0.03278478,0.016826516,0.05978976,0.033192825,inf,inf,inf,inf,1,1,1,1,2,1,1,1,3,0,0,1
368924578,0,0.0,0.0,-0.0562683,-0.010582807,-0.09883232,-0.036738444,-0.035467714,-0.24821874,0.0028346567,0.0006370418,0.0009377917,0.0013260444,0.00033288862,0.0002680258,-0.030127008,-0.12484196,-0.07861305,0.06211709,1.518406,0.65973216,0.0,0.10010821,0.032771025,0.016826512,0.05991268,0.033192817,inf,inf,inf,inf,1,1,1,1,2,1,1,1,3,0,0,1
368944565,0,0.0,0.0,-0.05624446,-0.010565506,-0.09885292,-0.036738444,-0.035467714,-0.24821874,0.005984806,0.0016447799,0.0010023637,0.0013853981,0.00033288862,0.0002680258,-0.030127008,1.2734174,0.4331508,0.6805414,1.5184528,0.65973216,0.0,0.100128815,0.032759715,0.016826507,0.060037706,0.033192813,inf,inf,inf,inf,1,1,1,1,2,1,1,1,3,0,0,1
368964548,0,0.0,0.0,-0.05621499,-0.010567839,-0.09886477,-0.036738444,-0.035467714,-0.24821874,0.0004688024,-0.0006569494,-0.0024387578,-0.002060828,0.00033288862,0.0002680258,-0.030127008,-0.3493832,-0.37373453,-0.1523642,1.5182914,0.65973216,0.0,0.10014067,0.032750763,0.016826503,0.060164705,0.033192813,inf,inf,inf,inf,1,1,1,1,2,1,1,1,3,0,0,1
368984534,0,0.0,0.0,-0.056187145,-0.010552248,-0.09886251,-0.036738444,-0.035467714,-0.24821874,0.0017383834,-0.0020193327,-0.00032291753,4.983218e-05,0.00033288862,0.0002680258,-0.030127008,-0.33199164,-0.59505665,-0.045651726,1.5185999,0.65973216,0.0,0.1001384,0.03274413,0.0168265,0.06029566,0.033192817,inf,inf,inf,inf,1,1,1,1,2,1,1,1,3,0,0,1
369004519,0,0.0,0.0,-0.056164723,-0.010526871,-0.0988813,-0.036738444,-0.035467714,-0.24821874,0.0010346995,0.0034030753,0.0008596454,0.001227133,0.00033288862,0.0002680258,-0.030127008,0.24935961,1.042158,0.5078934,1.5183548,0.65973216,0.0,0.100157194,0.032739744,0.016826496,0.06042602,0.033192817,inf,inf,inf,inf,1,1,1,1,2,1,1,1,3,0,0,1
369024504,0,0.0,0.0,-0.056119744,-0.010504404,-0.09889197,-0.036738444,-0.035467714,-0.24821874,0.0061931317,-0.0057086716,-0.0015677531,-0.0012058456,0.00033288862,0.0002680258,-0.030127008,1.3615057,-1.6743248,0.297013,1.5181848,0.65973216,0.0,0.10016787,0.032737527,0.016826492,0.060558304,0.03319282,inf,inf,inf,inf,1,1,1,1,2,1,1,1,3,0,0,1
369044489,0,0.0,0.0,-0.05608911,-0.010516476,-0.09890752,-0.036738444,-0.035467714,-0.24821874,-0.0066444487,0.0031162617,-0.0013005283,-0.00094423175,0.00033288862,0.0002680258,-0.030127008,-2.8052845,1.7534579,0.05134865,1.5186051,0.65973216,0.0,0.10018342,0.0327374,0.016826488,0.06069167,0.033192825,inf,inf,inf,inf,1,1,1,1,2,1,1,1,3,0,0,1
369064475,0,0.0,0.0,-0.056090932,-0.010486452,-0.09892175,-0.036738444,-0.035467714,-0.24821874,0.00076877174,-0.000110150446,-0.001195976,-0.0008453448,0.00033288862,0.0002680258,-0.030127008,1.1512445,-0.67492914,0.14044571,1.5179819,0.65973216,0.0,0.10019765,0.03273928,0.016826486,0.06082257,0.033192817,inf,inf,inf,inf,1,1,1,1,2,1,1,1,3,0,0,1
369084462,0,0.0,0.0,-0.056051593,-0.010458942,-0.09893559,-0.036738444,-0.035467714,-0.24821874,0.0061286525,-0.004529735,-0.0016755763,-0.0013306772,0.00033288862,0.0002680258,-0.030127008,-0.33397043,-1.1389475,0.069877736,1.5183609,0.65973216,0.0,0.100211486,0.032743063,0.016826484,0.060952004,0.03319283,inf,inf,inf,inf,1,1,1,1,2,1,1,1,3,0,0,1
369104447,0,0.0,0.0,-0.056026928,-0.010447344,-0.09896217,-0.036738444,-0.035467714,-0.24821874,-0.0011315348,0.00021080885,-0.0020878033,-0.0017488173,0.00033288862,0.0002680258,-0.030127008,-2.0034645,0.3280507,-0.019764759,1.5182436,0.65973216,0.0,0.10023807,0.032748647,0.016826482,0.06108835,0.033192836,inf,inf,inf,inf,1,1,1,1,2,1,1,1,3,0,0,1
369124432,0,0.0,0.0,-0.055997,-0.010416995,-0.09898178,-0.036738444,-0.035467714,-0.24821874,0.00536389,0.0020810417,-0.0018806696,-0.0015476674,0.00033288862,0.0002680258,-0.030127008,1.2591676,-0.80298966,0.078602135,1.5181447,0.65973216,0.0,0.10025768,0.03275601,0.016826479,0.061216526,0.033192836,inf,inf,inf,inf,1,1,1,1,2,1,1,1,3,0,0,1
369144418,0,0.0,0.0,-0.055964876,-0.010398387,-0.098981835,-0.036738444,-0.035467714,-0.24821874,0.008225091,-3.231977e-05,-0.0038596145,-0.0035325477,0.00033288862,0.0002680258,-0.030127008,-0.09033705,-0.9297217,-0.9304257,1.5186796,0.65973216,0.0,0.10025773,0.032765042,0.016826477,0.06133455,0.033192858,inf,inf,inf,inf,1,1,1,1,2,1,1,1,3,0,0,1
369164403,0,0.0,0.0,-0.055942707,-0.010358402,-0.099008165,-0.036738444,-0.035467714,-0.24821874,0.002397091,0.006402965,0.0010281624,0.0013492528,0.00033288862,0.0002680258,-0.030127008,-1.3863072,1.078928,-0.15717192,1.5176774,0.65973216,0.0,0.10028406,0.032775518,0.016826473,0.06146402,0.033192843,inf,inf,inf,inf,1,1,1,1,2,1,1,1,3,0,0,1
369184387,0,0.0,0.0,-0.055918433,-0.010321383,-0.09903988,-0.036738444,-0.035467714,-0.24821874,0.008497687,0.004434653,-0.001690684,-0.0013753357,0.00033288862,0.0002680258,-0.030127008,2.3763535,-0.085098006,0.06595752,1.5190996,0.65973216,0.0,0.10031578,0.032787442,0.016826471,0.061579686,0.03319287,inf,inf,inf,inf,1,1,1,1,2,1,1,1,3,0,0,1
369204374,0,0.0,0.0,-0.055891637,-0.010312364,-0.099046,-0.036738444,-0.035467714,-0.24821874,0.008935025,0.0019463417,-5.0745934e-05,0.0002592063,0.00033288862,0.0002680258,-0.030127008,1.0650052,-0.29886326,-0.2855528,1.5180287,0.65973216,0.0,0.1003219,0.032800682,0.01682647,0.061696567,0.03319286,inf,inf,inf,inf,1,1,1,1,2,1,1,1,3,0,0,1
369224359,0,0.0,0.0,-0.05586758,-0.010274162,-0.0990725,-0.036738444,-0.035467714,-0.24821874,-0.0023538142,0.0049402565,3.818664e-05,0.00034308995,0.00033288862,0.0002680258,-0.030127008,-1.5280334,1.5725662,0.0655271,1.518214,0.65973216,0.0,0.1003484,0.032815125,0.01682647,0.061807178,0.03319285,inf,inf,inf,inf,1,1,1,1,2,1,1,1,3,0,0,1
369244345,0,0.0,0.0,-0.055874374,-0.0102212755,-0.09909556,-0.036738444,-0.035467714,-0.24821874,0.003002253,0.005618051,-0.00093488715,-0.00063448114,0.00033288862,0.0002680258,-0.030127008,1.5739521,0.70857143,0.19330351,1.519189,0.65973216,0.0,0.10037146,0.032830644,0.016826468,0.061917003,0.03319292,inf,inf,inf,inf,1,1,1,1,2,1,1,1,3,0,0,1
369264329,0,0.0,0.0,-0.055878833,-0.010209405,-0.09912642,-0.036738444,-0.035467714,-0.24821874,0.0045402935,-0.0028053757,0.0011433262,0.001439816,0.00033288862,0.0002680258,-0.030127008,1.4997119,-0.93160635,0.49779624,1.5172479,0.65973216,0.0,0.10040232,0.032847166,0.016826466,0.062021237,0.0331929,inf,inf,inf,inf,1,1,1,1,2,1,1,1,3,0,0,1
369284314,0,0.0,0.0,-0.05586143,-0.010152239,-0.09916892,-0.036738444,-0.035467714,-0.24821874,-0.0056497087,0.002511387,-0.0036165135,-0.0033234372,0.00033288862,0.0002680258,-0.030127008,-2.5398252,0.9509766,0.13394266,1.5194255,0.65973216,0.0,0.100444816,0.03286457,0.016826466,0.06212024,0.03319288,inf,inf,inf,inf,1,1,1,1,2,1,1,1,3,0,0,1
369304301,0,0.0,0.0,-0.05589216,-0.010091655,-0.099182025,-0.036738444,-0.035467714,-0.24821874,-0.002811951,0.002570155,-0.0012874142,-0.0009972582,0.00033288862,0.0002680258,-0.030127008,-0.282648,0.5747276,-0.006487303,1.5173979,0.65973216,0.0,0.10045792,0.032882735,0.016826464,0.062211953,0.033192948,inf,inf,inf,inf,1,1,1,1,2,1,1,1,3,0,0,1
369324286,0,0.0,0.0,-0.055913035,-0.0100585455,-0.09921166,-0.036738444,-0.035467714,-0.24821874,0.0051146233,-0.002601051,-0.0004305915,-0.00014280222,0.00033288862,0.0002680258,-0.030127008,1.5678358,-1.782863,0.31336418,1.5186309,0.65973216,0.0,0.10048756,0.032901566,0.016826462,0.06230733,0.03319291,inf,inf,inf,inf,1,1,1,1,2,1,1,1,3,0,0,1
369344272,0,0.0,0.0,-0.055895064,-0.010030707,-0.099223,-0.036738444,-0.035467714,-0.24821874,-0.0012308203,-0.0008966746,-0.0024383524,-0.0021524113,0.00033288862,0.0002680258,-0.030127008,-2.5307198,-0.6668475,0.015685389,1.518426,0.65973216,0.0,0.1004989,0.032920923,0.016826462,0.0623948,0.033192907,inf,inf,inf,inf,1,1,1,1,2,1,1,1,3,0,0,1
369364256,0,0.0,0.0,-0.055908903,-0.0100052515,-0.09923602,-0.036738444,-0.035467714,-0.24821874,-0.004882561,0.0039353888,-0.0017541103,-0.0014696257,0.00033288862,0.0002680258,-0.030127008,-1.5095285,1.0051372,0.07801485,1.5175811,0.65973216,0.0,0.100511916,0.032940794,0.01682646,0.062471427,0.033192955,inf,inf,inf,inf,1,1,1,1,2,1,1,1,3,0,0,1
369384241,0,0.0,0.0,-0.05593184,-0.009947889,-0.099235184,-0.036738444,-0.035467714,-0.24821874,0.007483991,0.0015422283,-0.0029328496,-0.0026492572,0.00033288862,0.0002680258,-0.030127008,1.0541316,-1.7700807,-0.42548257,1.5195625,0.65973216,0.0,0.10051108,0.03296097,0.016826458,0.062549144,0.033192936,inf,inf,inf,inf,1,1,1,1,2,1,1,1,3,0,0,1
369404233,0,0.0,0.0,-0.055985913,-0.0099187745,-0.09924993,-0.036738444,-0.035467714,-0.24821874,0.0019588522,0.00037008012,-0.0015236181,-0.0012405204,0.00033288862,0.0002680258,-0.030127008,-0.3884135,-1.0846277,-0.7185068,1.5167376,0.65973216,0.0,0.100525826,0.032981426,0.016826458,0.06261881,0.033192914,inf,inf,inf,inf,1,1,1,1,2,1,1,1,3,0,0,1
369424214,0,0.0,0.0,-0.056048464,-0.009873096,-0.0992737,-0.036738444,-0.035467714,-0.24821874,-0.0062366715,0.0075380336,-0.0032152114,-0.0029319604,0.00033288862,0.0002680258,-0.030127008,-2.120738,1.3306977,-0.38070422,1.5200112,0.65973216,0.0,0.10054959,0.033002064,0.016826458,0.06268455,0.033192966,inf,inf,inf,inf,1,1,1,1,2,1,1,1,3,0,0,1
369444197,0,0.0,0.0,-0.056119192,-0.009847541,-0.09927225,-0.036738444,-0.035467714,-0.24821874,0.008298427,0.007281433,7.020926e-06,0.00029109616,0.00033288862,0.0002680258,-0.030127008,2.3837483,0.5311601,-0.38424164,1.5172224,0.65973216,0.0,0.10054815,0.03302275,0.016826458,0.062742636,0.033192966,inf,inf,inf,inf,1,1,1,1,2,1,1,1,3,0,0,1
369464183,0,0.0,0.0,-0.056116212,-0.009813731,-0.099321075,-0.036738444,-0.035467714,-0.24821874,0.009544063,-0.0008617707,-0.005098745,-0.004813135,0.00033288862,0.0002680258,-0.030127008,1.3471698,-1.6945747,-0.51457095,1.5195099,0.65973216,0.0,0.10059697,0.033043493,0.016826458,0.0627882,0.033192948,inf,inf,inf,inf,1,1,1,1,2,1,1,1,3,0,0,1
369484168,0,0.0,0.0,-0.05622782,-0.009803046,-0.09939338,-0.036738444,-0.035467714,-0.24821874,0.004165409,-0.007763517,-0.00051510724,-0.00022741266,0.00033288862,0.0002680258,-0.030127008,2.535265,-1.406721,0.2862649,1.51869,0.65973216,0.0,0.10066928,0.03306404,0.016826458,0.0628417,0.03319297,inf,inf,inf,inf,1,1,1,1,2,1,1,1,3,0,0,1
369504155,0,0.0,0.0,-0.056299936,-0.009810299,-0.09944635,-0.036738444,-0.035467714,-0.24821874,-0.0063993414,0.002065184,-0.0011332863,-0.0008430324,0.00033288862,0.0002680258,-0.030127008,0.6093843,-0.049116444,1.0537666,1.5197484,0.65973216,0.0,0.100722246,0.033084452,0.016826458,0.062878475,0.033193,inf,inf,inf,inf,1,1,1,1,2,1,1,1,3,0,0,1
369524140,0,0.0,0.0,-0.056382895,-0.009678633,-0.09941826,-0.036738444,-0.035467714,-0.24821874,-0.0061452664,0.00054746104,-0.0047177235,-0.0044247527,0.00033288862,0.0002680258,-0.030127008,-0.8290565,-1.0349725,-0.7773236,1.5189466,0.65973216,0.0,0.10069416,0.03310459,0.016826458,0.062913455,0.03319296,inf,inf,inf,inf,1,1,1,1,2,1,1,1,3,0,0,1
369544126,0,0.0,0.0,-0.056362037,-0.009656038,-0.099488854,-0.036738444,-0.035467714,-0.24821874,0.010704636,0.0001910644,-0.0066648102,-0.006369129,0.00033288862,0.0002680258,-0.030127008,-0.34096962,-0.86043,-0.7252111,1.5184644,0.65973216,0.0,0.10076475,0.033124387,0.016826458,0.062944196,0.03319298,inf,inf,inf,inf,1,1,1,1,2,1,1,1,3,0,0,1
369564110,0,0.0,0.0,-0.056374446,-0.009697148,-0.09975081,-0.036738444,-0.035467714,-0.24821874,0.007562094,-0.0004604505,-0.0144147985,-0.014116656,0.00033288862,0.0002680258,-0.030127008,1.2757177,-0.47783855,0.37431595,1.518389,0.65973216,0.0,0.10102671,0.033143807,0.016826458,0.06297146,0.03319303,inf,inf,inf,inf,1,1,1,1,2,1,1,1,3,0,0,1
369584095,0,0.0,0.0,-0.056225356,-0.009808467,-0.09990963,-0.036738444,-0.035467714,-0.24821874,0.009387083,-0.0036303748,-0.0029717735,-0.002671502,0.00033288862,0.0002680258,-0.030127008,-0.0025124305,0.33220243,0.23189177,1.5187359,0.65973216,0.0,0.10118553,0.033162758,0.016826458,0.06299085,0.033192985,inf,inf,inf,inf,1,1,1,1,2,1,1,1,3,0,0,1
369604082,0,0.0,0.0,-0.05615998,-0.009852487,-0.1000105,-0.036738444,-0.035467714,-0.24821874,0.005017135,0.00076254056,-0.0057687634,-0.005466898,0.00033288862,0.0002680258,-0.030127008,0.17980073,0.05640557,0.40011865,1.5189936,0.65973216,0.0,0.1012864,0.033181217,0.016826458,0.06300431,0.033192985,inf,inf,inf,inf,1,1,1,1,2,1,1,1,3,0,0,1
369624066,0,0.0,0.0,-0.056011885,-0.009873886,-0.100030996,-0.036738444,-0.035467714,-0.24821874,0.010971727,-0.0010390357,-0.0018910391,-0.0015882413,0.00033288862,0.0002680258,-0.030127008,-0.077658534,-0.2767904,-0.21118681,1.5192013,0.65973216,0.0,0.10130689,0.033199046,0.016826458,0.06302157,0.033193015,inf,inf,inf,inf,1,1,1,1,2,1,1,1,3,0,0,1
369644053,0,0.0,0.0,-0.05596915,-0.009838494,-0.10009783,-0.036738444,-0.035467714,-0.24821874,-0.003569487,0.007527939,-0.006609813,-0.0063064178,0.00033288862,0.0002680258,-0.030127008,-0.9477938,0.18137372,-0.2782957,1.5196323,0.65973216,0.0,0.101373725,0.03321638,0.016826458,0.0630295,0.033193063,inf,inf,inf,inf,1,1,1,1,2,1,1,1,3,0,0,1
369664038,0,0.0,0.0,-0.05597392,-0.009834577,-0.100120656,-0.036738444,-0.035467714,-0.24821874,0.0028836466,0.00035424167,0.0056062923,0.0059104026,0.00033288862,0.0002680258,-0.030127008,-0.67563576,0.035202533,0.85928786,1.5200343,0.65973216,0.0,0.10139655,0.033233006,0.016826458,0.063029245,0.033193015,inf,inf,inf,inf,1,1,1,1,2,1,1,1,3,0,0,1
369684024,0,0.0,0.0,-0.056105513,-0.009805653,-0.09989092,-0.036738444,-0.035467714,-0.24821874,-0.0075622,0.004664366,0.011317764,0.011622821,0.00033288862,0.0002680258,-0.030127008,0.06850391,-0.10115015,-0.25081414,1.5205983,0.65973216,0.0,0.101166815,0.03324893,0.016826458,0.06300887,0.033193044,inf,inf,inf,inf,1,1,1,1,2,1,1,1,3,0,0,1
369704009,0,0.0,0.0,-0.05625729,-0.009763049,-0.099650435,-0.036738444,-0.035467714,-0.24821874,0.0001967288,0.0053863744,0.011022095,0.011327873,0.00033288862,0.0002680258,-0.030127008,0.496347,0.32753986,-0.29671788,1.5209652,0.65973216,0.0,0.10092633,0.03326405,0.016826458,0.06301157,0.033193,inf,inf,inf,inf,1,1,1,1,2,1,1,1,3,0,0,1
369723993,0,0.0,0.0,-0.05639982,-0.009726336,-0.09941752,-0.036738444,-0.035467714,-0.24821874,-0.0067617632,0.004409466,0.010744928,0.0110510485,0.00033288862,0.0002680258,-0.030127008,0.44727033,0.011534257,0.0038609281,1.5218769,0.65973216,0.0,0.10069342,0.033278503,0.016826458,0.06301922,0.03319301,inf,inf,inf,inf,1,1,1,1,2,1,1,1,3,0,0,1
369743978,0,0.0,0.0,-0.05644679,-0.009729638,-0.099274196,-0.036738444,-0.035467714,-0.24821874,0.0030675784,0.00026631792,0.0045088422,0.0048159817,0.00033288862,0.0002680258,-0.030127008,-0.024529237,0.1416445,-0.36386278,1.5223848,0.65973216,0.0,0.10055009,0.03329239,0.016826458,0.06298969,0.033192996,inf,inf,inf,inf,1,1,1,1,2,1,1,1,3,0,0,1
369763965,0,0.0,0.0,-0.056467116,-0.009777584,-0.09919658,-0.036738444,-0.035467714,-0.24821874,0.0014401842,-0.00012608782,0.0016129367,0.001922305,0.00033288862,0.0002680258,-0.030127008,0.34064904,-0.07913318,-0.068902366,1.5224341,0.65973216,0.0,0.10047248,0.033305217,0.016826458,0.062959775,0.033193,inf,inf,inf,inf,1,1,1,1,2,1,1,1,3,0,0,1
369783950,0,0.0,0.0,-0.05636106,-0.009891446,-0.09925935,-0.036738444,-0.035467714,-0.24821874,0.009342244,-0.0056379316,-0.0059435004,-0.0056307884,0.00033288862,0.0002680258,-0.030127008,-0.11618512,0.119786754,0.08469607,1.5237556,0.65973216,0.0,0.100535244,0.033317175,0.016826458,0.062922224,0.033193003,inf,inf,inf,inf,1,1,1,1,2,1,1,1,3,0,0,1
369803935,0,0.0,0.0,-0.056361046,-0.010020099,-0.0993438,-0.036738444,-0.035467714,-0.24821874,6.8584966e-05,-0.0040817913,-0.004702962,-0.0043860488,0.00033288862,0.0002680258,-0.030127008,0.3520863,-0.33609334,0.009543915,1.5241039,0.65973216,0.0,0.100619696,0.03332814,0.016826458,0.06289786,0.033193007,inf,inf,inf,inf,1,1,1,1,2,1,1,1,3,0,0,1
369823920,0,0.0,0.0,-0.056358524,-0.010170431,-0.0993659,-0.036738444,-0.035467714,-0.24821874,-0.0010019841,-0.0036774422,-5.4934626e-05,0.0002670853,0.00033288862,0.0002680258,-0.030127008,-0.81079465,0.27872178,0.075561546,1.5242223,0.65973216,0.0,0.100641795,0.033338334,0.016826458,0.06286074,0.033193003,inf,inf,inf,inf,1,1,1,1,2,1,1,1,3,0,0,1
369843906,0,0.0,0.0,-0.0565472,-0.010267302,-0.09944789,-0.036738444,-0.035467714,-0.24821874,-0.0075535295,-0.0019516608,-0.0061252755,-0.005797374,0.00033288862,0.0002680258,-0.030127008,0.7651488,-0.17709294,0.37841886,1.5245167,0.65973216,0.0,0.10072379,0.033347473,0.016826458,0.06279587,0.033193044,inf,inf,inf,inf,1,1,1,1,2,1,1,1,3,0,0,1
369863892,0,0.0,0.0,-0.056675643,-0.010375356,-0.09948351,-0.036738444,-0.035467714,-0.24821874,-0.00884158,-0.0022823699,-0.0015555957,-0.0012217321,0.00033288862,0.0002680258,-0.030127008,-0.5439095,0.100187965,-0.029996263,1.5239332,0.65973216,0.0,0.10075941,0.033355474,0.01682646,0.062757455,0.03319304,inf,inf,inf,inf,1,1,1,1,2,1,1,1,3,0,0,1
369883878,0,0.0,0.0,-0.056885365,-0.010406571,-0.09950989,-0.036738444,-0.035467714,-0.24821874,-0.0046756086,0.00425483,-0.0031999312,-0.0028604586,0.00033288862,0.0002680258,-0.030127008,0.2366457,0.16283995,-0.23908879,1.5235379,0.65973216,0.0,0.100785784,0.03336263,0.016826462,0.06271339,0.033193037,inf,inf,inf,inf,1,1,1,1,2,1,1,1,3,0,0,1
369903863,0,0.0,0.0,-0.05690473,-0.01040585,-0.099565,-0.036738444,-0.035467714,-0.24821874,0.006242607,0.005662093,-0.0032681397,-0.0029247615,0.00033288862,0.0002680258,-0.030127008,0.4803434,0.581321,0.16960268,1.5230651,0.65973216,0.0,0.1008409,0.03336891,0.016826464,0.062674485,0.033193007,inf,inf,inf,inf,1,1,1,1,2,1,1,1,3,0,0,1
369923848,0,0.0,0.0,-0.056784306,-0.010333868,-0.09961585,-0.036738444,-0.035467714,-0.24821874,0.011255024,0.0067257495,-0.003616861,-0.0032723232,0.00033288862,0.0002680258,-0.030127008,0.10628515,-0.18839592,0.020509074,1.52321,0.65973216,0.0,0.10089175,0.03337446,0.016826464,0.062628955,0.033193,inf,inf,inf,inf,1,1,1,1,2,1,1,1,3,0,0,1
369943834,0,0.0,0.0,-0.05655533,-0.010260168,-0.0997951,-0.036738444,-0.035467714,-0.24821874,0.01711386,0.0038644026,-0.01233175,-0.0119894985,0.00033288862,0.0002680258,-0.030127008,0.2772588,-0.31643787,0.2518559,1.5237758,0.65973216,0.0,0.101071,0.033379193,0.016826464,0.062588446,0.033192992,inf,inf,inf,inf,1,1,1,1,2,1,1,1,3,0,0,1
369963818,0,0.0,0.0,-0.056184523,-0.010260594,-0.10001259,-0.036738444,-0.035467714,-0.24821874,0.022180328,0.0029280637,-0.010333726,-0.009997359,0.00033288862,0.0002680258,-0.030127008,0.15642492,0.34339607,0.34812933,1.5248481,0.65973216,0.0,0.10128849,0.033383228,0.016826464,0.06253343,0.033192992,inf,inf,inf,inf,1,1,1,1,2,1,1,1,3,0,0,1
369983804,0,0.0,0.0,-0.055900462,-0.010271531,-0.1002473,-0.036738444,-0.035467714,-0.24821874,0.012929712,0.0014688021,-0.0134572685,-0.013130237,0.00033288862,0.0002680258,-0.030127008,0.069711894,-0.28837666,0.002171984,1.5261161,0.65973216,0.0,0.1015232,0.03338637,0.016826464,0.062468726,0.03319299,inf,inf,inf,inf,1,1,1,1,2,1,1,1,3,0,0,1
370003791,0,0.0,0.0,-0.055626594,-0.010367182,-0.100587994,-0.036738444,-0.035467714,-0.24821874,0.014815593,-0.005531879,-0.020195954,-0.019881982,0.00033288862,0.0002680258,-0.030127008,-0.11957376,-0.5675456,-0.30382624,1.5271761,0.65973216,0.0,0.10186389,0.033388555,0.016826464,0.062415656,0.033193015,inf,inf,inf,inf,1,1,1,1,2,1,1,1,3,0,0,1
370023775,0,0.0,0.0,-0.05539456,-0.010515041,-0.100976296,-0.036738444,-0.035467714,-0.24821874,0.006129105,-0.0046445983,-0.020799477,-0.020502513,0.00033288862,0.0002680258,-0.030127008,-0.91452754,-0.33339667,-0.1460945,1.5279105,0.65973216,0.0,0.10225219,0.033390015,0.016826464,0.062346015,0.033192996,inf,inf,inf,inf,1,1,1,1,2,1,1,1,3,0,0,1
370043763,0,0.0,0.0,-0.055221595,-0.010658963,-0.10141965,-0.036738444,-0.035467714,-0.24821874,0.0102793565,-0.004924402,-0.022241374,-0.02196536,0.00033288862,0.0002680258,-0.030127008,-0.31269535,-0.16204235,0.07226522,1.528491,0.65973216,0.0,0.10269555,0.033390537,0.016826464,0.06228252,0.03319302,inf,inf,inf,inf,1,1,1,1,2,1,1,1,3,0,0,1
370063749,0,0.0,0.0,-0.05506053,-0.010812406,-0.10175848,-0.036738444,-0.035467714,-0.24821874,0.0044141533,-0.005331485,-0.010920074,-0.010668717,0.00033288862,0.0002680258,-0.030127008,-0.52426916,-0.4344599,0.50804573,1.5289735,0.65973216,0.0,0.10303438,0.033390272,0.016826464,0.06221824,0.03319299,inf,inf,inf,inf,1,1,1,1,2,1,1,1,3,0,0,1
370083732,0,0.0,0.0,-0.05501531,-0.010926709,-0.10198528,-0.036738444,-0.035467714,-0.24821874,0.0018264798,-0.0026396846,-0.008926783,-0.0087032,0.00033288862,0.0002680258,-0.030127008,0.31838274,-0.20496126,0.2416266,1.5287178,0.65973216,0.0,0.10326118,0.033389226,0.016826464,0.06214934,0.03319299,inf,inf,inf,inf,1,1,1,1,2,1,1,1,3,0,0,1
370103717,0,0.0,0.0,-0.054949883,-0.011043987,-0.10222237,-0.036738444,-0.035467714,-0.24821874,0.0053998185,-0.0057257465,-0.011058199,-0.010864776,0.00033288862,0.0002680258,-0.030127008,0.6888842,-0.5473558,0.2091739,1.5287063,0.65973216,0.0,0.103498265,0.0333874,0.016826464,0.06209295,0.03319299,inf,inf,inf,inf,1,1,1,1,2,1,1,1,3,0,0,1
370123702,0,0.0,0.0,-0.054847583,-0.011221986,-0.1024815,-0.036738444,-0.035467714,-0.24821874,0.0012789619,-0.0054011554,-0.013910927,-0.013748842,0.00033288862,0.0002680258,-0.030127008,-0.31483418,0.19197965,-0.2568818,1.5281912,0.65973216,0.0,0.1037574,0.033384997,0.016826464,0.062022895,0.03319298,inf,inf,inf,inf,1,1,1,1,2,1,1,1,3,0,0,1
370143687,0,0.0,0.0,-0.05479367,-0.011387475,-0.10277767,-0.036738444,-0.035467714,-0.24821874,0.0010677367,-0.0036434268,-0.011627676,-0.011496703,0.00033288862,0.0002680258,-0.030127008,0.016038664,0.06091696,0.42309362,1.5285262,0.65973216,0.0,0.104053564,0.033381835,0.016826464,0.061951827,0.033192936,inf,inf,inf,inf,1,1,1,1,2,1,1,1,3,0,0,1
370163674,0,0.0,0.0,-0.05471543,-0.011540932,-0.10309387,-0.036738444,-0.035467714,-0.24821874,0.0034091664,-0.004436738,-0.018194266,-0.018093092,0.00033288862,0.0002680258,-0.030127008,-0.22613333,0.38317382,-0.005491188,1.5290858,0.65973216,0.0,0.10436977,0.03337799,0.016826464,0.061887383,0.033192914,inf,inf,inf,inf,1,1,1,1,2,1,1,1,3,0,0,1
370193654,0,0.0,0.0,-0.054507583,-0.0118005,-0.10358376,-0.036738444,-0.035467714,-0.24821874,0.004316533,-0.00559572,-0.013431499,-0.013369678,0.00033288862,0.0002680258,-0.030127008,-0.37567145,-0.045867365,-0.07305835,1.5302886,0.65973216,0.0,0.10485966,0.033852473,0.016826462,0.06231884,0.03319286,inf,inf,inf,inf,1,1,1,1,2,1,1,1,3,0,0,1
370203646,0,0.0,0.0,-0.054462805,-0.011912755,-0.10372903,-0.036738444,-0.035467714,-0.24821874,0.0047876686,-0.008668859,-0.011815261,-0.0117645245,0.00033288862,0.0002680258,-0.030127008,0.1675829,-0.07082469,0.51759833,1.5308523,0.65973216,0.0,0.10500493,0.03336849,0.01682646,0.061746437,0.033192847,inf,inf,inf,inf,1,1,1,1,2,1,1,1,3,0,0,1
370223630,0,0.0,0.0,-0.0544032,-0.012143416,-0.104008354,-0.036738444,-0.035467714,-0.24821874,0.0038640685,-0.007690255,-0.01543576,-0.015403373,0.00033288862,0.0002680258,-0.030127008,0.35748073,-0.14771388,-0.13622071,1.5311792,0.65973216,0.0,0.10528425,0.033362806,0.016826458,0.061660588,0.033192817,inf,inf,inf,inf,1,1,1,1,2,1,1,1,3,0,0,1
370243613,0,0.0,0.0,-0.054313082,-0.012359984,-0.10431901,-0.036738444,-0.035467714,-0.24821874,0.0026027504,-0.008945215,-0.014444856,-0.014425883,0.00033288862,0.0002680258,-0.030127008,-0.58832765,-0.36640024,-0.004402683,1.5320797,0.65973216,0.0,0.10559491,0.033356294,0.016826455,0.0615756,0.03319281,inf,inf,inf,inf,1,1,1,1,2,1,1,1,3,0,0,1
370263599,0,0.0,0.0,-0.054239206,-0.012621789,-0.10458394,-0.036738444,-0.035467714,-0.24821874,0.00085681444,-0.010475457,-0.014537964,-0.0145278955,0.00033288862,0.0002680258,-0.030127008,-0.7376883,-0.24154343,-0.33957997,1.533299,0.65973216,0.0,0.10585984,0.0333491,0.016826455,0.061500292,0.033192787,inf,inf,inf,inf,1,1,1,1,2,1,1,1,3,0,0,1
370283586,0,0.0,0.0,-0.05423128,-0.012889893,-0.10484336,-0.036738444,-0.035467714,-0.24821874,-0.0013067755,-0.008891959,-0.009637314,-0.009631537,0.00033288862,0.0002680258,-0.030127008,-0.64231116,-0.08375224,0.20831126,1.5341742,0.65973216,0.0,0.10611926,0.033341374,0.016826453,0.06142288,0.03319276,inf,inf,inf,inf,1,1,1,1,2,1,1,1,3,0,0,1
370303573,0,0.0,0.0,-0.054325093,-0.013164708,-0.10513778,-0.036738444,-0.035467714,-0.24821874,-0.0040137363,-0.010500533,-0.0159254,-0.015918648,0.00033288862,0.0002680258,-0.030127008,0.34748796,-0.1626985,0.16972926,1.5352327,0.65973216,0.0,0.10641368,0.033333134,0.016826449,0.061349336,0.033192758,inf,inf,inf,inf,1,1,1,1,2,1,1,1,3,0,0,1
370323555,0,0.0,0.0,-0.0545218,-0.013478301,-0.10541,-0.036738444,-0.035467714,-0.24821874,-0.009467362,-0.013256237,-0.01220736,-0.012193714,0.00033288862,0.0002680258,-0.030127008,0.22006756,-0.04078205,0.084366985,1.5368791,0.65973216,0.0,0.1066859,0.033324372,0.016826445,0.061272122,0.033192743,inf,inf,inf,inf,1,1,1,1,2,1,1,1,3,0,0,1
370343544,0,0.0,0.0,-0.054767754,-0.013808306,-0.105637,-0.036738444,-0.035467714,-0.24821874,-0.016159618,-0.013167586,-0.0146041345,-0.01457687,0.00033288862,0.0002680258,-0.030127008,-0.9432146,-0.38278025,-0.6879367,1.5389917,0.65973216,0.0,0.106912896,0.03331519,0.016826442,0.061198812,0.03319272,inf,inf,inf,inf,1,1,1,1,2,1,1,1,3,0,0,1
370363527,0,0.0,0.0,-0.05510723,-0.014087451,-0.10597944,-0.036738444,-0.035467714,-0.24821874,-0.016396446,-0.005567918,-0.02114338,-0.021095505,0.00033288862,0.0002680258,-0.030127008,-0.48445183,0.68609244,-0.4568487,1.5409156,0.65973216,0.0,0.10725534,0.033305515,0.016826438,0.061116017,0.033192713,inf,inf,inf,inf,1,1,1,1,2,1,1,1,3,0,0,1
370383511,0,0.0,0.0,-0.055496894,-0.0142391445,-0.10629151,-0.036738444,-0.035467714,-0.24821874,-0.016675932,-0.00071835425,-0.007386431,-0.0073117544,0.00033288862,0.0002680258,-0.030127008,0.37206715,0.44670916,1.1542912,1.5441743,0.65973216,0.0,0.10756741,0.033295337,0.016826434,0.06103711,0.033192713,inf,inf,inf,inf,1,1,1,1,2,1,1,1,3,0,0,1
370403498,0,0.0,0.0,-0.055828463,-0.014370298,-0.10632793,-0.036738444,-0.035467714,-0.24821874,-0.009304912,-0.0031329794,-0.004505817,-0.0043991003,0.00033288862,0.0002680258,-0.030127008,0.5946005,0.076987885,-0.705153,1.5475749,0.65973216,0.0,0.107603826,0.033284772,0.01682643,0.06096397,0.033192687,inf,inf,inf,inf,1,1,1,1,2,1,1,1,3,0,0,1
370423482,0,0.0,0.0,-0.05584283,-0.014637495,-0.10653637,-0.036738444,-0.035467714,-0.24821874,0.009892643,-0.011686968,-0.022827536,-0.022684366,0.00033288862,0.0002680258,-0.030127008,0.21520129,-0.06850069,-1.1976229,1.5495313,0.65973216,0.0,0.10781227,0.03327383,0.016826427,0.060880225,0.033192683,inf,inf,inf,inf,1,1,1,1,2,1,1,1,3,0,0,1
370443468,0,0.0,0.0,-0.055782255,-0.014909077,-0.10669927,-0.036738444,-0.035467714,-0.24821874,-0.0004930511,-0.008402838,0.0064062686,0.0065891766,0.00033288862,0.0002680258,-0.030127008,-1.1507871,-0.034827687,1.4796247,1.5521604,0.65973216,0.0,0.10797517,0.03326248,0.016826421,0.06080519,0.033192694,inf,inf,inf,inf,1,1,1,1,2,1,1,1,3,0,0,1
370463455,0,0.0,0.0,-0.055917315,-0.01512755,-0.10636509,-0.036738444,-0.035467714,-0.24821874,-0.0010465023,-0.0058010616,0.013492362,0.013718019,0.00033288862,0.0002680258,-0.030127008,0.21010582,-0.09303961,-0.4147357,1.5542642,0.65973216,0.0,0.10764099,0.033250745,0.016826417,0.060735963,0.033192746,inf,inf,inf,inf,1,1,1,1,2,1,1,1,3,0,0,1
370483440,0,0.0,0.0,-0.05599542,-0.015348529,-0.10609483,-0.036738444,-0.035467714,-0.24821874,-0.0024469956,-0.009291539,0.0060657472,0.006338247,0.00033288862,0.0002680258,-0.030127008,-0.39575619,-0.09643658,-0.63635695,1.5553143,0.65973216,0.0,0.10737073,0.033238806,0.016826412,0.06065789,0.033192832,inf,inf,inf,inf,1,1,1,1,2,1,1,1,3,0,0,1
370503424,0,0.0,0.0,-0.05598278,-0.015650164,-0.10619185,-0.036738444,-0.035467714,-0.24821874,0.013143565,-0.013968683,-0.018824372,-0.018499468,0.00033288862,0.0002680258,-0.030127008,0.4433735,-0.5757903,-0.21910849,1.5563539,0.65973216,0.0,0.10746775,0.033226516,0.016826408,0.06057754,0.03319284,inf,inf,inf,inf,1,1,1,1,2,1,1,1,3,0,0,1
370523413,0,0.0,0.0,-0.055902343,-0.016010601,-0.10637658,-0.036738444,-0.035467714,-0.24821874,0.007858524,-0.013253568,-0.020147866,-0.019763721,0.00033288862,0.0002680258,-0.030127008,0.077473484,0.51891315,-2.1252246,1.557668,0.65973216,0.0,0.10765248,0.033213947,0.016826406,0.06051508,0.033192918,inf,inf,inf,inf,1,1,1,1,2,1,1,1,3,0,0,1
370543396,0,0.0,0.0,-0.05583961,-0.016351845,-0.10690335,-0.036738444,-0.035467714,-0.24821874,0.00924247,-0.01792686,-0.026650066,-0.02619888,0.00033288862,0.0002680258,-0.030127008,-0.1692646,-0.78420025,1.3278065,1.5585219,0.65973216,0.0,0.10817925,0.033201274,0.016826402,0.06044164,0.033192966,inf,inf,inf,inf,1,1,1,1,2,1,1,1,3,0,0,1
370563380,0,0.0,0.0,-0.05576444,-0.016734613,-0.10745392,-0.036738444,-0.035467714,-0.24821874,0.0110391285,-0.012419694,-0.0397931,-0.039266996,0.00033288862,0.0002680258,-0.030127008,0.59653896,0.41059053,-0.43234769,1.5603148,0.65973216,0.0,0.10872982,0.033188228,0.016826399,0.060340002,0.03319294,inf,inf,inf,inf,1,1,1,1,2,1,1,1,3,0,0,1
370583374,0,0.0,0.0,-0.05564465,-0.017104873,-0.108065605,-0.036738444,-0.035467714,-0.24821874,0.010053187,-0.015386602,-0.024553776,-0.023947306,0.00033288862,0.0002680258,-0.030127008,-0.43185982,0.17681518,1.4474376,1.5630913,0.65973216,0.0,0.1093415,0.03317476,0.016826397,0.060282655,0.03319274,inf,inf,inf,inf,1,1,1,1,2,1,1,1,3,0,0,1
370603351,0,0.0,0.0,-0.055726618,-0.01743663,-0.10831513,-0.036738444,-0.035467714,-0.24821874,0.004883172,-0.014158659,-0.022527708,-0.021838084,0.00033288862,0.0002680258,-0.030127008,1.1623424,-0.8181001,-1.6278902,1.563543,0.65973216,0.0,0.10959103,0.033161417,0.016826393,0.060211916,0.033192728,inf,inf,inf,inf,1,1,1,1,2,1,1,1,3,0,0,1
370623340,0,0.0,0.0,-0.055510785,-0.017824104,-0.108978376,-0.036738444,-0.035467714,-0.24821874,0.025179999,-0.02032895,-0.04865828,-0.047886003,0.00033288862,0.0002680258,-0.030127008,0.42819273,-0.13783441,-0.65465814,1.5645773,0.65973216,0.0,0.11025427,0.0331476,0.016826387,0.060092233,0.03319288,inf,inf,inf,inf,1,1,1,1,2,1,1,1,3,0,0,1
370643323,0,0.0,0.0,-0.05513766,-0.018358441,-0.10977809,-0.036738444,-0.035467714,-0.24821874,0.01663808,-0.021705076,-0.03693349,-0.036084335,0.00033288862,0.0002680258,-0.030127008,-0.8963683,0.7307829,0.76426053,1.5645844,0.65973216,0.0,0.11105399,0.033133276,0.016826384,0.060032137,0.033192854,inf,inf,inf,inf,1,1,1,1,2,1,1,1,3,0,0,1
370663313,0,0.0,0.0,-0.055020764,-0.018852476,-0.11035932,-0.036738444,-0.035467714,-0.24821874,0.0086916145,-0.01906025,-0.032066334,-0.031150978,0.00033288862,0.0002680258,-0.030127008,-0.31103092,0.19519892,-0.19453977,1.5646272,0.65973216,0.0,0.111635216,0.033119,0.016826382,0.059998125,0.033192847,inf,inf,inf,inf,1,1,1,1,2,1,1,1,3,0,0,1
370683298,0,0.0,0.0,-0.054832857,-0.019339975,-0.1110883,-0.036738444,-0.035467714,-0.24821874,0.020991307,-0.022792542,-0.051640097,-0.050671604,0.00033288862,0.0002680258,-0.030127008,0.48596644,0.05596034,-1.2107805,1.5649058,0.65973216,0.0,0.112364195,0.03310512,0.016826378,0.059929125,0.033192858,inf,inf,inf,inf,1,1,1,1,2,1,1,1,3,0,0,1
370703282,0,0.0,0.0,-0.054400448,-0.020003978,-0.112154886,-0.036738444,-0.035467714,-0.24821874,0.029582517,-0.032520287,-0.06263556,-0.061628126,0.00033288862,0.0002680258,-0.030127008,0.43449435,0.2083494,-0.9470524,1.5632237,0.65973216,0.0,0.11343078,0.03309116,0.016826374,0.05990787,0.033192914,inf,inf,inf,inf,1,1,1,1,2,1,1,1,3,0,0,1
370723263,0,0.0,0.0,-0.053786073,-0.02073809,-0.113607354,-0.036738444,-0.035467714,-0.24821874,0.038114004,-0.032341115,-0.08074665,-0.07971426,0.00033288862,0.0002680258,-0.030127008,0.47282594,0.505518,0.2620505,1.5630038,0.65973216,0.0,0.11488325,0.033077475,0.01682637,0.05983743,0.033192962,inf,inf,inf,inf,1,1,1,1,2,1,1,1,3,0,0,1
370743248,0,0.0,0.0,-0.05312684,-0.021571439,-0.11511608,-0.036738444,-0.035467714,-0.24821874,0.03417135,-0.041790072,-0.07280202,-0.07175914,0.00033288862,0.0002680258,-0.030127008,-0.43538612,-0.7562412,0.74772877,1.5616513,0.65973216,0.0,0.11639198,0.03306382,0.016826369,0.059783626,0.033193,inf,inf,inf,inf,1,1,1,1,2,1,1,1,3,0,0,1
370763234,0,0.0,0.0,-0.05250192,-0.022551931,-0.11635259,-0.036738444,-0.035467714,-0.24821874,0.036401704,-0.045957305,-0.055865843,-0.054828197,0.00033288862,0.0002680258,-0.030127008,0.3253867,0.44250324,0.8395542,1.5602405,0.65973216,0.0,0.117628485,0.033050008,0.016826369,0.059677705,0.033193216,inf,inf,inf,inf,1,1,1,1,2,1,1,1,3,0,0,1
370783219,0,0.0,0.0,-0.05177027,-0.023608448,-0.11736542,-0.036738444,-0.035467714,-0.24821874,0.044048518,-0.04980305,-0.04915988,-0.0481453,0.00033288862,0.0002680258,-0.030127008,0.63902867,-0.08726624,0.1512962,1.5598866,0.65973216,0.0,0.11864132,0.03303587,0.016826369,0.059661794,0.033193015,inf,inf,inf,inf,1,1,1,1,2,1,1,1,3,0,0,1
370803205,0,0.0,0.0,-0.05091976,-0.024734082,-0.11841958,-0.036738444,-0.035467714,-0.24821874,0.04852421,-0.05118905,-0.056259096,-0.055284962,0.00033288862,0.0002680258,-0.030127008,0.33613402,0.0923911,-0.42800435,1.5591985,0.65973216,0.0,0.11969548,0.033022285,0.016826367,0.059612785,0.033193022,inf,inf,inf,inf,1,1,1,1,2,1,1,1,3,0,0,1
370823190,0,0.0,0.0,-0.05007284,-0.02587318,-0.11943053,-0.036738444,-0.035467714,-0.24821874,0.039545015,-0.05211536,-0.03589812,-0.03498018,0.00033288862,0.0002680258,-0.030127008,-0.6361527,0.33027464,1.7943021,1.5585294,0.65973216,0.0,0.120706424,0.03300862,0.016826365,0.05952746,0.033193205,inf,inf,inf,inf,1,1,1,1,2,1,1,1,3,0,0,1
370843176,0,0.0,0.0,-0.049238354,-0.027004877,-0.12009726,-0.036738444,-0.035467714,-0.24821874,0.046856195,-0.050659884,-0.033537954,-0.03269114,0.00033288862,0.0002680258,-0.030127008,0.22393556,0.21461502,-0.30414462,1.5591687,0.65973216,0.0,0.121373154,0.03299474,0.016826365,0.059479557,0.033193186,inf,inf,inf,inf,1,1,1,1,2,1,1,1,3,0,0,1
370863161,0,0.0,0.0,-0.048183184,-0.028139925,-0.120898426,-0.036738444,-0.035467714,-0.24821874,0.058914002,-0.05549568,-0.04667942,-0.045916185,0.00033288862,0.0002680258,-0.030127008,0.3706012,-0.78799057,-1.0557191,1.5597677,0.65973216,0.0,0.12217432,0.03298115,0.016826363,0.059451412,0.033193145,inf,inf,inf,inf,1,1,1,1,2,1,1,1,3,0,0,1
370883147,0,0.0,0.0,-0.046905518,-0.029470632,-0.12206477,-0.036738444,-0.035467714,-0.24821874,0.070875965,-0.065266155,-0.0631564,-0.06248598,0.00033288862,0.0002680258,-0.030127008,0.73286766,-0.37417698,-0.7138647,1.5602256,0.65973216,0.0,0.12334067,0.03296787,0.016826361,0.05943151,0.033193197,inf,inf,inf,inf,1,1,1,1,2,1,1,1,3,0,0,1
370903133,0,0.0,0.0,-0.045254868,-0.030945418,-0.12356218,-0.036738444,-0.035467714,-0.24821874,0.09242634,-0.06972781,-0.07328195,-0.07270874,0.00033288862,0.0002680258,-0.030127008,0.62056005,-0.0092542935,0.44468534,1.5613536,0.65973216,0.0,0.12483808,0.032955013,0.01682636,0.05937462,0.033193305,inf,inf,inf,inf,1,1,1,1,2,1,1,1,3,0,0,1
370923117,0,0.0,0.0,-0.04327998,-0.032611206,-0.124893576,-0.036738444,-0.035467714,-0.24821874,0.10114695,-0.08360666,-0.05467809,-0.05420224,0.00033288862,0.0002680258,-0.030127008,0.301643,-0.6265129,0.45907843,1.5628973,0.65973216,0.0,0.12616947,0.032942064,0.016826358,0.05929165,0.033193376,inf,inf,inf,inf,1,1,1,1,2,1,1,1,3,0,0,1
370943102,0,0.0,0.0,-0.04120777,-0.03444964,-0.12620611,-0.036738444,-0.035467714,-0.24821874,0.10415066,-0.08369954,-0.06928139,-0.06890135,0.00033288862,0.0002680258,-0.030127008,0.35286224,0.16336963,-0.42643997,1.5648113,0.65973216,0.0,0.12748201,0.032928783,0.016826358,0.059215162,0.03319341,inf,inf,inf,inf,1,1,1,1,2,1,1,1,3,0,0,1
370963088,0,0.0,0.0,-0.03912374,-0.03631302,-0.127498,-0.036738444,-0.035467714,-0.24821874,0.09326867,-0.08670287,-0.05232478,-0.052038003,0.00033288862,0.0002680258,-0.030127008,-0.86037564,-0.0028899077,0.4854917,1.5668079,0.65973216,0.0,0.1287739,0.032915343,0.016826358,0.05916417,0.03319349,inf,inf,inf,inf,1,1,1,1,2,1,1,1,3,0,0,1
370983073,0,0.0,0.0,-0.037161086,-0.03825627,-0.12888674,-0.036738444,-0.035467714,-0.24821874,0.10096917,-0.090700075,-0.08462547,-0.08442914,0.00033288862,0.0002680258,-0.030127008,1.515711,-0.059102084,-2.0204804,1.5678183,0.65973216,0.0,0.13016264,0.032902062,0.016826358,0.05911185,0.033193503,inf,inf,inf,inf,1,1,1,1,2,1,1,1,3,0,0,1
371003058,0,0.0,0.0,-0.03490732,-0.040387463,-0.13079731,-0.036738444,-0.035467714,-0.24821874,0.11079249,-0.10108834,-0.09427932,-0.09417066,0.00033288862,0.0002680258,-0.030127008,0.020808449,0.21842854,-0.38104716,1.5677295,0.65973216,0.0,0.13207321,0.033815768,0.016826358,0.05999605,0.033193536,inf,inf,inf,inf,1,1,1,1,2,1,1,1,3,0,0,1
371023044,0,0.0,0.0,-0.03249735,-0.04266384,-0.13305074,-0.036738444,-0.035467714,-0.24821874,0.11615876,-0.10646292,-0.11527633,-0.11525697,0.00033288862,0.0002680258,-0.030127008,0.15933387,-0.56965345,0.35900053,1.5686105,0.65973216,0.0,0.13432664,0.0337753,0.01682636,0.059909724,0.033193547,inf,inf,inf,inf,1,1,1,1,2,1,1,1,3,0,0,1
371043029,0,0.0,0.0,-0.02998186,-0.045099787,-0.13550478,-0.036738444,-0.035467714,-0.24821874,0.12127927,-0.11171047,-0.1350376,-0.135114,0.00033288862,0.0002680258,-0.030127008,0.13460469,0.14381343,-2.227834,1.5693959,0.65973216,0.0,0.13678068,0.033736266,0.016826361,0.059852127,0.03319367,inf,inf,inf,inf,1,1,1,1,2,1,1,1,3,0,0,1
371063015,0,0.0,0.0,-0.027348943,-0.047700666,-0.13836877,-0.036738444,-0.035467714,-0.24821874,0.12216226,-0.12463799,-0.14032295,-0.14050351,0.00033288862,0.0002680258,-0.030127008,-0.3147027,-0.25160497,-0.83846265,1.5697931,0.65973216,0.0,0.13964467,0.033698812,0.016826365,0.05979735,0.033193808,inf,inf,inf,inf,1,1,1,1,2,1,1,1,3,0,0,1
371083000,0,0.0,0.0,-0.024611548,-0.050554678,-0.14162856,-0.036738444,-0.035467714,-0.24821874,0.13180873,-0.13462403,-0.17255656,-0.1728515,0.00033288862,0.0002680258,-0.030127008,0.86286473,-0.8014156,-1.2547914,1.569752,0.65973216,0.0,0.14290446,0.033662826,0.016826367,0.059691537,0.033193972,inf,inf,inf,inf,1,1,1,1,2,1,1,1,3,0,0,1
371102986,0,0.0,0.0,-0.021595249,-0.053616993,-0.14524582,-0.036738444,-0.035467714,-0.24821874,0.13908014,-0.14234662,-0.16605511,-0.16647783,0.00033288862,0.0002680258,-0.030127008,-0.5640998,0.08610389,1.4370861,1.569029,0.65973216,0.0,0.14652172,0.033627607,0.01682637,0.05960999,0.03319421,inf,inf,inf,inf,1,1,1,1,2,1,1,1,3,0,0,1
371122971,0,0.0,0.0,-0.018684877,-0.056709755,-0.14875147,-0.036738444,-0.035467714,-0.24821874,0.13419749,-0.1350458,-0.18796636,-0.18853547,0.00033288862,0.0002680258,-0.030127008,0.9490521,0.39500895,-3.3533084,1.5671781,0.65973216,0.0,0.15002736,0.03359366,0.016826376,0.059530925,0.033194214,inf,inf,inf,inf,1,1,1,1,2,1,1,1,3,0,0,1
371142956,0,0.0,0.0,-0.015429686,-0.059820294,-0.15296233,-0.036738444,-0.035467714,-0.24821874,0.16069241,-0.14457445,-0.20574844,-0.20648845,0.00033288862,0.0002680258,-0.030127008,0.56629837,-0.43771437,-0.6370859,1.5661023,0.65973216,0.0,0.15423822,0.033560585,0.016826384,0.059461303,0.033194326,inf,inf,inf,inf,1,1,1,1,2,1,1,1,3,0,0,1
371162942,0,0.0,0.0,-0.011835239,-0.06314873,-0.15767509,-0.036738444,-0.035467714,-0.24821874,0.16757964,-0.15473062,-0.23330641,-0.23424782,0.00033288862,0.0002680258,-0.030127008,0.44727677,-0.8419401,0.39864329,1.5647757,0.65973216,0.0,0.15895098,0.033528987,0.016826393,0.05944491,0.03319471,inf,inf,inf,inf,1,1,1,1,2,1,1,1,3,0,0,1
371182927,0,0.0,0.0,-0.00811111,-0.06652358,-0.16255276,-0.036738444,-0.035467714,-0.24821874,0.16506834,-0.14612737,-0.23535348,-0.23653251,0.00033288862,0.0002680258,-0.030127008,-0.48837084,0.65365785,-0.7532641,1.5637337,0.65973216,0.0,0.16382866,0.033498853,0.016826404,0.05941053,0.033194944,inf,inf,inf,inf,1,1,1,1,2,1,1,1,3,0,0,1
371202914,0,0.0,0.0,-0.0043329867,-0.069853775,-0.16749483,-0.036738444,-0.035467714,-0.24821874,0.17745678,-0.14548996,-0.22477876,-0.22623515,0.00033288862,0.0002680258,-0.030127008,0.5875514,0.19019264,0.74552387,1.5635686,0.65973216,0.0,0.16877073,0.03347015,0.016826417,0.059349295,0.033195145,inf,inf,inf,inf,1,1,1,1,2,1,1,1,3,0,0,1
371222899,0,0.0,0.0,-0.00024589687,-0.07318853,-0.17242113,-0.036738444,-0.035467714,-0.24821874,0.19520557,-0.14528051,-0.23958102,-0.24135715,0.00033288862,0.0002680258,-0.030127008,1.4467824,-0.050609544,-1.4155657,1.5628508,0.65973216,0.0,0.17369702,0.033442635,0.016826434,0.05933445,0.033195462,inf,inf,inf,inf,1,1,1,1,2,1,1,1,3,0,0,1
371242884,0,0.0,0.0,0.004271494,-0.07658758,-0.1777178,-0.036738444,-0.035467714,-0.24821874,0.21124206,-0.14993887,-0.247336,-0.24947616,0.00033288862,0.0002680258,-0.030127008,0.44814986,-0.031130368,-0.14532883,1.5635124,0.65973216,0.0,0.1789937,0.033416364,0.016826453,0.059311762,0.033195972,inf,inf,inf,inf,1,1,1,1,2,1,1,1,3,0,0,1
371262870,0,0.0,0.0,0.009000616,-0.08002959,-0.18310012,-0.036738444,-0.035467714,-0.24821874,0.21780472,-0.1459927,-0.24455711,-0.24710503,0.00033288862,0.0002680258,-0.030127008,0.56303567,0.31232443,0.31889883,1.56463,0.65973216,0.0,0.18437602,0.033391558,0.016826473,0.05929338,0.03319649,inf,inf,inf,inf,1,1,1,1,2,1,1,1,3,0,0,1
371282854,0,0.0,0.0,0.013868563,-0.08336796,-0.18841724,-0.036738444,-0.035467714,-0.24821874,0.22223906,-0.13878365,-0.23557018,-0.23856612,0.00033288862,0.0002680258,-0.030127008,0.6010744,0.20830442,0.80347335,1.5656475,0.65973216,0.0,0.18969314,0.033367716,0.016826497,0.059207946,0.03319626,inf,inf,inf,inf,1,1,1,1,2,1,1,1,3,0,0,1
371302841,0,0.0,0.0,0.01882941,-0.0865466,-0.19346493,-0.036738444,-0.035467714,-0.24821874,0.2229449,-0.12951607,-0.21670344,-0.22018446,0.00033288862,0.0002680258,-0.030127008,0.03581622,0.5533913,0.66819084,1.567676,0.65973216,0.0,0.19474083,0.03334474,0.016826523,0.0592373,0.03319665,inf,inf,inf,inf,1,1,1,1,2,1,1,1,3,0,0,1
371322826,0,0.0,0.0,0.023877954,-0.089591905,-0.19835854,-0.036738444,-0.035467714,-0.24821874,0.22669883,-0.12487048,-0.21263917,-0.216636,0.00033288862,0.0002680258,-0.030127008,-0.04684804,0.003345024,0.37705803,1.5684245,0.65973216,0.0,0.19963443,0.033323213,0.016826548,0.059232295,0.033197314,inf,inf,inf,inf,1,1,1,1,2,1,1,1,3,0,0,1
371342811,0,0.0,0.0,0.029001702,-0.09258744,-0.20316942,-0.036738444,-0.035467714,-0.24821874,0.22542118,-0.12110553,-0.20537794,-0.20991205,0.00033288862,0.0002680258,-0.030127008,-0.5898044,0.4072191,0.40233502,1.5696487,0.65973216,0.0,0.20444532,0.033302996,0.016826577,0.059185155,0.03319731,inf,inf,inf,inf,1,1,1,1,2,1,1,1,3,0,0,1
371362797,0,0.0,0.0,0.034121733,-0.09550191,-0.20790285,-0.036738444,-0.035467714,-0.24821874,0.2269213,-0.11438568,-0.20547827,-0.2105617,0.00033288862,0.0002680258,-0.030127008,0.37013242,0.6739749,-0.43316624,1.5703251,0.65973216,0.0,0.20917875,0.03328346,0.016826605,0.05914636,0.033197194,inf,inf,inf,inf,1,1,1,1,2,1,1,1,3,0,0,1
371382781,0,0.0,0.0,0.03935115,-0.098310366,-0.2126486,-0.036738444,-0.035467714,-0.24821874,0.23064099,-0.11494429,-0.1920631,-0.19769897,0.00033288862,0.0002680258,-0.030127008,-0.09676121,-0.21599153,1.4582576,1.5700191,0.65973216,0.0,0.2139245,0.033264488,0.016826635,0.059086863,0.033197157,inf,inf,inf,inf,1,1,1,1,2,1,1,1,3,0,0,1
371402768,0,0.0,0.0,0.04453522,-0.10109112,-0.21709959,-0.036738444,-0.035467714,-0.24821874,0.22254954,-0.111808866,-0.18640023,-0.19258332,0.00033288862,0.0002680258,-0.030127008,-0.14443155,-0.16703424,-0.050089806,1.5713358,0.65973216,0.0,0.21837549,0.033246227,0.016826661,0.059079673,0.033197712,inf,inf,inf,inf,1,1,1,1,2,1,1,1,3,0,0,1
371422753,0,0.0,0.0,0.049648304,-0.10377032,-0.2215849,-0.036738444,-0.035467714,-0.24821874,0.21922952,-0.1054653,-0.19139992,-0.19811518,0.00033288862,0.0002680258,-0.030127008,-0.19999632,0.2957488,-0.044751983,1.5716568,0.65973216,0.0,0.2228608,0.03322887,0.01682669,0.05903812,0.03319774,inf,inf,inf,inf,1,1,1,1,2,1,1,1,3,0,0,1
371442738,0,0.0,0.0,0.054582372,-0.10636879,-0.22599985,-0.036738444,-0.035467714,-0.24821874,0.20254721,-0.10409948,-0.18302888,-0.19025299,0.00033288862,0.0002680258,-0.030127008,-0.7429143,0.14957523,-0.30134898,1.5714297,0.65973216,0.0,0.22727574,0.033212047,0.016826719,0.05898458,0.033197455,inf,inf,inf,inf,1,1,1,1,2,1,1,1,3,0,0,1
371462724,0,0.0,0.0,0.05928179,-0.10879172,-0.23063105,-0.036738444,-0.035467714,-0.24821874,0.1948916,-0.09608285,-0.19898318,-0.20668562,0.00033288862,0.0002680258,-0.030127008,-0.4555233,-0.5504256,1.0734525,1.5719837,0.65973216,0.0,0.23190695,0.03319558,0.016826743,0.05890904,0.03319677,inf,inf,inf,inf,1,1,1,1,2,1,1,1,3,0,0,1
371482709,0,0.0,0.0,0.06381106,-0.11107683,-0.23529932,-0.036738444,-0.035467714,-0.24821874,0.18515213,-0.08480138,-0.21100748,-0.21915193,0.00033288862,0.0002680258,-0.030127008,-0.23024434,0.55136573,-1.1835927,1.5718488,0.65973216,0.0,0.23657522,0.03317921,0.01682676,0.058852695,0.03319639,inf,inf,inf,inf,1,1,1,1,2,1,1,1,3,0,0,1
371502694,0,0.0,0.0,0.068205245,-0.113237046,-0.23996016,-0.036738444,-0.035467714,-0.24821874,0.17682905,-0.083980456,-0.19679834,-0.20534529,0.00033288862,0.0002680258,-0.030127008,-0.5061592,0.43768865,-0.8833219,1.5715388,0.65973216,0.0,0.24123606,0.033163216,0.016826775,0.058800485,0.033196032,inf,inf,inf,inf,1,1,1,1,2,1,1,1,3,0,0,1
371522680,0,0.0,0.0,0.07241364,-0.11526104,-0.24470209,-0.036738444,-0.035467714,-0.24821874,0.1716411,-0.0789958,-0.20583381,-0.21474265,0.00033288862,0.0002680258,-0.030127008,-0.19733351,0.19849113,0.19260797,1.5718071,0.65973216,0.0,0.24597798,0.033147573,0.016826782,0.058749396,0.033195503,inf,inf,inf,inf,1,1,1,1,2,1,1,1,3,0,0,1
371542665,0,0.0,0.0,0.07652158,-0.11718495,-0.24940525,-0.036738444,-0.035467714,-0.24821874,0.16370709,-0.076461636,-0.20033786,-0.20956798,0.00033288862,0.0002680258,-0.030127008,-0.58149266,0.058000784,0.5684381,1.5713124,0.65973216,0.0,0.25068116,0.03313236,0.016826786,0.058719214,0.03319512,inf,inf,inf,inf,1,1,1,1,2,1,1,1,3,0,0,1
371562650,0,0.0,0.0,0.08043649,-0.11906524,-0.25395727,-0.036738444,-0.035467714,-0.24821874,0.15569654,-0.07591808,-0.19784242,-0.20735426,0.00033288862,0.0002680258,-0.030127008,-0.24405739,0.42772785,-0.26396605,1.5703614,0.65973216,0.0,0.25523317,0.033117507,0.016826782,0.058644142,0.03319444,inf,inf,inf,inf,1,1,1,1,2,1,1,1,3,0,0,1
371582635,0,0.0,0.0,0.08426757,-0.12079964,-0.25876114,-0.036738444,-0.035467714,-0.24821874,0.1591631,-0.066139884,-0.2229013,-0.23265739,0.00033288862,0.0002680258,-0.030127008,0.29562983,0.37007394,-0.56466347,1.5698625,0.65973216,0.0,0.26003703,0.03310283,0.016826773,0.058613785,0.03319387,inf,inf,inf,inf,1,1,1,1,2,1,1,1,3,0,0,1
371602624,0,0.0,0.0,0.08801523,-0.12231385,-0.26364008,-0.036738444,-0.035467714,-0.24821874,0.14719851,-0.05559611,-0.21433076,-0.22429542,0.00033288862,0.0002680258,-0.030127008,-0.67512053,0.716597,-0.4772352,1.5693822,0.65973216,0.0,0.26491597,0.033088718,0.016826756,0.05857053,0.033193152,inf,inf,inf,inf,1,1,1,1,2,1,1,1,3,0,0,1
371622607,0,0.0,0.0,0.09148862,-0.123471715,-0.26861683,-0.036738444,-0.035467714,-0.24821874,0.13852094,-0.039552767,-0.22500686,-0.23514666,0.00033288862,0.0002680258,-0.030127008,-0.40374643,0.6642506,0.13755763,1.5692939,0.65973216,0.0,0.26989272,0.033074904,0.016826734,0.058569994,0.033192445,inf,inf,inf,inf,1,1,1,1,2,1,1,1,3,0,0,1
371642592,0,0.0,0.0,0.094731174,-0.124381155,-0.27358207,-0.036738444,-0.035467714,-0.24821874,0.12714966,-0.03266211,-0.22130619,-0.2315891,0.00033288862,0.0002680258,-0.030127008,-0.40205035,0.2565101,0.248783,1.5690548,0.65973216,0.0,0.27485797,0.03306192,0.0168267,0.05852542,0.033191737,inf,inf,inf,inf,1,1,1,1,2,1,1,1,3,0,0,1
371662578,0,0.0,0.0,0.09772186,-0.12513629,-0.27835888,-0.036738444,-0.035467714,-0.24821874,0.117073566,-0.028628414,-0.20592608,-0.21632197,0.00033288862,0.0002680258,-0.030127008,-0.6340914,0.12117188,1.0629699,1.5687063,0.65973216,0.0,0.27963477,0.033049427,0.016826661,0.058499478,0.03319124,inf,inf,inf,inf,1,1,1,1,2,1,1,1,3,0,0,1
371682563,0,0.0,0.0,0.10046948,-0.12579937,-0.28274828,-0.036738444,-0.035467714,-0.24821874,0.10983765,-0.027175913,-0.18814994,-0.19862981,0.00033288862,0.0002680258,-0.030127008,-0.28944987,0.25903338,0.78980625,1.5687898,0.65973216,0.0,0.28402418,0.03303718,0.016826615,0.05849051,0.03319065,inf,inf,inf,inf,1,1,1,1,2,1,1,1,3,0,0,1
371702548,0,0.0,0.0,0.103122264,-0.12640636,-0.28694224,-0.036738444,-0.035467714,-0.24821874,0.114045545,-0.026834108,-0.19329274,-0.20382856,0.00033288862,0.0002680258,-0.030127008,0.32383093,-0.029970126,-0.7284696,1.5678351,0.65973216,0.0,0.28821814,0.03302556,0.016826564,0.058456574,0.0331902,inf,inf,inf,inf,1,1,1,1,2,1,1,1,3,0,0,1
371722533,0,0.0,0.0,0.105930515,-0.12691857,-0.29127777,-0.036738444,-0.035467714,-0.24821874,0.12657665,-0.024737634,-0.19631773,-0.20688236,0.00033288862,0.0002680258,-0.030127008,0.48044416,0.18784377,0.26129815,1.5677454,0.65973216,0.0,0.29255366,0.0330142,0.016826509,0.058413856,0.033189747,inf,inf,inf,inf,1,1,1,1,2,1,1,1,3,0,0,1
371742519,0,0.0,0.0,0.10882216,-0.12736218,-0.2954124,-0.036738444,-0.035467714,-0.24821874,0.12759598,-0.023026852,-0.17681913,-0.18738586,0.00033288862,0.0002680258,-0.030127008,-0.1270941,0.09337664,1.2138587,1.5667027,0.65973216,0.0,0.2966883,0.03300308,0.016826447,0.05841647,0.03318932,inf,inf,inf,inf,1,1,1,1,2,1,1,1,3,0,0,1
371762504,0,0.0,0.0,0.11150598,-0.12765993,-0.29917926,-0.036738444,-0.035467714,-0.24821874,0.11423619,-0.016419118,-0.16902983,-0.17957054,0.00033288862,0.0002680258,-0.030127008,-0.61747986,0.23170494,0.09126134,1.5661108,0.65973216,0.0,0.30045515,0.032992803,0.016826382,0.058396436,0.033188798,inf,inf,inf,inf,1,1,1,1,2,1,1,1,3,0,0,1
371782490,0,0.0,0.0,0.11400954,-0.1277769,-0.30272293,-0.036738444,-0.035467714,-0.24821874,0.11913773,-0.009566329,-0.15233947,-0.16282356,0.00033288862,0.0002680258,-0.030127008,0.72528493,0.62590975,0.8778527,1.5649365,0.65973216,0.0,0.30399883,0.032982767,0.016826311,0.058390714,0.033188306,inf,inf,inf,inf,1,1,1,1,2,1,1,1,3,0,0,1
371802477,0,0.0,0.0,0.116636105,-0.12772371,-0.30598977,-0.036738444,-0.035467714,-0.24821874,0.12919751,-0.003951263,-0.15281506,-0.16320854,0.00033288862,0.0002680258,-0.030127008,0.36712906,0.15607946,-0.7863718,1.5640855,0.65973216,0.0,0.30726567,0.032973293,0.016826235,0.0583633,0.033187956,inf,inf,inf,inf,1,1,1,1,2,1,1,1,3,0,0,1
371822460,0,0.0,0.0,0.11937328,-0.12747146,-0.30949336,-0.036738444,-0.035467714,-0.24821874,0.13690586,0.0041466225,-0.17004696,-0.18031302,0.00033288862,0.0002680258,-0.030127008,0.45895094,0.46669194,-0.2111121,1.5639194,0.65973216,0.0,0.31076926,0.032964043,0.016826153,0.05832508,0.03318765,inf,inf,inf,inf,1,1,1,1,2,1,1,1,3,0,0,1
371842447,0,0.0,0.0,0.12224418,-0.12706351,-0.31298253,-0.036738444,-0.035467714,-0.24821874,0.14716817,0.00733417,-0.15808725,-0.168187,0.00033288862,0.0002680258,-0.030127008,0.5069479,0.16542645,0.60187924,1.5629251,0.65973216,0.0,0.31425843,0.032954782,0.016826069,0.058263946,0.033187367,inf,inf,inf,inf,1,1,1,1,2,1,1,1,3,0,0,1
371862432,0,0.0,0.0,0.12512408,-0.12651595,-0.31633183,-0.036738444,-0.035467714,-0.24821874,0.1437222,0.01261346,-0.16505931,-0.17495288,0.00033288862,0.0002680258,-0.030127008,-0.21155892,0.27665076,-0.53348744,1.5628359,0.65973216,0.0,0.31760773,0.03294535,0.016825985,0.058221165,0.033187088,inf,inf,inf,inf,1,1,1,1,2,1,1,1,3,0,0,1
371882417,0,0.0,0.0,0.12793322,-0.12585805,-0.31974232,-0.036738444,-0.035467714,-0.24821874,0.14797083,0.014060943,-0.16226141,-0.17190932,0.00033288862,0.0002680258,-0.030127008,0.5565634,0.09171654,0.55219203,1.562149,0.65973216,0.0,0.32101822,0.03293616,0.016825903,0.058222022,0.033186853,inf,inf,inf,inf,1,1,1,1,2,1,1,1,3,0,0,1
