timestamp,gyro_rad[0],gyro_rad[1],gyro_rad[2],gyro_integral_dt,accelerometer_timestamp_relative,accelerometer_m_s2[0],accelerometer_m_s2[1],accelerometer_m_s2[2],accelerometer_integral_dt,accelerometer_clipping
368444928,-0.0016924173,-0.0009248736,-0.012436851,4997,0,-0.087054625,-0.06846873,-9.825828,4997,0
368449924,-0.0015598007,0.00041023945,-0.011594129,4996,0,-0.078316584,-0.10654879,-9.8410845,4996,0
368469909,-0.0018387365,-0.0002968016,-0.013572312,4992,0,-0.09911053,-0.118145004,-9.8415365,4992,0
368489894,-0.001354122,0.0009606635,-0.01106368,4996,0,-0.06197713,-0.13152596,-9.847977,4996,0
368509879,-0.0019473472,-0.004433812,-0.006598089,4994,0,-0.20275451,-0.2213857,-9.803657,4994,0
368524873,0.0017988059,-0.0037511792,-0.015221577,5000,0,-0.11149058,-0.19650555,-9.761301,5000,0
368549851,0.0006985569,-0.004929187,-9.106983e-05,4995,0,-0.06750485,-0.21315804,-9.782178,4995,0
368569837,-0.0030076047,0.004623947,-0.02544625,4996,0,-0.036123954,-0.030099085,-9.79964,4996,0
368584826,-0.0012142344,-0.00298644,-0.00176837,4997,0,-0.030322077,-0.12657864,-9.999518,4997,0
368609806,0.0032140277,-0.004876916,-0.021421758,4994,0,-0.09794652,-0.10094445,-9.868578,4994,0
368629792,-0.0014526729,0.0027893411,-0.0085195955,4996,0,-0.20107009,-0.10217674,-9.597715,4996,0
368644781,-0.018481562,-0.004803028,-0.01611714,4994,0,-0.028459083,-0.31782344,-9.639558,4994,0
368664768,0.015756078,0.0053491085,-0.013277986,4998,0,-0.14602455,-0.08974798,-9.834146,4998,0
368689748,-0.024519458,0.0033605844,-0.01203784,4996,0,0.068036556,-0.1618589,-9.75176,4996,0
368709734,-0.020510089,0.008445083,-0.009398381,4994,0,-0.12574616,-0.36185703,-9.529732,4994,0
368724723,0.015822126,-0.0017702521,-0.01156144,4993,0,-0.16404659,0.0714469,-10.035737,4993,0
368749705,-0.011447643,0.0021228567,0.007517728,4995,0,-0.12295483,-0.089330696,-9.722716,4995,0
368769691,-0.0072981874,-0.0003074934,-0.024171667,4997,0,0.04742775,-0.23500179,-9.812997,4997,0
368789675,0.004961967,0.0022252724,-0.015127588,4996,0,0.004213107,-0.04975977,-9.825581,4996,0
368804664,-0.0014525924,-3.4042798e-05,-0.0056171566,4996,0,-0.15450479,-0.11805088,-9.793114,4996,0
368829646,-0.005066532,-0.0009084754,-0.0048947237,4994,0,0.20310917,-0.075151615,-9.749327,4994,0
368849632,-0.0101841325,-0.0006674009,0.0044757915,4997,0,-0.0931292,-0.20036608,-9.547048,4997,0
368869618,-0.014325874,-0.007435258,-0.006241295,4996,0,0.04196646,0.044984404,-9.661126,4996,0
368889602,-0.01762941,-0.0101622315,-0.0049658185,4995,0,-0.143482,0.028919263,-9.921972,4995,0
368909587,0.014515022,-0.016930195,0.0031402132,4994,0,-0.192568,-0.030485552,-9.953371,4994,0
368929573,0.0064047943,-0.015473287,-0.03336685,4995,0,0.13699843,0.0028349333,-10.207396,4995,0
368944565,-0.015098195,0.008758129,0.0101049915,4998,0,0.42686853,-1.35087,-9.146071,4998,0
368969544,-0.025627192,0.0041969907,-0.02308866,4996,0,0.21177776,-0.5932402,-9.255218,4996,0
368989529,0.0031539367,-0.0009444364,-0.012563572,4995,0,1.3366253,-0.11828609,-9.893969,4995,0
369004519,-0.0051614386,0.005306091,0.027639903,4997,0,0.9815932,-0.29793045,-9.334289,4997,0
369029500,-0.026826117,0.0097014345,-0.020530619,4996,0,1.8575752,1.0687593,-9.498806,4996,0
369049487,0.027047386,-0.0060637617,0.0026503264,4998,0,-0.25637025,-2.1934264,-9.593377,4998,0
369069471,-0.022352492,0.00039657086,-0.0021453078,4996,0,0.27226114,-0.97328603,-9.430152,4996,0
369084462,-0.050418373,0.004157661,-0.08642347,4998,0,-1.2298365,0.16782838,-9.75909,4998,0
369109442,0.013106534,0.01846712,0.07610545,4995,0,0.08427278,-1.4302294,-9.391351,4995,0
369129427,-0.025055818,0.025806792,-0.12547325,4995,0,-1.6484036,0.41782257,-9.3739395,4995,0
369149413,0.019367488,0.007852932,0.052122198,4995,0,0.6137614,2.5466464,-10.036705,4995,0
369169399,0.00930214,-0.01988046,0.03322585,4996,0,-1.1393228,-1.0806266,-10.40429,4996,0
369189383,-0.074108206,-0.006732152,-0.18751249,4996,0,-1.4879014,0.14475675,-9.777487,4996,0
369209370,0.041042373,0.0037413859,0.18301986,4996,0,0.3965861,1.5393432,-10.486989,4996,0
369224359,-0.008243887,0.020374237,-0.13193722,4998,0,1.4158487,1.5021379,-9.79857,4998,0
369249340,-0.022872755,-0.014658216,0.016789218,4995,0,-1.3503581,-1.802994,-10.057513,4995,0
369269325,0.0026661656,0.0020479967,0.037479408,4996,0,1.8906279,0.9981189,-10.198744,4996,0
369289311,0.045980554,-0.024249705,-0.099866234,4997,0,1.4349189,-1.3836446,-9.1699705,4997,0
369309295,0.023395533,-0.003908965,0.14723219,4994,0,-0.7300997,-1.8108585,-9.802675,4994,0
369329281,-0.03285838,0.035904057,-0.23884319,4995,0,0.13022418,0.8214417,-9.604521,4995,0
369349269,0.08874776,0.011061731,0.23151276,4997,0,1.1704005,0.46605945,-9.38328,4997,0
369364256,0.028520042,-0.005143756,-0.22316492,4997,0,0.8483237,1.4532487,-9.781334,4997,0
369389237,0.021713154,0.04385155,-0.0014523369,4996,0,-1.4703963,1.5347632,-10.017659,4996,0
369409223,0.01503069,0.00619432,0.08366885,4990,0,0.93022496,1.7641503,-10.080309,4990,0
369429208,0.021663021,-0.014332734,-0.1872697,4994,0,-1.3039739,-1.3871135,-9.666821,4994,0
369449195,0.0008316523,-0.0014223952,0.20324573,4998,0,-2.0720253,0.400431,-10.481363,4998,0
369469179,-0.03687108,0.013906117,-0.19714555,4996,0,0.33576578,1.6720823,-10.177552,4996,0
369489165,-0.06891426,0.049914975,0.10192266,4997,0,1.3378717,-1.1925073,-9.816052,4997,0
369509150,-0.0067099333,-0.012102967,-0.20318455,4995,0,1.6465275,-1.4573225,-8.834679,4995,0
369529135,0.058502205,0.06836283,0.15960668,4995,0,-0.015854001,-0.40912542,-9.720469,4995,0
369549121,-0.049157783,0.046397936,-0.124194555,4995,0,-1.0430638,1.6760137,-10.971576,4995,0
369569107,-0.040596135,-0.022970732,0.12699665,4997,0,-0.81520873,-0.8828457,-9.236601,4997,0
369589091,0.0021085062,0.013718057,-0.13637324,4996,0,-0.0030373272,0.23301157,-10.139941,4996,0
369609077,0.015469922,-0.06559482,0.10909156,4995,0,0.24073476,-0.8047022,-9.006477,4995,0
369629062,-0.021711072,0.0012711061,-0.09390057,4996,0,0.15633412,0.4148623,-9.956865,4996,0
369649048,0.026853586,-0.005850138,0.11100004,4995,0,-1.0199786,-0.48703182,-9.553878,4995,0
369669035,-0.017613392,0.026636021,-0.046790246,4997,0,0.1256679,0.77051175,-8.986614,4997,0
369689019,0.019297218,-0.066275924,0.04723422,4995,0,-0.032617453,0.18147255,-9.852459,4995,0
369704009,-0.0885572,0.01573772,-0.026574858,4994,0,0.26870692,-0.571213,-10.131445,4994,0
369728990,-0.001562016,-0.03904612,0.048788447,4997,0,0.02087565,-0.9273798,-10.63278,4997,0
369748976,-0.075172186,0.0397954,-0.041194607,4998,0,-0.16719268,0.19915342,-9.658592,4998,0
369768961,-0.03290151,-0.0365197,0.09209091,4996,0,-0.27544698,-0.5865378,-10.591171,4996,0
369788946,-0.011703303,0.051833,-0.011902877,4996,0,0.14162306,0.7748024,-9.570541,4996,0
369808931,0.034552906,-0.017658668,0.0044024135,4996,0,-0.1805467,-0.3602453,-9.525066,4996,0
369828917,0.0589865,0.0065899272,-0.0024191188,4997,0,0.3119054,0.8696237,-10.38705,4997,0
369848902,-0.052170157,0.004989627,-0.041430198,4996,0,-0.0725881,-1.0708203,-9.269108,4996,0
369868887,-0.008867541,-0.0063968385,-0.046553086,4995,0,0.44892722,0.71714216,-9.852303,4995,0
369888873,-0.123909205,-0.026444009,-0.045388907,4995,0,-0.31859818,-0.70597595,-9.758408,4995,0
369908858,-0.097837426,0.020265885,-0.011560206,4995,0,-0.18393107,0.07717754,-9.613626,4995,0
369928844,-0.11940276,-0.040254295,0.037748262,4996,0,0.15878174,0.1751004,-10.164593,4996,0
369948829,-0.15811975,0.022176422,0.023947036,4995,0,0.09354972,-0.48358244,-9.375934,4995,0
369968814,-0.13467832,-0.029754184,0.060346484,4996,0,-0.10717716,0.9214032,-9.80369,4996,0
369988799,-0.09656203,0.0012606975,0.03870629,4995,0,-0.4943144,-0.22734681,-10.224708,4995,0
370008785,-0.10467,0.0062622176,0.012576249,4994,0,0.17508982,0.09831933,-9.554477,4994,0
370028776,-0.0015965183,0.020010063,0.04448525,5001,0,0.19698364,0.01720259,-9.846845,5001,0
370048757,-0.014175111,0.028517086,0.012608858,4994,0,-0.18680555,0.16479714,-9.188694,4994,0
370068742,0.025231905,-0.008160303,-0.01795382,4993,0,0.39804322,0.22434089,-9.83421,4993,0
370088727,-0.044617362,0.016395584,-0.024375262,4995,0,0.056403786,-0.29169548,-9.930138,4995,0
370108712,-0.06572551,0.048668485,-0.040086024,4995,0,-0.25416702,-0.02663296,-9.712147,4995,0
370128699,-0.0011210945,0.016059417,-0.0072179916,4997,0,-0.08435243,-0.30347258,-9.8640585,4997,0
370148684,-0.061223935,-0.0088667385,0.04206838,4997,0,0.018598968,-0.19957542,-9.765433,4997,0
370168669,-0.08415775,0.023652928,-0.010697523,4995,0,0.14565368,-0.3632353,-9.588532,4995,0
370193654,-0.08816247,-0.02224111,0.066286385,5000,0,-0.11805737,0.52851665,-9.90142,5000,0
370208639,-0.10722495,-0.0049376977,-0.003489644,4993,0,-0.13434264,0.56284434,-9.7422495,4993,0
370228625,-0.010098472,0.0020883703,0.024118531,4995,0,0.06886589,-0.0365283,-9.749119,4995,0
370248609,-0.029224364,0.048261542,0.054490194,4996,0,-0.17763917,-0.30832016,-9.456888,4996,0
370268595,0.09971494,-0.0031012513,0.03229321,4996,0,0.030311596,0.32889524,-10.089598,4996,0
370288581,-0.020037986,0.005395516,0.058036324,4995,0,-0.41160375,0.51080203,-10.471173,4995,0
370308566,-0.0097904755,0.013342531,0.050255712,4993,0,0.0404386,0.632309,-9.424755,4993,0
370328551,-0.10219304,-0.020229835,0.077168815,4996,0,0.120828256,0.026598513,-9.677688,4996,0
370348540,-0.066241875,0.020069752,0.09835629,4996,0,0.26779523,-0.23752582,-10.247238,4996,0
370368522,-0.16654973,-0.04941979,0.12000197,4995,0,0.0068707266,0.06723562,-9.805921,4995,0
370388508,-0.21994288,-0.047354385,0.19977857,4997,0,-0.23618603,-0.10185834,-9.228294,4997,0
370408494,-0.15047628,0.0378738,0.09453057,4996,0,-1.3204715,-0.971655,-10.440519,4996,0
370428480,0.12933579,0.019747859,0.11988675,4998,0,0.18013732,0.31271735,-9.300245,4998,0
370448464,0.13269947,-0.07499581,0.12661043,4996,0,-0.59008723,0.9014713,-8.144366,4996,0
370468449,0.045268007,0.05379303,0.047066644,4994,0,-0.0062898574,-0.5956974,-9.969755,4994,0
370488435,0.1718886,-0.026574457,0.06908435,4995,0,-0.53974795,-0.42234728,-10.740387,4995,0
370508422,-0.023590833,0.028048575,0.054212414,4998,0,0.09207723,0.7612851,-8.724167,4998,0
370528408,-0.01862815,0.026215013,0.037503153,4995,0,0.20413052,0.42481622,-11.719542,4995,0
370548391,-0.22150815,-0.02877151,0.023718901,4995,0,0.36967617,0.059474476,-9.493763,4995,0
370568376,-0.2722138,0.01046168,0.15510565,4996,0,-0.5399503,-0.15985057,-9.69769,4996,0
370588361,-0.19679809,0.03797683,0.044765044,4987,0,0.10070641,1.6864262,-8.5553,4987,0
370608348,-0.21947843,0.01882577,0.006468193,4997,0,0.20040104,-0.44997048,-11.680487,4997,0
370628332,-0.23887974,0.01875311,0.032487642,4992,0,-0.6321875,-0.37622598,-9.867863,4992,0
370648318,-0.038456805,0.009703363,-0.020961126,4995,0,-0.31679094,1.4286382,-9.51685,4995,0
370668303,0.06434746,0.12952718,0.031085087,4990,0,-0.14385086,0.2628426,-10.444661,4990,0
370688290,0.0776431,0.10542816,-0.064685136,4992,0,-1.236515,-0.37959012,-10.613981,4992,0
370708275,-0.07092445,-0.050964184,-0.056942057,4993,0,0.023459623,-0.4277068,-11.458013,4993,0
370728260,-0.050428584,-0.025363714,-0.039837267,4997,0,-0.8355159,0.21360394,-9.685422,4997,0
370748247,0.056073394,-0.04482464,-0.090484336,4999,0,-0.41751435,0.22786808,-8.693501,4999,0
370768230,-0.056669615,0.04352477,-0.047609568,4996,0,-0.41743663,0.063899,-9.281885,4996,0
370788216,-0.026461309,0.18973355,-0.044468954,4997,0,-0.37594432,0.31025437,-10.432522,4997,0
370808201,0.12285465,0.116977826,-0.039920725,4996,0,-0.2540271,0.75612867,-9.72592,4996,0
370828186,-0.024144894,-0.022604778,0.0013411181,4996,0,-0.19120178,0.05526698,-8.819619,4996,0
370848172,-0.12521012,-0.14990325,0.01842411,4996,0,0.51554024,-0.6242883,-9.947677,4996,0
370868158,0.0068569663,-0.23664127,-0.020789891,4997,0,-0.675724,-0.19592904,-10.898534,4997,0
370888143,0.1657781,-0.13598801,0.005966673,4996,0,-0.0005077533,-0.3713513,-11.002599,4996,0
370908129,0.030667352,-0.07110245,0.075571895,4996,0,-0.69801235,-0.39546782,-9.034242,4996,0
370928113,-0.12659088,-0.120211646,0.064852364,4996,0,-0.13184336,0.49522877,-10.262671,4996,0
370948099,-0.067888334,-0.22612333,0.060747173,4997,0,-0.27329817,0.10407571,-9.329804,4997,0
370968085,0.27846718,-0.16232888,0.05529002,4997,0,-0.28318116,0.1941238,-10.553849,4997,0
370988070,0.36565572,0.028781414,-0.006279685,4997,0,-0.83854973,-0.6347547,-11.289578,4997,0
371008055,0.3386484,-0.09504321,0.02162862,4997,0,-0.80671245,-0.32083616,-11.24573,4997,0
371028041,0.047295753,-0.24676305,0.039187852,4997,0,-1.0975015,0.38176173,-8.864668,4997,0
371048026,-0.13350281,-0.3107047,0.0224681,4997,0,-0.74488795,0.3595499,-10.876483,4997,0
371068011,-0.051607966,0.029349998,-0.0018082997,4996,0,-1.1149883,-0.1421454,-11.510555,4996,0
371087997,0.014348165,0.29157767,-0.03244045,4997,0,-0.42845172,-0.66278565,-10.702425,4997,0
371107982,0.039607506,0.26961696,-0.07483175,4996,0,0.0067101945,1.5016835,-8.726359,4996,0
371127967,-0.13659218,-0.11791306,-0.096509464,4996,0,-0.05437228,-0.6496131,-12.656893,4996,0
371147953,-0.19459601,-0.17059037,-0.04384401,4997,0,-0.61095595,0.53203434,-12.001725,4997,0
371167938,0.069695555,-0.17491604,-0.09087118,4996,0,0.4677669,-0.65151614,-9.148198,4996,0
371187924,0.5633985,-0.21608491,-0.040278714,4997,0,-0.34937918,0.0037653106,-10.053491,4997,0
371207909,0.4037924,-0.29035816,-0.04277986,4995,0,-0.4911549,-0.17234614,-9.823637,4995,0
371227894,0.15787348,-0.27499583,0.0031376688,4995,0,-0.38277885,-1.1221318,-10.725635,4995,0
371247880,-0.019453378,-0.17247716,0.042773716,4996,0,-0.55445987,-0.17985852,-9.916524,4996,0
371267865,-0.052505303,-0.21995217,0.024667257,4995,0,-0.08330034,-0.08480805,-9.502904,4995,0
371287852,0.12651706,-0.302287,0.10008585,4998,0,0.007739319,0.17153026,-8.652898,4998,0
371307836,0.32170478,-0.34511924,0.035909172,4995,0,-0.02707795,-0.16738497,-9.501776,4995,0
371327822,0.41491255,-0.18785723,0.04429702,4996,0,-0.4954965,-0.16473673,-9.377754,4996,0
371347807,0.45022818,-0.0816515,0.04492927,4996,0,-0.71192366,-0.1340312,-9.288014,4996,0
371367792,0.22432864,-0.102959394,-0.021271702,4995,0,-0.41284516,-0.5874486,-10.241509,4995,0
371387781,0.06158495,-0.10986434,0.0265683,5000,0,-0.592074,0.31207728,-8.953016,5000,0
371407763,0.15428981,0.07153499,0.03454491,4995,0,-0.15604654,-0.07850906,-9.7766,4995,0
371427750,0.37422365,0.22962981,-0.020198531,4997,0,-0.6895873,0.3399801,-9.156993,4997,0
371447734,0.5508087,0.18351488,-0.010793717,4996,0,0.40922278,0.221664,-11.256712,4996,0
371467720,0.23738872,-0.006845976,-0.018087763,4996,0,-0.55514115,0.17759302,-8.380542,4996,0
371487705,-0.059659302,-0.21851286,-0.00046197983,4996,0,-0.8162732,-0.31386703,-8.652339,4996,0
371507690,-0.069164515,-0.27929455,0.0063150846,4996,0,-0.2928692,0.15081908,-11.16772,4996,0
371527676,0.12288686,-0.07259341,-0.015086399,4996,0,-0.40545624,-0.26583934,-9.618079,4996,0
371547662,0.36907062,0.07724039,-0.053379152,4997,0,-0.46686706,-0.17030987,-9.287628,4997,0
371567647,0.3322267,0.18450436,-0.08471603,4997,0,-0.27918646,-0.68644226,-10.878393,4997,0
371587632,-0.069101006,0.056154627,-0.0047276607,4997,0,-0.63231885,-0.2810087,-9.203322,4997,0
371607618,-0.20413233,-0.24107821,-0.040718485,4994,0,0.47158328,0.16768101,-11.033316,4994,0
371627603,-0.11264471,-0.2490634,0.017395679,4996,0,-0.3621654,0.014279438,-9.604081,4996,0
371647588,0.099960916,-0.10544734,-0.044701535,4996,0,-0.5833135,-0.04672655,-9.40991,4996,0
371667574,0.199266,0.061613888,-0.004631163,4996,0,-0.4918277,0.028015396,-8.912769,4996,0
371687559,0.1297857,0.108698845,-0.047387067,4996,0,-1.1126889,-0.22751166,-9.415012,4996,0
371707545,-0.15050137,0.1832886,-0.04822585,4997,0,-0.41827264,-1.3619636,-10.432936,4997,0
371727530,-0.38333014,0.21338819,-0.051534772,4997,0,-0.9057894,-0.87743616,-9.275784,4997,0
371747515,-0.18587497,0.14678438,-0.052522488,4996,0,-0.45327395,0.1541572,-8.917924,4996,0
371767501,0.16047195,0.107616074,-0.06176428,4997,0,-0.22385241,-0.4649697,-9.379357,4997,0
371787486,0.0028253158,0.07696969,-0.07821876,4996,0,-0.69417876,-0.87661177,-9.150137,4996,0
371807472,-0.14768203,-0.028501105,-0.009527308,4995,0,-0.15799886,-0.91591245,-11.001219,4995,0
371827457,-0.23791301,-0.053317804,-0.060528394,4997,0,-0.4942558,-0.934722,-9.629082,4997,0
371847443,-0.08948163,-0.030788815,-0.014045022,4996,0,-0.21141677,-0.12583698,-9.758702,4996,0
371867428,0.19216461,0.03545377,-0.02479974,4996,0,-0.48429137,-0.2923508,-10.200244,4996,0
371887413,0.12127431,0.14084066,-0.043550283,4996,0,-0.52065766,-0.8382763,-9.007259,4996,0
371907399,0.15582766,0.17107911,0.0073689604,4996,0,-0.2828871,-0.2444838,-9.108515,4996,0
371927384,0.18082418,0.10106411,-0.07554658,4996,0,-0.31942943,0.20334618,-9.50739,4996,0
371947370,-0.06383658,0.06264297,0.024546184,4997,0,0.1704391,-0.24747367,-9.5558605,4997,0
371967355,-0.16754353,0.17194441,-0.0032097902,4996,0,-0.42464012,-0.5250247,-9.399865,4996,0
371987341,0.101947136,0.24147412,0.03693599,4997,0,-0.5560094,-0.041873462,-10.204357,4997,0
372007326,0.05112663,0.20820156,0.06426622,4995,0,-0.9402286,-0.26976326,-8.180153,4995,0
372027314,0.061984528,0.061060674,0.10967837,4999,0,0.40533984,-0.08053044,-9.883739,4999,0
372047296,-0.045257803,0.030614473,0.10582436,4996,0,-0.34096974,0.29561806,-8.529017,4996,0
372067282,-0.12336191,-0.070438385,0.10807723,4996,0,-0.088979244,-1.4666665,-11.23602,4996,0
372087267,0.004551402,0.020991541,0.12196255,4996,0,-0.7438097,-0.11704289,-9.284365,4996,0
372107253,0.30332693,0.0097023975,0.08880885,4997,0,0.0232686,0.8412026,-9.3352,4997,0
372127239,0.3101035,0.10152047,0.064274155,4997,0,-0.7390455,-0.0593279,-9.030589,4997,0
372147226,0.40182677,0.00770591,0.08267649,4999,0,-0.16881242,-0.073510684,-11.831501,4999,0
372167208,0.2774119,0.067499585,-0.014140406,4995,0,-0.08019993,0.42825133,-9.219486,4995,0
372187194,0.17933638,0.1939911,0.011816814,4996,0,-0.798013,0.8656387,-7.639915,4996,0
372207179,0.20138948,0.16484204,-0.07167023,4995,0,-0.83767885,0.60764503,-8.790532,4995,0
372227167,0.20681128,-0.07670403,-0.05865381,4998,0,-0.09068291,0.50907636,-11.199796,4998,0
372247150,0.002195599,-0.10013823,-0.07501993,4995,0,-0.5666463,0.70232993,-9.783729,4995,0
372267136,-0.3379022,0.023893882,-0.1584413,4996,0,-1.1077163,-0.7324153,-9.634551,4996,0
372287121,-0.4021733,0.08870314,-0.0696485,4996,0,-0.50046664,-0.30503538,-10.325295,4996,0
372307107,-0.26894978,0.104397655,-0.047081493,4995,0,-0.57836676,0.25544387,-9.696163,4995,0
372327092,-0.07076062,0.06604954,-0.08254614,4996,0,-0.34562838,-0.088707864,-10.520457,4996,0
372347078,-0.059659544,-0.059540827,0.016800357,4996,0,-0.89856076,0.12212691,-8.397928,4996,0
372367063,-0.03465681,-0.13740848,-0.045864813,4996,0,-0.14074701,0.2030341,-9.370883,4996,0
372387048,-0.3003309,-0.061525736,-0.017616833,4996,0,-0.84918135,-0.5365519,-9.157217,4996,0
372407034,-0.32831296,0.04142779,0.02473948,4995,0,-0.9663719,-0.022377104,-9.128686,4995,0
372427020,-0.2510546,-0.05638666,-0.045186657,4996,0,-0.3600826,-0.1594511,-10.132131,4996,0
372447005,-0.14532118,-0.05017868,-0.001833757,4995,0,-0.6763015,-0.46081495,-9.922285,4995,0
372466990,-0.11364086,0.05011939,-0.054316603,4996,0,-0.3341515,0.030317098,-8.951277,4996,0
372486975,-0.3181754,-0.016500827,-0.010379435,4996,0,-0.36004734,-0.45627052,-11.012845,4996,0
372506960,-0.5903167,-0.029032568,0.009505258,4995,0,-0.5330184,-0.080525525,-9.272587,4995,0
372526946,-0.55004245,-0.09704485,0.025490424,4996,0,-0.83197546,-0.45832482,-9.490243,4996,0
372546933,-0.10559021,-0.1527988,0.03715123,4997,0,-0.8429081,-0.23448296,-11.02818,4997,0
372566918,0.19929981,-0.12407744,0.026807982,4997,0,-0.44894534,-0.25674424,-9.118643,4997,0
372586902,-0.07481254,-0.017285932,-0.0007521756,4995,0,-0.8648455,-0.5883681,-8.949027,4995,0
372606888,-0.48533553,0.056751803,0.014065131,4995,0,-0.35934475,-0.79825866,-10.735126,4995,0
372626876,-0.84197354,-0.032559693,-0.02534029,4998,0,-0.37219548,-1.0131036,-7.984407,4998,0
372646859,-0.35240266,-0.18622495,-0.0033464122,4996,0,0.07111871,0.45245686,-9.176238,4996,0
372666845,-0.12083097,-0.06269096,-0.074422516,4996,0,-0.95710844,-1.6595571,-9.813952,4996,0
372686830,0.24239418,-0.12291015,-0.045375314,4996,0,-0.34126812,-0.30409744,-10.240506,4996,0
372706815,-0.09589588,-0.06328463,-0.051093046,4995,0,-0.27820632,-0.661467,-8.789902,4995,0
372726800,-0.27504644,-0.055230368,-0.048480827,4995,0,0.20236774,-0.488891,-9.82026,4995,0
372746787,-0.10038989,-0.095887735,-0.010939507,4997,0,-0.08315839,-0.44986343,-10.341442,4997,0
372766772,0.0005088787,-0.09634215,-0.051360074,4996,0,-0.054278195,-0.6203771,-8.780726,4996,0
372786756,0.2591986,-0.055180326,-0.053155217,4996,0,-0.03318661,-0.4135652,-10.195587,4996,0
372806742,0.14341056,-2.6908814e-05,-0.023342837,4996,0,0.027275017,-0.48552775,-8.950935,4996,0
372826728,-0.07126015,-0.0028926346,-0.073765665,4997,0,0.19680692,0.05297189,-8.661344,4997,0
372851709,-0.09090032,-0.051287845,-0.03717078,4994,0,0.066844925,-0.11236099,-10.18737,4994,0
372866699,-0.13186237,0.06420663,-0.06306522,4997,0,-0.19393456,-0.834621,-8.525386,4997,0
372886683,0.1410823,0.03544929,-0.073142685,4994,0,0.051434264,-0.030626027,-11.402917,4994,0
372906670,0.02922779,-0.0010983492,0.052197773,4996,0,-0.38082632,-0.47141984,-8.491543,4996,0
372926655,0.15539427,-0.088176034,0.0045908764,4995,0,-0.16732264,-0.15894884,-10.87959,4995,0
372946640,0.054659456,0.11321327,0.0617146,4997,0,-0.8366942,-0.34552777,-9.086183,4997,0
372966626,0.26256892,0.24657749,0.04341122,4997,0,-0.5117019,0.12663512,-9.960512,4997,0
372986611,0.29934248,0.16042513,-0.07179889,4997,0,-0.15917353,-0.6184066,-11.857448,4997,0
373006598,-0.026506813,0.0040167,-0.0049950173,4999,0,-0.5767676,-0.50565374,-8.939281,4999,0
373026582,-0.0031078528,-0.11939668,-0.018119616,4997,0,-0.37593108,-0.15586834,-10.980319,4997,0
373046569,0.07833176,-0.03622857,-0.060967967,4998,0,-0.3509163,-0.8906435,-10.786903,4998,0
373066553,0.10467468,0.16806205,-0.0004498913,4997,0,-0.85981065,-1.2053505,-9.596164,4997,0
373086538,0.24643923,0.14716412,-0.06332329,4997,0,-0.27254754,-0.39979053,-11.64871,4997,0
373106523,0.10572375,0.03217551,-0.02624361,4996,0,-0.9448525,-0.8030889,-9.1487875,4996,0
373131505,0.15695274,-0.0983658,-0.02129731,4996,0,-0.6229794,-0.5892252,-11.121558,4996,0
373146495,0.13032836,-0.011662422,-0.02195909,4997,0,-0.34655568,-0.45775133,-11.157734,4997,0
373166480,0.06873691,0.15507127,-0.036184233,4996,0,-0.2287518,-0.871211,-9.390053,4996,0
373191463,0.29981655,0.12125515,-0.009264373,4998,0,-0.5325418,-0.15565008,-10.379164,4998,0
373206451,0.23292032,0.09008308,-0.015068626,4997,0,-0.5294798,-0.54663324,-9.219406,4997,0
373226441,0.2505891,0.0158157,0.06513495,5002,0,-0.44374058,-0.35032254,-10.464542,5002,0
373246421,0.30959097,0.010465439,0.052766066,4996,0,-0.36701035,-0.1131986,-10.466564,4996,0
373271404,0.25274196,-0.07719427,0.0549984,4997,0,-0.4254185,-0.09733785,-10.156874,4997,0
373286392,0.20014794,-0.10898746,0.11585483,4997,0,-0.65122,-0.15622339,-9.609498,4997,0
373306378,0.4147645,-0.08416946,0.012544463,4996,0,-0.66952527,0.57828325,-9.33828,4996,0
373331359,0.3316016,0.023216287,0.0675412,4994,0,-0.6437951,-0.036478188,-9.285173,4994,0
373346349,0.26401496,0.047933582,0.13028273,4997,0,-0.41173804,0.5087729,-9.020235,4997,0
373366335,0.06889258,0.038902678,0.010482439,4998,0,-0.74454045,-0.1320403,-8.573482,4998,0
373386319,0.07446116,-0.024885982,0.10875746,4996,0,-0.42946932,-0.82968575,-11.234703,4996,0
373411301,-0.014407171,0.10090567,0.06897461,4996,0,-0.70066404,-0.7767938,-10.873164,4996,0
373426291,-0.14893863,0.14674526,0.06416537,4998,0,-1.066395,-0.29005265,-9.084297,4998,0
373446276,-0.05260335,-0.07235553,0.13270797,4997,0,0.36927238,0.674281,-10.422031,4997,0
373471257,-0.08035902,-0.17438903,0.0043298504,4994,0,-0.9788124,-0.25135753,-9.914297,4994,0
373491243,0.025784401,-0.0675176,0.047546465,4997,0,-1.0722777,-0.8081229,-11.091725,4997,0
373506236,0.14397688,0.11452512,0.059277024,5001,0,-1.0146846,0.18151142,-9.0904,5001,0
373526218,0.12963937,0.17875439,0.08163787,4997,0,-0.43351883,-0.22898674,-10.4020815,4997,0
373546203,-0.17789172,0.107743196,0.0066793174,4997,0,-0.1245975,0.21751922,-9.305572,4997,0
373566189,-0.38369066,0.084950306,0.0049823467,4998,0,-1.003693,-1.3921739,-9.235664,4998,0
373586174,-0.12421296,-0.093253724,0.08470191,4997,0,-0.24397588,-0.11883011,-10.642655,4997,0
373611156,0.15764846,-0.12536345,-0.060433157,4997,0,-1.1407411,-0.8463901,-9.769529,4997,0
373626144,0.19260229,-0.06506736,0.030642005,4996,0,-0.75294495,-1.8322408,-11.324429,4996,0
373646130,-0.034235936,0.03652348,0.03371746,4997,0,-0.9478178,-0.37745592,-7.978114,4997,0
373666115,-0.26319745,-0.054549158,0.019934086,4997,0,-0.47438595,-0.48205453,-9.028548,4997,0
373686101,-0.23244046,-0.11770296,0.016169613,4998,0,-1.0571358,-1.2528007,-10.523275,4998,0
373706086,0.22057,-0.12459987,0.05082147,4997,0,-0.15306763,0.099940106,-9.973251,4997,0
373726072,0.5296225,-0.059991952,-0.026828045,4997,0,-0.84833133,0.64320254,-7.9327803,4997,0
373751053,0.119598426,0.051720466,-0.062141746,4996,0,-1.3336515,-1.1499662,-9.236929,4996,0
373766043,-0.00019868829,-0.08342912,-0.023259982,4998,0,-0.33245736,-0.79809564,-12.249478,4998,0
373786029,-0.27609348,-0.06695413,0.0042762207,4998,0,-0.95814127,-0.30422428,-9.071376,4998,0
373806015,-0.021653268,-0.21442278,0.031788714,4999,0,0.10639736,-0.17711458,-8.990417,4999,0
373826002,0.16821261,-0.13484384,0.024134248,5000,0,-0.4454974,0.3649786,-7.7371335,5000,0
373845984,0.34520096,-0.12831019,0.014783996,4997,0,0.031706065,-1.1085383,-11.406579,4997,0
373865969,0.28560254,-0.19174142,-0.032117575,4996,0,-0.48069578,0.04916427,-9.359451,4996,0
373890951,0.041094515,-0.049027096,-0.07869073,4996,0,-0.9754917,0.29283667,-7.895675,4996,0
373905940,0.025377689,0.021019211,-0.11567401,4996,0,-0.97770834,-0.41743776,-11.035328,4996,0
373925926,-0.052736256,0.23865758,-0.0860164,4997,0,-0.66112816,0.7192437,-9.225264,4997,0
373945912,0.02577056,0.12544583,-0.0921681,4998,0,-1.000041,-0.42525482,-9.198744,4998,0
373965897,0.21855387,-0.18618506,-0.09422272,4997,0,-0.12700363,-0.24229966,-11.519487,4997,0
373985882,0.046295073,-0.23864132,-0.13698821,4997,0,-0.7108776,0.6620431,-7.4249196,4997,0
374005867,-0.19922702,-0.20155801,-0.022589885,4994,0,-0.8264952,-0.4614655,-9.310967,4994,0
374030851,-0.3571616,0.11551109,-0.07115869,4998,0,-1.2808751,0.13346805,-9.185187,4998,0
374050836,-0.22854324,0.084795274,-0.08818485,4998,0,-0.26712775,-0.12003522,-10.048151,4998,0
374065824,-0.32207963,0.030601492,-0.065612376,4997,0,-0.3836351,-0.50259626,-8.902254,4997,0
374085809,-0.19756763,-0.18537305,-0.051718675,4993,0,-0.19395567,0.6042077,-9.321555,4993,0
374105794,-0.2931455,-0.3097338,-0.07151031,4994,0,-0.1189408,-1.1804583,-10.070944,4994,0
374125780,-0.2913022,-0.25277466,-0.035869885,4997,0,-0.28318933,-0.26233217,-9.918591,4997,0
374145765,-0.23385158,-0.20702186,-0.02633088,4996,0,-0.65359837,-0.46525416,-9.885664,4996,0
374170747,-0.34482998,-0.049279943,0.011108778,4996,0,-0.5825256,-0.5986921,-9.412466,4996,0
374185736,-0.25543138,-0.02654858,0.0022419242,4996,0,-0.15692936,-0.1933262,-10.340063,4996,0
374205722,-0.33531326,0.07046142,0.056070186,4997,0,0.080920584,-0.7262386,-11.087797,4997,0
374230707,-0.2753623,0.13617471,0.048642147,5000,0,-0.8034698,-0.66773444,-9.700478,5000,0
374250689,0.32995227,-0.10649018,-0.008707988,4996,0,0.5526184,0.7966495,-10.165713,4996,0
374265678,0.20544931,-0.10928865,-0.020284215,4996,0,-0.38485003,-0.59280986,-9.418267,4996,0
374285663,0.16385834,-0.0278367,0.02412622,4995,0,-0.24864352,0.2057468,-10.064766,4995,0
374310645,-0.13390023,-0.109085314,-0.007148361,4996,0,-0.5937986,-0.053235304,-8.772495,4996,0
374330630,-0.08225991,-0.19300535,0.049854618,4996,0,-0.7786693,-0.8326018,-10.616386,4996,0
374345619,-0.004329215,-0.059911378,0.019493496,4995,0,-1.1997131,0.27385995,-9.513854,4995,0
374370601,0.08840685,0.09239735,-0.047672123,4996,0,-0.9500501,-0.4998975,-11.046408,4996,0
374390592,-0.113324516,0.28790852,0.022121204,5002,0,-1.1735039,0.14825274,-9.065101,5002,0
374405576,-0.22090282,0.23566592,0.042612858,4997,0,-0.7253991,-0.4422061,-11.044006,4997,0
374425561,-0.36757845,0.12771505,0.061616812,4996,0,-1.1141713,0.021569904,-8.186918,4996,0
374450542,0.15696578,-0.0077765053,-0.03224412,4995,0,-0.27745575,0.45295474,-11.002514,4995,0
374470529,0.26434934,0.09587321,0.008790201,4997,0,-1.0329313,0.111018,-9.216562,4997,0
374485518,0.28879234,-0.05973722,0.06739152,4997,0,-0.3524056,-0.24469037,-10.601727,4997,0
374510499,0.089050144,-0.15710574,-0.0075490805,4996,0,0.0630339,0.1595211,-11.262969,4996,0
374530484,0.008061755,-0.018438822,-0.043812253,4996,0,0.13960952,0.4608458,-10.176729,4996,0
374545475,-0.08149056,0.03177314,-0.005272942,4997,0,-0.4082915,-0.4260971,-9.820803,4997,0
374565459,-0.01419218,-0.062460594,-0.09885271,4997,0,-0.18878494,0.36119434,-11.661498,4997,0
374590440,0.10166816,0.021963654,-0.103538215,4995,0,-0.86398757,0.5448827,-9.337578,4995,0
374610426,0.10599368,0.08770121,-0.10736415,4996,0,-0.14120194,0.23792394,-10.586574,4996,0
374625417,-0.070560865,0.08715881,-0.09413688,4998,0,-0.22925584,0.559793,-8.300988,4998,0
374650397,-0.19515087,-0.038985424,-0.09587223,4996,0,-0.9581405,-0.0955321,-11.3026285,4996,0
374670384,-0.03742666,-0.0726936,-0.14948413,4997,0,-0.825408,0.06990804,-9.730723,4997,0
374685372,0.31624758,-0.10396848,-0.16599083,4997,0,-0.36274955,0.46437544,-10.444174,4997,0
374705358,0.3362792,-0.058096025,-0.16063891,4998,0,-0.12396,1.0414803,-8.529355,4998,0
374730339,-0.1394285,0.20983988,-0.14762594,4997,0,0.57655895,0.7894652,-10.304603,4997,0
374750325,-0.4366826,0.24793647,-0.15379769,4997,0,-1.0412071,-0.5145482,-12.012579,4997,0
374765314,-0.4127304,-0.10115638,-0.11693732,4997,0,0.5827882,0.42617702,-9.609311,4997,0
374790295,-0.07280349,-0.09459949,-0.11999805,4996,0,-0.88178873,-0.15759958,-10.696711,4996,0
374810281,-0.18147749,0.20103502,-0.074840836,4997,0,-0.1371531,-0.3582562,-10.043441,4997,0
374825271,-0.22518532,0.26079676,-0.04763022,4998,0,-0.14525832,0.30210578,-7.950294,4998,0
374845256,-0.28287587,0.28890136,-0.047016665,4996,0,-0.95140594,0.31046727,-10.736699,4996,0
374870238,-0.34270144,0.03654347,-0.0013156835,4998,0,-0.025548717,-0.27958125,-10.1338625,4998,0
374890224,-0.16104859,0.09718748,-0.0063592293,4998,0,-0.6396516,0.42687082,-10.291347,4998,0
374905214,-0.18116741,0.19752145,-0.00061387045,4999,0,-0.92978185,0.40502086,-8.842715,4999,0
374930194,-0.20841496,0.19956896,-0.048279863,4992,0,-0.38733596,-0.4935284,-10.908108,4992,0
374950187,-0.21392661,0.21745336,-0.025169712,5003,0,-0.39896128,0.34200987,-9.256384,5003,0
374965173,-0.35987386,0.18998536,0.018214881,5002,0,-0.16613783,-0.42068717,-9.794791,5002,0
374990149,-0.26363474,0.10015228,-0.051032543,4994,0,-0.37402678,-0.41978538,-9.728438,4994,0
375010136,-0.073408596,-0.03080129,0.050069217,4995,0,0.15504327,-0.21638906,-10.731057,4995,0
375030120,-0.09747827,-0.17191634,0.0076985294,4993,0,0.05763947,-0.810736,-9.924066,4993,0
375045112,-0.2989724,-0.1621402,-0.0032525419,4998,0,-0.048022427,-0.11123777,-8.06239,4998,0
375070092,-0.30676377,-0.06861863,0.0326248,4996,0,-0.1564874,-0.63275844,-10.241023,4996,0
375090076,-0.14941558,0.071999535,0.05129004,4995,0,-0.18021016,-0.50131136,-10.379484,4995,0
375105068,-0.14015213,0.08922141,0.03298005,4999,0,-0.30889595,-0.5753366,-9.153863,4999,0
375130047,-0.04070594,0.013495041,0.043467026,4995,0,-0.68703836,-0.03636499,-9.370484,4995,0
375150033,0.14810617,0.037267283,0.055319116,4994,0,-0.43948334,-0.04083119,-10.327461,4994,0
375170018,0.1063832,0.1857211,0.047018807,4991,0,-0.72921485,-0.1517801,-9.390217,4991,0
375185008,0.035132468,0.19239235,0.01133309,4997,0,-0.5879486,0.19115666,-8.424122,4997,0
375209990,-0.21872552,0.078212865,0.04456267,4996,0,-0.8097616,0.15640432,-8.726983,4996,0
375229974,0.16813487,0.039276503,0.027560154,4996,0,-0.49821764,-0.07530269,-11.202476,4996,0
375244965,0.1684233,0.26233986,0.021632332,4998,0,-1.0515125,-0.3079874,-9.968953,4998,0
375269949,0.278885,0.26409715,-0.08118278,4996,0,-0.19471839,-0.24727616,-10.628228,4996,0
375289932,0.21129301,0.18741967,-0.0818013,4996,0,-0.73646027,0.3496342,-8.816327,4996,0
375309917,0.12319352,0.0825534,-0.084057406,4996,0,-0.36798057,-0.19193564,-9.050988,4996,0
375324905,0.11621081,-0.048263352,-0.11362801,4996,0,0.49393633,0.780092,-9.502153,4996,0
375349887,0.009182187,-0.1673481,-0.12133467,4996,0,-0.61155957,-0.32699725,-8.5960045,4996,0
375369872,-0.1836401,-0.17572038,-0.12312769,4995,0,-1.4497116,-0.68534976,-10.972798,4995,0
375384862,-0.35171843,-0.21904919,-0.107918635,4997,0,-0.55220634,-0.6435411,-10.669815,4997,0
375409845,-0.151285,-0.09900274,-0.06973901,4997,0,0.28215656,0.7410693,-10.679963,4997,0
375429829,0.16197793,0.07011092,-0.028128473,4997,0,-0.4611296,0.6824017,-10.770451,4997,0
375444819,0.15198202,0.08265854,-0.032239065,4998,0,-0.4095058,-1.1845777,-8.246815,4998,0
375464805,0.198158,-0.11559212,-0.06885209,4998,0,-0.5989481,-0.9902153,-9.953645,4998,0
375489785,0.022673337,-0.14841478,0.024946814,4996,0,-0.4218936,-0.24127199,-11.678161,4996,0
375509771,0.080713935,0.03548152,0.0068748067,4997,0,-0.6493644,-0.51456684,-8.370211,4997,0
375524761,0.41243836,0.06381355,0.00021061125,4996,0,-0.51457703,0.35584787,-10.711771,4996,0
375549741,0.28078717,0.0691474,0.06171124,4996,0,-0.19149567,-0.3493117,-8.819942,4996,0
375569727,0.15077323,-0.16043158,0.023980558,4995,0,0.09526669,-0.6659801,-10.387903,4995,0
375584717,-0.014709029,-0.20296809,0.05638868,4997,0,-0.39845183,-0.37017915,-8.261515,4997,0
375604703,0.21732847,-0.2458093,0.058590773,4998,0,-0.3337637,-0.14363307,-10.132849,4998,0
375629684,0.36315867,-0.08551383,0.009100276,4996,0,0.07567456,-0.36017734,-9.483146,4996,0
375649669,0.2245923,-0.0045664855,-0.02515762,4996,0,-0.47713247,-0.40939042,-8.238866,4996,0
375664658,0.11546802,0.04064681,0.0049773073,4997,0,-0.37748966,0.15316068,-8.691992,4997,0
375689639,0.017159477,-0.052313287,0.029008973,4994,0,-0.80751497,-0.7702298,-9.844104,4994,0
375709624,0.1528326,-0.19624338,0.023044934,4994,0,-0.12630703,0.3023361,-10.910777,4994,0
375729610,0.29777637,-0.028748803,0.060525462,4996,0,-0.79856175,-1.1228145,-9.605605,4996,0
375744600,0.3452686,0.14346051,0.068729304,4998,0,-0.88079375,-0.5157382,-10.150177,4998,0
375769582,0.25098532,0.060515057,-0.002499401,4997,0,-0.43757084,-0.17910893,-10.581692,4997,0
375789566,0.0052803527,-0.09396856,0.09823751,4996,0,-0.49044102,-0.9408907,-9.263936,4996,0
375809553,0.16845272,-0.07024723,0.08064951,4995,0,-0.89973545,0.37851563,-10.075321,4995,0
375829537,0.3815347,-0.004147636,0.000343765,4994,0,-0.4508905,-0.68147427,-10.578982,4994,0
375849522,0.22805412,0.16386557,0.0020967422,4996,0,-0.67690486,-0.69993913,-8.673048,4996,0
375869508,0.13237703,0.15950994,0.011667619,4996,0,0.08574095,0.0014263421,-10.641494,4996,0
375889493,0.085746616,-0.027717067,0.011558367,4996,0,-0.2922064,-0.67065847,-10.052887,4996,0
375909478,0.36825103,-0.19899558,-0.048841298,4992,0,-0.3207468,0.98627573,-9.644765,4992,0
375929464,0.46778518,-0.18000612,-0.014151422,4994,0,-0.47494376,-1.0011915,-9.939811,4994,0
375949449,0.18071422,0.010856416,-0.051456228,4995,0,-0.5156752,-1.1364368,-11.300182,4995,0
375969435,-0.051676158,0.07419433,-0.054081574,4996,0,0.36014947,0.10284317,-10.325172,4996,0
375989420,-0.19888495,0.05757471,0.038629256,4996,0,-0.8878671,-0.8282282,-8.401579,4996,0
376009405,0.25284976,-0.1338805,0.0043217265,4993,0,-0.27915144,-0.60988927,-10.585702,4993,0
376029391,0.4387199,-0.2595687,0.026056027,4995,0,-0.57163095,0.06415551,-10.263074,4995,0
376049377,0.43821016,-0.25670606,-0.0007842029,4996,0,0.06880298,-0.3045753,-9.860549,4996,0
376069363,0.087878466,0.024605168,0.040530343,4995,0,-0.9386145,-0.3144443,-8.73566,4995,0
376089347,-0.17059702,0.27260482,0.07886743,4995,0,-0.5369348,-0.9305863,-9.311138,4995,0
376109334,0.09424628,0.2572491,0.07591258,4997,0,-0.81929547,0.3782415,-10.751137,4997,0
376129318,0.45507884,0.24607861,0.12300867,4995,0,-0.42938897,-0.79863894,-10.112685,4995,0
376149304,0.76167345,-0.11098544,0.14149402,4996,0,-0.5868677,-0.15989122,-10.064509,4996,0
376169289,0.36267677,-0.31475905,0.09356233,4996,0,0.29794583,-0.5134028,-10.6333065,4996,0
376189274,-0.15983741,-0.10539806,0.065922104,4995,0,-0.45628166,-0.21356753,-10.173807,4995,0
376209260,-0.29470235,0.15172948,0.085000426,4995,0,-0.75947666,-0.37660596,-9.34934,4995,0
376229245,0.23244447,0.30272982,-0.013563496,4994,0,0.32578582,0.86176497,-9.815333,4994,0
376249231,0.36794773,0.3089846,0.034535732,4992,0,-0.8233494,-1.5495566,-10.239748,4992,0
376269217,0.472585,0.07511732,0.07441653,4997,0,0.2647408,-0.70381385,-11.691068,4997,0
376289202,0.07721427,-0.1540808,-0.028315522,4996,0,-0.5637297,-0.7983166,-8.623407,4996,0
376309187,-0.11766275,-0.2224318,0.03385552,4997,0,-0.95821834,-0.36680996,-8.4217205,4997,0
376329173,0.061256748,0.029242283,0.02030169,4996,0,-0.5635827,-0.44780067,-10.973895,4996,0
376349158,0.14049043,0.2953023,-0.050234348,4995,0,-0.79157776,-0.43171826,-9.109915,4995,0
376369143,0.29416734,0.15660837,-0.028833456,4995,0,0.077749975,-0.31941637,-11.532197,4995,0
376389129,0.28063923,-0.0657869,-0.13013141,4997,0,-0.82475847,0.21520337,-9.581128,4997,0
376409115,0.037439194,-0.25661817,-0.1186067,4997,0,-0.72331065,-1.1361438,-11.344092,4997,0
376429100,-0.20900024,-0.10492962,-0.11924566,4996,0,-0.79423916,0.36251003,-9.560219,4996,0
376449086,-0.24901867,0.0631409,-0.11097903,4998,0,-0.48640475,0.14874493,-9.48493,4998,0
376469070,-0.018033637,0.11365885,-0.12104229,4995,0,-0.81278414,-0.052795526,-10.468685,4995,0
376489056,0.10996131,-0.0032943198,-0.09724712,4997,0,-0.3758584,-0.076065525,-9.741745,4997,0
376509043,0.10318633,-0.13100582,-0.13310525,4997,0,-1.1980543,-1.2509446,-10.985885,4997,0
376529027,-0.33482343,-0.0585251,-0.05290806,4996,0,-0.314201,-0.69654596,-9.294336,4996,0
376549012,-0.51929003,-0.06093012,-0.03436171,4996,0,-0.59441626,0.5594442,-8.859498,4996,0
376568998,-0.40084624,-0.14336112,-0.061019674,4996,0,-0.4250799,0.0054132245,-9.374131,4996,0
376588983,-0.23443736,-0.16794643,0.01701867,4996,0,-0.49505368,-0.6234029,-9.102474,4996,0
376608968,0.031905472,-0.06546133,-0.043825556,4994,0,-0.431244,-0.40048462,-9.4326935,4994,0
376628954,-0.10694258,0.094867535,0.033554304,4997,0,-0.08471441,-0.5548908,-8.2058525,4997,0
376648939,-0.27569762,0.095841706,0.038499855,4995,0,-0.102237195,-0.30544877,-9.078924,4995,0
376668924,-0.32952425,-0.073094115,-0.008507903,4996,0,-0.04254282,-0.965225,-10.883521,4996,0
376688910,-0.21827653,-0.13873734,0.10502967,4996,0,-0.777643,-0.40020913,-9.427691,4996,0
376708896,-0.03225469,-0.006723854,0.018349249,4996,0,-0.3279069,0.18357241,-8.762881,4996,0
376728881,-0.018042982,0.008322637,-0.005059575,4997,0,-0.22125018,-0.49964306,-10.046177,4997,0
376748868,-0.16968556,0.0062481454,0.013499157,4997,0,-0.19472282,0.21857136,-8.675649,4997,0
376768852,-0.17848663,-0.15361948,0.04245342,4997,0,0.033825587,-0.5057749,-11.531859,4997,0
376788837,-0.24565531,-0.09185673,-0.010786571,4995,0,-0.24759795,-0.01967636,-9.060195,4995,0
376808823,-0.15590073,-0.016204067,0.010521766,4996,0,-0.47671795,-0.19224836,-9.944491,4996,0
376828808,-0.35495743,0.026843918,0.052657213,4995,0,-0.20146342,-0.7534278,-9.930104,4995,0
376848795,-0.3169652,-0.030970259,0.04499279,4997,0,-0.51285297,0.1821761,-9.055759,4997,0
376868779,-0.08366277,-0.09786268,0.016718818,4997,0,-0.56712335,-0.30106816,-10.9120035,4997,0
376888764,-0.014517889,0.005677414,-0.01852845,4995,0,-0.5583932,-0.12851734,-9.664716,4995,0
376908750,-0.033693887,0.05113948,-0.011287693,4992,0,-0.5910972,0.326668,-9.8447485,4992,0
376928735,-0.3433677,0.07072649,-0.055388637,4996,0,-0.884364,0.32233804,-8.40229,4996,0
376948721,-0.3097765,0.0034752842,-0.03515524,4995,0,-0.53070533,0.39657584,-10.73987,4995,0
376968706,-0.4632415,0.068343945,-0.013755078,4996,0,-0.77885365,-0.3663429,-8.922283,4996,0
376988692,-0.34548157,0.02491225,-0.024444794,4997,0,-0.84322464,0.16829184,-8.610033,4997,0
377008681,-0.1910043,-0.09019271,-0.032536678,5000,0,-0.321214,0.05890603,-10.560119,5000,0
377028662,-0.31974992,0.041520897,-0.047919106,4996,0,-0.72316515,-0.5090793,-9.579578,4996,0
377048648,-0.4423636,0.1542819,-0.01825634,4996,0,-0.4812161,-0.08180975,-8.673273,4996,0
377068635,-0.2006254,0.13520004,-0.077614576,4996,0,-1.1530279,0.28931826,-10.248828,4996,0
377088618,-0.14568831,0.025735637,-0.093298964,4995,0,-0.023968896,-0.7251594,-9.89574,4995,0
377108604,-0.21970102,-0.20058177,-0.09280118,4995,0,-0.4622082,0.15505154,-9.433551,4995,0
377128589,-0.5391344,-0.28507742,-0.0393226,4996,0,0.5522011,-0.391319,-8.629899,4996,0
377148576,-0.76155204,-0.03160185,-0.022916915,4996,0,-0.6973299,-0.51191396,-8.500993,4996,0
377168560,-0.22343107,0.23273751,-0.015351613,4995,0,-0.331175,-0.05318466,-10.625258,4995,0
377188545,0.24405354,0.3842677,0.010740977,4995,0,-0.59919596,0.3344614,-10.97903,4995,0
377208531,0.48787457,0.14954196,-0.049652915,4994,0,0.393216,-0.5902443,-11.439919,4994,0
377228517,0.10367912,-0.29645503,-0.07628141,4996,0,-0.043139648,0.22345674,-10.351172,4996,0
377248501,-0.25232083,-0.6125885,0.07832217,4996,0,0.40421665,0.7367333,-7.6331854,4996,0
377268487,-0.16779928,-0.38864124,-0.013418839,4996,0,-1.2126518,0.48394954,-9.81227,4996,0
377288472,-0.07567862,0.022613619,0.017423276,4996,0,0.092170656,0.3143547,-10.914123,4996,0
377308458,0.03485464,0.29058793,-0.0372399,4996,0,-0.48145187,0.53152686,-8.050238,4996,0
377328443,0.034761075,0.4198414,-0.023857508,4995,0,-0.8502656,0.33484158,-10.179613,4995,0
377348429,-0.12423121,0.2256608,-0.07991911,4995,0,-0.79092133,0.2330104,-10.298272,4995,0
377368414,-0.35973614,0.043970436,-0.12855127,4996,0,0.19118983,-0.52174765,-11.442282,4996,0
377388399,-0.3782574,0.06942232,-0.035949532,4996,0,-0.3789216,0.937078,-9.627255,4996,0
377408385,-0.37479448,0.191465,-0.019641634,4996,0,-0.2824698,-0.07062707,-8.840677,4996,0
377428371,0.057951875,0.06504624,0.019724643,4997,0,-0.38582128,0.3834751,-12.108629,4997,0
377448356,0.15613067,0.05413723,0.04822757,4996,0,-1.0383631,0.7405214,-9.229118,4996,0
377468342,0.14736964,0.024599507,0.077779934,4997,0,0.023525316,-0.13279857,-12.132075,4997,0
377488327,-0.106060356,0.1978281,-0.04426377,4996,0,-1.1190081,0.6679408,-10.384566,4996,0
377508313,-0.2872587,0.30668387,-0.014436395,4997,0,-0.996661,1.0677981,-8.625281,4997,0
377528298,-0.39251658,0.10239289,-0.10990594,4996,0,-1.4035106,0.5888925,-8.650136,4996,0
377548283,-0.54053956,-0.31938624,-0.10314513,4995,0,-0.6403761,0.27776468,-11.485083,4995,0
377568269,-0.48325008,-0.3227299,-0.06468784,4992,0,-0.4228182,-0.60604346,-9.007951,4992,0
377588258,-0.16211581,-0.19075745,-0.13996805,5000,0,-0.7942622,0.7704491,-11.119376,5000,0
377608240,-0.2564107,-0.044443797,-0.08106105,4995,0,0.041283265,-0.64992774,-7.6626096,4995,0
377628225,-0.14973126,-0.063402176,-0.035053205,4996,0,-0.15094286,0.68821675,-9.046711,4996,0
377648210,-0.3127048,-0.09736731,-0.036533967,4996,0,-0.022569358,-0.34670475,-7.765157,4996,0
377668195,0.124317266,-0.25463024,-0.05033389,4996,0,-0.49643943,-0.058712132,-9.850868,4996,0
377688181,-0.14436951,-0.11511177,-0.05434187,4993,0,-0.72593683,-0.82490504,-9.133577,4993,0
377708166,-0.27679393,-0.0208687,-0.060526635,4990,0,-0.16992274,0.036493655,-10.140911,4990,0
377728152,-0.24855354,0.033077743,-0.09055398,4997,0,-0.2622406,0.20215967,-9.006424,4997,0
377748137,0.034582607,-0.008377404,-0.09311572,4996,0,0.11937595,0.39574978,-9.795406,4996,0
377768123,0.08444878,-0.14987266,-0.061246637,4997,0,-0.68260384,-0.91045374,-7.3653164,4997,0
377788111,0.23407754,-0.13084963,-0.11764394,4999,0,-0.92084414,-1.08938,-10.505119,4999,0
377808094,0.058209147,0.004104563,-0.016164556,4997,0,0.30124646,0.64999884,-8.306929,4997,0
377828080,0.014649951,0.1794364,-0.052683827,4997,0,-1.3523505,-0.816412,-10.223581,4997,0
377848066,-0.10771012,0.037452146,0.031962793,4998,0,-0.77836967,0.030979788,-10.471782,4998,0
377868050,0.14885414,-0.04294101,0.035175193,4997,0,-0.42521846,-0.21199779,-8.225491,4997,0
377888035,0.36925983,-0.050532784,-0.054532405,4996,0,-0.24847998,0.24154636,-10.338456,4996,0
377908020,0.06184504,-0.1169691,0.12018774,4994,0,-0.12380608,-0.46474448,-7.890917,4994,0
377928006,0.16446419,-0.115813985,0.06206948,4996,0,-0.9608337,-0.31767896,-11.024587,4996,0
377947993,0.10418633,0.019875694,-0.011099787,4998,0,-0.8640417,-0.5982044,-9.420022,4998,0
377967977,0.38887155,0.25563133,0.0064190417,4996,0,-0.90516526,-0.16077133,-11.191074,4996,0
377987962,0.21854623,0.23946548,0.07311532,4996,0,-0.3055597,-0.23943563,-9.550397,4996,0
378007948,-0.03127059,0.07153809,0.030955935,4996,0,-0.12171901,0.5310687,-10.167095,4996,0
378027933,0.08165111,-0.03194532,-0.0026684264,4996,0,-0.7361312,-1.3099943,-9.960615,4996,0
378047918,0.43247187,-0.15024737,0.07323582,4996,0,-0.28853464,0.9622649,-11.181132,4996,0
378067905,0.35747105,-0.039150055,-0.031213395,4997,0,-0.6115085,-0.45219183,-8.590637,4997,0
378087889,0.46457678,0.0012030149,-0.015468554,4996,0,-0.477779,0.6179438,-9.519753,4996,0
378107876,0.3195248,0.06000377,-0.0014909843,4997,0,-1.1743957,-0.2017601,-8.453145,4997,0
378127860,0.4908667,0.11145914,0.012172,4996,0,-1.1139302,-0.072917506,-11.288035,4996,0
378147846,0.33495143,0.13097501,-0.043147013,4996,0,-0.9414684,-0.92011005,-10.1883545,4996,0
378167831,0.49473697,-0.007836536,0.027408853,4996,0,-0.115224384,0.6251986,-11.205356,4996,0
378187816,0.51071954,-0.105919465,0.012576963,4996,0,-0.17537035,0.120021805,-7.722611,4996,0
378207803,0.547875,-0.095833994,-0.0067371572,4997,0,-1.6055588,0.0599418,-10.184129,4997,0
378227789,0.31389484,0.01097674,0.01828963,4998,0,0.1629108,-0.25618762,-10.964513,4998,0
378247773,0.1664855,0.15849,-0.012550699,4996,0,-1.4034019,-0.16046402,-7.397185,4996,0
378267766,0.3819511,0.29797482,0.007674463,5003,0,-0.65715,0.7526718,-11.937504,5003,0
378287745,0.23014353,0.07588308,0.011193464,4997,0,-0.4752948,-0.7638801,-10.033469,4997,0
378307729,0.72373766,-0.19755955,-0.028898071,4995,0,-0.08092166,0.78482413,-9.973206,4995,0
378327714,0.7109069,-0.20528889,-0.016181838,4995,0,0.32105383,0.035174526,-9.032683,4995,0
378347701,0.13806987,0.12693171,-0.009915117,4996,0,-1.718981,-0.6093651,-10.784354,4996,0
378367686,-0.16127107,0.055716246,0.00595562,4997,0,-0.25114346,0.41718993,-9.234712,4997,0
378387671,-0.26733622,0.2840101,-0.06727258,4997,0,-0.90699124,-0.66418636,-9.5250635,4997,0
378407663,0.3124903,0.109812565,-0.025646206,5001,0,-0.833643,-0.060132533,-10.955887,5001,0
378427642,0.5079265,0.021013197,0.007307499,4996,0,-0.83415735,0.106677175,-12.115575,4996,0
378447627,0.14516363,-0.1982897,0.034538563,4996,0,0.167497,-0.36701712,-10.459189,4996,0
378467615,0.25743645,-0.25360173,0.04565865,4998,0,-0.9313244,1.0731289,-8.706473,4998,0
378487598,0.3038636,-0.05384468,-0.050323173,4996,0,-1.2484194,-0.7923826,-11.146034,4996,0
378507583,0.3882239,-0.005288054,0.057855617,4995,0,0.50524276,0.7729451,-10.067472,4995,0
378527569,0.21568818,0.17968406,0.029483348,4996,0,-1.4069515,0.008843669,-9.916491,4996,0
378547557,-0.17134148,-0.0054991725,0.025499921,4996,0,-0.5157509,-0.70605963,-11.551296,4996,0
378567540,-0.0690151,-0.18564753,0.12583452,4994,0,0.24709053,0.3316751,-10.566678,4994,0
378587526,0.33852637,-0.20699926,0.032974426,4997,0,-0.5087648,0.46138507,-9.754506,4997,0
378607511,0.485023,-0.09998223,-0.056015838,4996,0,-0.300236,0.5523308,-8.348172,4996,0
378627496,0.16544534,0.065743245,-0.01981284,4996,0,-0.93066376,-1.369664,-12.947274,4996,0
378647482,-0.18221538,0.04679848,0.021229377,4997,0,0.22375628,0.7685053,-7.2792916,4997,0
378667467,-0.24856934,0.092115186,-0.04833709,4996,0,-0.5109258,-0.6826376,-11.778738,4996,0
378687452,0.0017731444,0.036733765,-0.0355653,4996,0,-0.037634205,0.49335554,-10.171929,4996,0
378707439,0.06600682,0.09275332,0.025330266,4998,0,0.29863352,0.43283138,-9.120477,4998,0
378727423,0.26395768,0.0046786717,0.025956696,4996,0,-0.5930368,-0.1233722,-10.261941,4996,0
378747409,0.020679416,0.22409427,-0.060067177,4995,0,-1.1804495,-0.26111472,-9.902694,4995,0
378767395,-0.23929457,0.06018578,-0.008205228,4997,0,0.70996857,-0.25011912,-10.628011,4997,0
378787379,-0.32013676,-0.029607793,0.0014624763,4996,0,0.46189532,0.9250341,-9.012165,4996,0
378807365,-0.11254716,-0.15988092,-0.06327271,4995,0,-0.6853922,-0.5112608,-10.056531,4995,0
378827351,-0.099008694,-0.19163048,-0.0022350263,4997,0,-0.57208467,-0.5711254,-10.706146,4997,0
378847336,-0.07386958,-0.19529226,0.03542663,4997,0,0.13148728,0.8926155,-8.94179,4997,0
378867321,-0.35439572,0.2771093,0.010962467,4996,0,-1.6069314,-0.81168413,-10.275964,4996,0
378887307,-0.41838974,0.30258358,-0.014521072,4997,0,0.25120163,0.17766538,-10.195716,4997,0
378907294,-0.19032924,0.11881171,0.019057818,4998,0,0.019392638,-0.12271067,-9.653818,4998,0
378927277,0.34978643,-0.00044490176,0.020962702,4995,0,0.14857014,0.30232656,-10.234309,4995,0
378947264,0.25229165,-0.13334836,-0.06857774,4997,0,-0.022014057,0.92653877,-7.403522,4997,0
378967250,-0.2827866,0.004556663,-0.0078122728,4998,0,-1.5349183,-1.4055104,-10.447098,4998,0
378987234,-0.5163025,0.03627545,0.020415828,4996,0,0.23994246,1.3610694,-7.9274817,4996,0
379007220,-0.39835614,0.106762834,-0.014662193,4997,0,-0.40164828,0.049690135,-8.9653015,4997,0
379027205,0.13921323,-0.06501168,-0.08610985,4997,0,-0.36759555,0.65323734,-10.519073,4997,0
379047192,0.11852478,0.0001462302,-0.069259025,4998,0,-0.5942558,-0.7893466,-10.926497,4998,0
379067175,-0.13572891,-0.022101834,-0.02687802,4996,0,0.32379776,0.73935676,-7.1869364,4996,0
379092161,-0.4764417,0.10814185,-0.052091368,5000,0,0.8623365,0.36215615,-10.5631485,5000,0
379107147,-0.5492866,0.062454354,-0.054702897,4996,0,-0.20753701,0.18734364,-8.213099,4996,0
379127132,-0.19995932,0.07688373,-0.099535294,4996,0,-0.95953506,-0.51954305,-11.680826,4996,0
379147117,-0.039078616,-0.008818529,-0.04441712,4995,0,0.7588274,0.3546284,-8.820452,4995,0
379167103,-0.1531022,0.06364868,-0.049102098,4997,0,-1.5528823,-1.0672169,-10.045167,4997,0
379187088,-0.25903195,-0.06600177,-0.0057321866,4996,0,0.7762218,0.70961654,-8.394759,4996,0
379207073,-0.24779816,0.21780403,-0.059820686,4996,0,-1.2614621,-0.8531417,-10.95609,4996,0
379227059,-0.033860713,0.018540492,0.015699869,4997,0,0.5095962,1.028242,-9.078621,4997,0
379247045,-0.052460894,0.2156008,-0.05279462,4996,0,-1.6707044,-1.154837,-10.596221,4996,0
379267030,-0.2586597,0.13113093,-0.06131946,4997,0,0.5692077,0.8440164,-8.715857,4997,0
379287015,-0.67251456,0.18199262,-0.014374733,4996,0,-1.3290018,-1.5031154,-10.844033,4996,0
379307001,-0.46962252,-0.006904747,0.014001642,4997,0,0.4218546,1.131401,-9.926142,4997,0
379326986,-0.14824924,0.055495843,-0.038543776,4997,0,-0.7842768,-0.29058015,-7.9726157,4997,0
379346972,0.20377412,0.07628876,-0.05564785,4997,0,-0.48714456,0.14018579,-10.077926,4997,0
379366958,-0.18150187,-0.13009481,-0.024420759,4997,0,0.5605845,-0.10696992,-10.6110325,4997,0
379386943,-0.7209981,-0.11663444,-0.025619004,4997,0,-1.7515193,-1.4430153,-7.949829,4997,0
379406928,-0.49381217,-0.09277659,0.01755956,4996,0,0.4848861,0.88171715,-9.014622,4996,0
379426913,-0.2064244,0.24731438,-0.027615372,4996,0,-1.5244938,-0.69929355,-9.553075,4996,0
379446898,0.187468,0.34618667,-0.03170651,4996,0,-0.6389583,0.08047247,-11.458877,4996,0
379466884,0.31594142,0.10387401,-0.0715105,4996,0,0.13501465,0.64013696,-9.772171,4996,0
379486870,-0.1829195,-0.11542516,-0.09426323,4997,0,-1.2743951,-0.80947167,-9.293271,4997,0
379506856,-0.35732156,-0.43379787,0.011942309,4998,0,1.1234326,1.903197,-10.742206,4998,0
379526841,-0.5599191,-0.04528277,-0.10599911,4997,0,-1.3738253,-0.7832568,-11.914364,4997,0
379546826,-0.10684801,-0.04859728,-0.046906568,4997,0,-0.20509514,1.0435236,-8.560971,4997,0
379566812,-0.008827385,0.108341716,-0.07270436,4997,0,-0.33684987,-0.61934453,-11.096888,4997,0
379586797,0.1257147,-0.037874416,-0.046859216,4997,0,-0.8727842,0.06558448,-9.3070965,4997,0
379606783,-0.2862538,-0.07879439,0.0469159,4997,0,0.75527525,0.5295437,-9.858826,4997,0
379626768,-0.39366472,0.09280659,-0.06317569,4997,0,-1.4492193,-0.6051702,-12.215302,4997,0
379646753,-0.45197427,0.038510617,0.042723067,4997,0,0.15935847,0.027874274,-8.870648,4997,0
379666739,0.05054543,-0.077942446,-0.02978318,4997,0,-0.31782386,0.3489586,-10.002756,4997,0
379686724,0.04579764,-0.094506174,-0.0655334,4996,0,-0.938707,-0.5706028,-9.981957,4996,0
379706710,0.029743297,-0.11988918,-0.058914714,4997,0,0.42720494,-0.15049492,-10.358709,4997,0
379726696,-0.22090495,0.04617153,0.007642329,4998,0,-0.94310963,-0.54749805,-8.265016,4998,0
379746680,-0.16759178,-0.1273801,-0.043856584,4996,0,1.0480062,0.45488065,-9.908491,4996,0
379766666,-0.3103371,-0.18614694,-0.031463742,4997,0,-0.37015605,-0.48960304,-8.168183,4997,0
379791648,0.06263336,-0.23006132,-0.027579524,4992,0,0.1277738,-0.48576215,-9.673301,4992,0
379806637,0.51201093,-0.23067334,-0.021445153,4997,0,0.10682111,1.2649059,-8.576449,4997,0
379826621,0.2245999,0.2582841,-0.07998421,4995,0,-0.72061026,-1.6656013,-11.130914,4995,0
379846607,-0.4003563,0.2938714,0.06789776,4996,0,-1.1803322,-1.4216441,-6.481906,4996,0
379866593,-0.28007865,0.21690206,-0.01586917,4997,0,0.53981906,0.8509969,-11.279505,4997,0
379886578,0.23691306,-0.017094867,0.031747498,4996,0,0.078701936,1.0837579,-9.6545,4996,0
379906564,0.75739104,-0.07189759,-0.0066493494,4997,0,0.05342687,0.13473229,-8.229648,4997,0
379931545,0.26034296,0.13737212,-0.01826143,4996,0,-0.6707113,-1.3728256,-11.676769,4996,0
379946534,-0.3017343,0.037659492,0.015237083,4996,0,0.69230455,0.7567194,-8.01553,4996,0
379966520,-0.63886315,0.07969213,0.047119085,4996,0,-0.52610654,-0.79500246,-10.293654,4996,0
379991501,0.029867014,-0.088823244,0.035879545,4996,0,-0.59968305,-0.41468838,-8.567899,4996,0
380006492,0.6066991,-0.07164925,-0.006151022,4997,0,-0.38943323,0.42113203,-10.255431,4997,0
380026477,0.4924902,0.0078071766,-0.014180832,4998,0,0.23164564,0.62542266,-8.202523,4998,0
380046462,0.2544739,0.01916466,-0.0083181085,4997,0,-1.7388116,-1.4774748,-11.70391,4997,0
380071443,-0.11298375,-0.10403795,0.06813022,4995,0,0.037651885,0.5144972,-7.514517,4995,0
380086434,-0.068948075,-0.019455958,0.014818087,4998,0,-1.2667282,-0.80608773,-11.8306675,4998,0
380106418,0.14627273,0.1103145,-0.012488723,4996,0,0.055181567,-0.22889622,-10.531294,4996,0
380131399,0.27250963,-0.008601465,0.044421468,4995,0,0.12998258,0.40999267,-8.450295,4995,0
380146388,0.2998138,-0.013970857,-0.046319626,4996,0,-0.3202294,0.7793729,-9.278085,4996,0
380166374,-0.0055574216,0.025948547,0.013036241,4996,0,-1.2441027,-0.40084568,-12.452887,4996,0
380186359,0.12261496,-0.12851124,0.030096116,4996,0,-0.26207533,-0.9224928,-9.345846,4996,0
380211342,0.5064282,-0.041504163,-0.015260188,4996,0,-0.76645315,-0.41217422,-8.1549835,4996,0
380226330,0.4103551,0.19340637,-0.046922404,4996,0,-0.8364681,-0.28593957,-10.87741,4996,0
380246316,0.14983842,-0.12716174,0.05690433,4996,0,0.5673595,-0.27371028,-10.360758,4996,0
380271298,-0.039003693,-0.2818093,0.015692705,4997,0,-0.6534646,-0.4009719,-11.633597,4997,0
380286287,-0.09935535,-0.20336069,0.025254382,4996,0,-0.43974093,-0.5926731,-10.29295,4996,0
380306272,0.46567824,-0.11034333,0.008560458,4996,0,-0.13086964,-0.19072156,-11.046306,4996,0
380326258,0.6347393,-0.036490504,0.021068135,4997,0,-0.2765461,0.8669156,-9.196214,4997,0
380346245,0.3568515,0.15609989,-0.047369972,4998,0,-1.4025091,-1.1999067,-9.698886,4998,0
380366236,0.017123707,-0.18331465,0.025965456,5004,0,0.7678382,0.3296225,-10.412736,5004,0
380386215,-0.25230715,-0.01248627,0.04382976,4997,0,-0.89915395,-1.0521256,-7.962096,4997,0
380411195,0.33549476,-0.071175866,-0.041075297,4994,0,-0.6818061,-0.62506473,-10.35337,4994,0
380426185,0.6868716,-0.13236567,-0.01273842,4997,0,-0.7549343,0.24591422,-11.402584,4997,0
380446170,0.6944563,-0.17775121,-0.032532346,4996,0,0.23828904,0.17463106,-9.557834,4996,0
380466156,0.005393257,0.07917207,-0.0113336,4997,0,-1.7067714,-0.8817316,-11.018717,4997,0
380486141,-0.22094136,-0.15186504,0.006548417,4994,0,-0.43335822,0.889243,-9.655602,4994,0
380506127,-0.097584836,-0.027021892,-0.022372354,4996,0,-0.40560207,0.06408577,-10.446704,4996,0
380526112,0.24903467,-0.004665967,-0.045266435,4997,0,-0.081628524,-1.3009695,-9.019478,4997,0
380551093,0.3900682,-0.25001106,-0.03539715,4996,0,0.36181882,-0.5773863,-9.13236,4996,0
380566084,0.38602152,-0.35515493,-0.013064976,4998,0,-0.2625487,0.4596116,-8.573835,4998,0
380586068,-0.08159638,-0.12992448,-0.021524023,4996,0,-0.02304828,-0.5222738,-10.770764,4996,0
380611050,0.06109933,0.03303995,-0.02484473,4996,0,-1.0070224,-0.83398527,-11.583848,4996,0
380626039,0.078902096,0.068859644,0.00966263,4997,0,0.15750204,-0.4291601,-9.376467,4997,0
380646025,0.49477443,-0.15999034,-0.025068438,4996,0,0.3608014,0.58843035,-9.716946,4996,0
380666011,0.18343075,-0.124473564,-0.0001327363,4998,0,-1.144945,-1.3876247,-11.173991,4998,0
380690991,0.12814201,-0.20360641,0.039934237,4994,0,-0.05630163,0.02581128,-8.269453,4994,0
380705981,0.10065881,0.0681809,-0.036446292,4997,0,-0.7435349,-1.0496739,-11.585647,4997,0
380725966,0.34133407,-0.018544944,0.010063692,4997,0,0.24869303,1.3835105,-9.029641,4997,0
380750948,0.19440006,0.16724479,-0.020839082,4997,0,-1.1557622,-1.0483863,-11.341362,4997,0
380765937,-0.015020766,-0.11198956,-0.0038787897,4997,0,1.0985322,0.302421,-9.662418,4997,0
380785924,0.03144857,-0.13845465,-0.013341749,4998,0,-1.2484369,-0.5599117,-11.2080965,4998,0
380805908,0.043208834,-0.17994592,-0.0052823,4997,0,0.15479858,-0.38478053,-9.266338,4997,0
380825894,0.2750008,0.019035863,-0.007530426,4997,0,-1.3566036,-0.75274426,-9.744183,4997,0
380845880,0.27471516,0.23157437,-0.03056655,4996,0,0.68402034,0.5382921,-10.244437,4996,0
380865864,-0.009870847,0.43875498,-0.046425868,4996,0,-1.5449448,-1.4153836,-9.402199,4996,0
380890846,0.15499236,0.13683566,0.020181,4997,0,0.52483153,0.76350904,-10.860135,4997,0
380910831,-0.009539973,0.007234834,-0.02896295,4993,0,0.06736347,-0.55237454,-8.356353,4993,0
380925821,0.0039820825,-0.16400352,-0.053020645,4997,0,-0.36974084,-0.30129138,-10.729115,4997,0
380950802,-0.16959772,-0.33629236,-0.010093314,4993,0,0.0127090905,0.14011294,-7.7215295,4993,0
380970787,-0.3112461,0.13580109,0.0444323,4993,0,-0.25270507,-0.79441166,-11.730586,4993,0
380985783,-0.08927001,0.19721122,0.0075999317,5003,0,0.2971374,0.9126125,-8.361813,5003,0
381005764,0.16719082,0.3853536,-0.060311563,4998,0,-0.8334457,-0.9594861,-10.209788,4998,0
381030745,-0.0178139,0.12849946,0.021522788,4996,0,0.38170758,0.058583632,-9.681852,4996,0
381050730,-0.049811833,-0.08677479,0.008929687,4995,0,-0.03492572,0.014604316,-8.793258,4995,0
381065718,-0.23801918,0.09293429,0.00072896684,4996,0,-0.95863944,-1.2275509,-9.549202,4996,0
381090701,-0.071061954,0.18834087,0.032944005,4997,0,0.49018928,0.3183322,-10.31187,4997,0
381110686,0.10302579,0.1876035,0.009651921,4996,0,-0.23781921,-0.48017713,-8.958221,4996,0
381125676,-0.07578948,0.2921148,0.022808395,4997,0,-1.2696779,-1.0334731,-8.768861,4997,0
381145661,-0.26188284,0.275498,0.04515551,4997,0,-0.47436544,-0.62403184,-10.500617,4997,0
381170642,-0.26226702,0.09653571,-0.024488112,4996,0,0.36476314,-0.32929415,-9.860471,4996,0
381185635,-0.2037871,0.08174163,0.049296454,5001,0,-0.1619536,-0.5671275,-8.625241,5001,0
381205618,0.068706594,0.065026455,-0.053390592,4998,0,0.04597842,-0.13392878,-8.694645,4998,0
381230598,-0.10223515,0.13947922,-0.008992259,4994,0,-0.7387081,-0.7684634,-9.548676,4994,0
381250584,-0.26005143,0.03637663,-0.013958321,4995,0,0.22574095,-0.29605106,-8.955212,4995,0
381265573,-0.18746383,-0.023355033,-0.028741047,4997,0,0.71080935,0.7445781,-8.404666,4997,0
381285559,-0.16949557,0.17948006,-0.044602178,4997,0,-1.1723865,-0.87055326,-9.565268,4997,0
