timestamp,gyro_rad[0],gyro_rad[1],gyro_rad[2],gyro_integral_dt,accelerometer_timestamp_relative,accelerometer_m_s2[0],accelerometer_m_s2[1],accelerometer_m_s2[2],accelerometer_integral_dt,accelerometer_clipping
406384607,-0.00062353705,-0.00059882755,-0.011462819,4995,0,-0.064897224,-0.059980035,-9.832096,4995,0
406389603,-0.0021951876,-0.0007616104,-0.010902833,4996,0,-0.05856377,-0.08890031,-9.8582735,4996,0
406409587,-0.0033433298,-0.0006597405,-0.012122961,4996,0,-0.07425348,-0.12152551,-9.849716,4996,0
406424577,-0.0004557014,-0.00016284033,-0.011668746,4997,0,-0.09574731,-0.08104649,-9.825544,4997,0
406449558,-0.004149971,-0.004516411,-0.0035179227,4994,0,-0.033808652,-0.18050964,-9.980805,4994,0
406469544,0.016076716,-0.0017880624,0.028783936,4997,0,-0.051640842,-0.08605736,-10.057273,4997,0
406489528,-0.0047421674,0.004762519,-0.042326175,4996,0,-0.15586467,-0.118758306,-9.630749,4996,0
406509513,-0.0066453763,0.0025121362,-0.0007955329,4996,0,-0.03591768,-0.15709944,-9.587762,4996,0
406529498,0.002202695,-0.0021988207,-0.013118081,4996,0,-0.14837201,-0.103806265,-9.880038,4996,0
406549485,-0.006499315,0.001125595,-0.019798633,4997,0,-0.03664935,-0.050851528,-9.635565,4997,0
406564473,-0.000516794,-0.002096919,-0.012118734,4996,0,0.02743216,0.003992409,-9.699051,4996,0
406589454,0.021588022,-4.3064036e-05,-0.015392248,4996,0,-0.16645443,0.07876757,-10.179676,4996,0
406609439,0.0021533223,-0.002168012,-0.011348468,4996,0,-0.052554205,-0.07957573,-9.863462,4996,0
406629425,-0.013755125,0.0032771013,-0.010137378,4995,0,-0.14364243,-0.21888383,-9.800605,4995,0
406644414,0.003438647,0.00014332622,-0.0073916316,4996,0,-0.14945129,0.04816761,-9.891397,4996,0
406669395,0.0013985832,-0.0046931948,-0.005148024,4996,0,-0.03491312,-0.0005669486,-9.932839,4996,0
406689380,0.0076676356,0.0037778562,-0.026048554,4995,0,-0.07062513,-0.07556401,-9.943068,4995,0
406704369,-0.0033505682,-0.003809905,0.0061771073,4996,0,-0.08148347,-0.08693079,-9.927257,4996,0
406729352,0.0043506795,-0.00033949423,-0.012164559,4997,0,-0.1778471,-0.0093999095,-9.961393,4997,0
406749336,-0.008828825,-0.006817348,-0.024803322,4993,0,-0.093799084,-0.096105896,-9.70267,4993,0
406769322,-0.0060604597,-0.002587845,-0.013698142,4996,0,-0.2045456,-0.14165136,-9.65786,4996,0
406789307,0.009667993,-0.008480351,-0.024372265,4995,0,-0.05535454,0.19328445,-10.116001,4995,0
406809292,0.0033236854,-0.0054283855,-0.020195955,4992,0,0.059706014,0.1605224,-9.951517,4992,0
406829278,-0.019680858,-0.002208008,-0.027133899,4995,0,-0.2332352,-0.04867789,-9.777219,4995,0
406844268,0.0068372483,0.014807821,-0.016755397,4998,0,-0.08288873,-0.2262541,-9.748502,4998,0
406869248,0.0064158645,-0.005805184,-0.00854892,4994,0,-0.077666394,0.69975364,-10.4997635,4994,0
406889233,0.03709797,0.015605601,-0.0028406733,4994,0,0.6936598,1.1981225,-10.630809,4994,0
406909221,-0.021570226,0.0007475762,-0.02199368,4995,0,-0.579942,0.70811486,-9.9024,4995,0
406929208,0.0207559,0.009421582,0.00495649,4996,0,0.12577969,0.5182801,-9.699317,4996,0
406949189,-0.027617736,0.025425684,-0.0314688,4997,0,-1.1827875,-1.3793504,-9.423321,4997,0
406969174,0.028425576,0.0022219317,0.0012426496,4995,0,0.9740887,2.796137,-9.923614,4995,0
406984163,0.022487152,0.002353698,0.016424531,4996,0,0.54234964,2.368927,-10.412001,4996,0
407009144,-0.025137814,0.0041097268,-0.059266105,4996,0,-1.0860581,1.1190751,-10.10061,4996,0
407029130,0.009514036,0.002368181,0.011076752,4995,0,0.6107881,2.6672685,-9.932728,4995,0
407049115,-0.0065157604,-0.0063843126,-0.011711773,4996,0,-1.8798591,-2.9470074,-9.895114,4996,0
407069100,-0.076348506,-0.017130166,-0.07802739,4994,0,0.57736725,2.3513236,-10.217162,4994,0
407089086,0.026641494,-0.013702428,0.04428725,4995,0,0.21695271,0.16484274,-9.853362,4995,0
407109072,-0.037121747,-0.018814556,0.0051050624,4996,0,-0.024192877,-3.1932087,-9.691248,4996,0
407124061,-0.0036252926,-0.008177385,-0.06867916,4997,0,-0.45838577,-2.9026365,-9.239057,4997,0
407149043,0.061842266,0.0033735146,0.1453317,4996,0,1.4774909,0.13065717,-9.715296,4996,0
407169026,-0.0013193871,0.0005302445,-0.08847678,4996,0,-0.7276042,-3.9908507,-9.315377,4996,0
407189012,0.005282535,-0.0012672512,-0.06584558,4995,0,0.37985876,2.8886817,-9.795198,4995,0
407208997,0.08232326,0.022642393,0.15716256,4995,0,0.028081123,-0.09167999,-10.2657585,4995,0
407228982,-0.022036117,-0.008461738,-0.217789,4996,0,-1.3504965,-1.8005761,-9.546307,4996,0
407248967,0.03525059,0.007476525,0.13457249,4995,0,-0.60839003,2.9616547,-10.465507,4995,0
407263956,-0.099014804,-0.00056811917,-0.20530424,4995,0,0.069224186,2.6676276,-9.917105,4995,0
407288938,-0.054437973,-0.027129777,-0.13370508,4997,0,-1.3166649,-2.2863305,-9.625107,4997,0
407308923,-6.755192e-05,-0.008208606,0.15353027,4995,0,0.11248133,1.8065983,-10.483487,4995,0
407328908,-0.0009563806,-0.0022266428,-0.18508475,4996,0,0.9600792,0.6859773,-9.637801,4996,0
407348894,-0.00864445,-0.017536325,0.16714512,4997,0,-0.740919,-3.575481,-9.8189945,4997,0
407368879,-0.08986982,-0.02247694,-0.17792821,4997,0,0.20280401,1.1231676,-9.614606,4997,0
407388864,0.06848722,0.0032607,0.049458046,4995,0,1.5272782,0.18415962,-9.647126,4995,0
407408850,0.01510186,-0.014473135,0.14227866,4996,0,-0.2377686,-2.703432,-10.169642,4996,0
407428835,-0.07916845,0.010971135,-0.34718293,4997,0,-0.20507483,0.21468797,-9.135964,4997,0
407448822,0.10778205,0.021417156,0.39415094,4999,0,1.1280031,0.2714622,-9.983078,4999,0
407468805,-0.02847933,-0.019478671,-0.3293577,4996,0,0.26462755,-2.9410586,-8.750326,4996,0
407488790,0.037105925,0.038635723,0.19239166,4995,0,-0.5290189,1.2514706,-9.817849,4995,0
407508776,0.027809178,0.014546255,-0.05074469,4995,0,0.83174527,1.2707223,-10.200226,4995,0
407528761,-0.013387568,-0.011217959,-0.15375479,4997,0,-1.0953722,-3.7235172,-9.0402355,4997,0
407548746,0.03993616,0.0381171,0.2646391,4997,0,-0.20062014,1.5324228,-10.281683,4997,0
407568732,0.023572933,0.011711632,-0.30962852,4994,0,0.46271637,2.2616146,-9.626286,4994,0
407588717,0.042243853,0.0022764876,0.3719925,4996,0,-1.710276,-2.1627648,-10.283844,4996,0
407608702,-0.091345675,0.004275724,-0.4893453,4995,0,-1.3959517,1.957789,-9.534969,4995,0
407628687,0.13592382,0.0065810294,0.39511457,4996,0,0.97510153,0.74752504,-10.283334,4996,0
407648673,-0.009707323,-0.012080762,-0.21244629,4997,0,-1.4374436,-1.1491647,-10.10183,4997,0
407668658,-0.04967496,0.01255102,-0.04093501,4997,0,-1.894017,3.3597255,-10.103836,4997,0
407688645,0.051482476,-0.014772268,0.1633912,4999,0,0.42398083,0.35254428,-10.94806,4999,0
407708628,-0.035361692,-0.048114263,-0.3552703,4997,0,-1.2700026,-1.852173,-9.226282,4997,0
407728613,0.051093575,0.01825761,0.4480308,4996,0,-0.364422,1.7316357,-10.60895,4996,0
407748598,-0.0665943,-0.012901923,-0.46609735,4996,0,0.60081184,2.2959676,-9.834901,4996,0
407768583,-0.022065647,-0.018025449,0.4147835,4995,0,-1.1591402,-2.102158,-9.898879,4995,0
407788569,-0.1178703,-0.02099629,-0.4753667,4996,0,0.21504189,-0.34617427,-9.946679,4996,0
407808555,0.11034713,0.004992913,0.3684896,4997,0,1.3989927,0.61725783,-9.669757,4997,0
407828539,-0.03172833,-0.036255006,-0.14709818,4996,0,-0.06897324,-1.8617437,-10.1365,4996,0
407848524,-0.057292625,0.001224364,-0.10766382,4996,0,-1.1350284,0.49250546,-10.061934,4996,0
407868510,0.028147109,-0.00097246515,0.21363594,4997,0,1.6574022,-0.44755244,-9.894954,4997,0
407888496,-0.01210414,-0.041525148,-0.32492727,4995,0,0.9222961,-3.0624733,-8.832459,4995,0
407908480,0.06332921,0.027026778,0.43929186,4996,0,-0.3377461,-0.6032495,-10.380613,4996,0
407928465,-0.09292537,0.00842348,-0.5263947,4996,0,1.1881527,3.4394655,-9.733142,4996,0
407948451,0.08072433,-0.0072399485,0.5132421,4996,0,0.5982442,-2.362401,-9.699856,4996,0
407968436,-0.07147543,-0.013448045,-0.53511703,4996,0,-0.2820719,-3.3848662,-8.977308,4996,0
407988421,0.11343662,0.0316033,0.44653115,4996,0,0.0030247788,3.3788111,-9.891515,4996,0
408008406,-0.017595664,0.016775724,-0.24892049,4994,0,1.5393387,0.464229,-9.980518,4994,0
408028391,-0.0068257926,-0.016910722,0.046980407,4995,0,-1.7982397,-3.1600626,-9.6484585,4995,0
408048378,0.0315533,0.0221686,0.012751145,4997,0,-0.45635375,0.0005678503,-9.913049,4997,0
408068363,0.032125466,0.039804906,-0.13654572,4997,0,1.2413378,3.3057537,-9.263701,4997,0
408088347,0.071192,-0.00024535455,0.35314748,4996,0,-0.036912255,-1.6072836,-10.639758,4996,0
408108332,-0.10738374,-0.01093358,-0.6026641,4995,0,-2.7526672,-0.92615104,-9.097097,4995,0
408128319,0.0863031,0.022142377,0.64081025,4996,0,0.6378881,1.7938374,-10.349877,4996,0
408148304,0.005663376,0.02702099,-0.60962653,4997,0,1.0392901,2.4417326,-9.3255,4997,0
408168288,0.046480846,-0.020070978,0.5909158,4996,0,-1.67906,-1.1710172,-10.244391,4996,0
408188273,-0.09704956,-0.0062340507,-0.54297376,4995,0,-1.4046683,-1.4889063,-9.378161,4995,0
408208259,0.063642696,0.037049778,0.3001056,4996,0,0.07857546,2.6039834,-10.338603,4996,0
408228244,0.028402926,-0.009765537,-0.058034092,4996,0,0.12809624,1.3992282,-10.704895,4996,0
408248230,-0.03663285,-0.04439294,-0.15539794,4996,0,-1.6278316,-1.2972895,-9.585563,4996,0
408268215,0.017689835,0.00039989673,0.22643991,4996,0,-0.6324544,-1.0188665,-10.881432,4996,0
408288200,-0.07279831,0.026528325,-0.36750525,4996,0,-0.24877043,3.8728669,-9.43128,4996,0
408308186,0.049977586,-0.040399365,0.39818737,4996,0,1.7364429,0.6917337,-10.463464,4996,0
408328173,0.010951698,-0.057250217,-0.33100316,4999,0,-0.100500226,-1.9420775,-9.949924,4999,0
408348156,-0.035166707,-0.011946673,0.15356734,4996,0,-2.129681,-1.6257477,-9.970899,4996,0
408368141,-0.06432423,0.008377437,-0.104066305,4994,0,-0.40134075,0.8544912,-10.028277,4994,0
408388128,0.018559247,-0.009699781,-0.08437726,4998,0,2.1317344,1.6691213,-9.98431,4998,0
408408112,0.01603943,-0.019955613,0.24785991,4995,0,0.84589154,-0.7972437,-10.076954,4995,0
408428097,-0.07308309,-0.048679836,-0.338328,4997,0,-1.0093354,-2.8355684,-9.139338,4997,0
408448083,0.0007772707,0.02105869,0.25379473,4997,0,-0.1428625,-0.87133765,-10.173728,4997,0
408468068,-0.057106636,0.018665278,-0.2530198,4997,0,0.87415063,1.4059141,-9.807789,4997,0
408488053,0.06932663,-0.026786054,0.17020345,4997,0,2.5197124,1.4165571,-9.44875,4997,0
408508037,0.010792205,-0.026332906,0.035721987,4995,0,1.1958227,-2.2050686,-9.868298,4995,0
408528023,-0.024301387,-0.031729225,-0.19924885,4996,0,-1.1590384,-3.710782,-9.462067,4996,0
408548008,0.010718908,0.0071598114,0.18710698,4991,0,-1.065011,-0.82829165,-9.688874,4991,0
408567993,-0.080280825,0.04522614,-0.2720963,4996,0,1.2418913,1.2475061,-9.67306,4996,0
408587978,0.07245993,0.021046335,0.25369117,4995,0,2.2363925,1.2495937,-9.754174,4995,0
408607965,0.025769176,-0.020053975,-0.09414021,4996,0,1.305205,-1.2409747,-9.376121,4996,0
408627949,-0.0022491957,-0.0088238735,-0.024264624,4996,0,-1.3468746,-2.1767602,-9.603511,4996,0
408647934,-0.0077166613,0.024504444,0.052491233,4996,0,-1.4897454,-1.6593732,-9.79528,4996,0
408667919,-0.035794057,0.0511101,-0.24502806,4996,0,-0.8088784,1.0366794,-9.845413,4996,0
408687905,0.056876242,0.027935222,0.24393967,4997,0,0.86837715,2.4025831,-9.7080555,4997,0
408707890,0.031685308,0.001804742,-0.17937684,4994,0,1.4202428,1.9624996,-9.515547,4994,0
408727875,0.043892156,-0.01446805,0.12874265,4996,0,-0.013665192,-1.3862234,-9.97754,4996,0
408747863,0.020124217,-0.0058337175,-0.045384344,4999,0,-2.4919097,-1.8187745,-9.874167,4999,0
408767846,-0.04831041,0.0061255065,-0.18025158,4996,0,-2.6611505,-0.09818423,-9.950889,4996,0
408787831,-0.023097487,0.030636296,0.16817173,4996,0,-0.36105824,1.6106573,-10.181104,4996,0
408807816,-0.019727414,0.024971338,-0.2230072,4993,0,0.92236674,2.599248,-10.140485,4993,0
408827801,0.04660193,-0.030948123,0.23336294,4996,0,0.8797341,1.4741616,-9.981171,4996,0
408847786,0.0058045043,-0.05779696,-0.08822319,4995,0,-0.04169312,-0.78635365,-9.880869,4995,0
408867772,-0.036030747,-0.03426663,-0.036182366,4992,0,-1.2778587,-2.5926082,-10.085262,4992,0
408887757,-0.033836015,-0.0075729396,0.057916317,4994,0,-1.3714123,-2.5780115,-10.14433,4994,0
408907743,-0.092457086,0.025932578,-0.2772426,4996,0,-0.8889794,-0.2642252,-9.415856,4996,0
408927728,0.0040846765,0.017024487,0.2475304,4996,0,1.4964926,0.75386584,-9.992534,4996,0
408947714,-0.03766624,0.018684158,-0.20083538,4997,0,2.7108476,1.7081175,-9.3625145,4997,0
408967699,0.05847294,0.0016630156,0.17150138,4991,0,2.3511236,0.042116713,-9.680384,4991,0
408987684,0.037267704,-0.03817771,0.028556222,4996,0,0.9311131,-1.1022297,-9.580836,4996,0
409007669,0.011689243,-0.020766564,-0.14819455,4996,0,-1.2708855,-2.5926247,-9.19735,4996,0
409027656,0.04471403,0.014644167,0.19118321,4998,0,-1.8034862,-1.8069078,-10.32107,4998,0
409047641,-0.08124255,0.04316802,-0.34712443,4998,0,-1.4249172,-0.67713916,-9.502329,4998,0
409067625,0.036482938,0.05868478,0.24000631,4995,0,-0.05532554,1.6734276,-10.11607,4995,0
409087611,-0.0013272701,0.04030405,-0.2120369,4997,0,0.8627199,2.831037,-9.911055,4997,0
409107595,0.07659857,-0.023619624,0.11055486,4997,0,1.24674,2.7644281,-9.79472,4997,0
409127581,0.034207333,-0.021234702,0.11699584,4994,0,0.85982054,0.25233525,-9.996048,4994,0
409147567,-0.007798035,-0.044019353,-0.21882135,4998,0,-1.255152,-1.2055676,-9.385349,4998,0
409167551,0.012751544,-0.017877514,0.25882044,4996,0,-2.342147,-1.9274753,-10.6083975,4996,0
409187536,-0.10335699,0.014922484,-0.4161342,4996,0,-2.7472117,-0.71406513,-9.484185,4996,0
409207521,-0.0040709497,0.016349675,0.28577816,4996,0,-0.5651959,1.1263586,-10.113518,4996,0
409227506,-0.06737682,-3.2823926e-05,-0.21689786,4995,0,1.4477441,2.1227987,-10.099105,4995,0
409247493,0.020965647,-0.026178302,0.110673115,4997,0,2.413905,1.6900305,-9.8845625,4997,0
409267477,0.045195922,-0.045004193,0.082680665,4995,0,1.5506359,0.06346083,-10.464638,4995,0
409287462,-0.022951456,-0.069304004,-0.19285333,4996,0,-0.48740733,-1.6535884,-9.27346,4996,0
409307447,0.008806779,-0.04130323,0.2667003,4995,0,-1.2359143,-3.1614773,-10.370123,4995,0
409327433,-0.12189073,-0.008943417,-0.41124126,4996,0,-1.7150214,-2.0314882,-9.613898,4996,0
409347419,-0.0069624675,0.031607643,0.3139758,4996,0,0.3552465,-0.2851424,-9.77309,4996,0
409367404,-0.10213032,0.024491118,-0.34361258,4995,0,1.5306617,1.1645951,-9.836692,4995,0
409387389,0.05783337,0.013524972,0.25269002,4995,0,2.48344,1.1546195,-9.629192,4995,0
409407377,0.007897556,-0.0014929777,-0.06421558,4998,0,2.4517071,0.72622955,-9.572792,4998,0
409427359,0.0334542,-0.060018323,-0.018998645,4996,0,0.8696913,-0.5975385,-9.363646,4996,0
409447344,0.059981626,-0.041605566,0.22259375,4994,0,0.59269565,-2.9500976,-10.01748,4994,0
409467330,-0.059924506,-0.022411814,-0.36754397,4996,0,-1.231406,-2.983669,-9.099273,4996,0
409487315,0.050114576,0.06274235,0.36854345,4996,0,-1.3907077,-1.7696644,-9.718802,4996,0
409507300,-0.10214993,0.05441294,-0.5087824,4995,0,-0.90680313,-0.25551394,-9.513897,4995,0
409527285,0.0632404,0.03857602,0.3992243,4993,0,0.69741327,1.516909,-9.691829,4993,0
409547271,-0.046105586,0.03697527,-0.33049268,4997,0,1.6610398,2.2556825,-9.387134,4997,0
409567256,0.09766514,-0.018769143,0.26832744,4993,0,1.737418,1.557565,-9.721363,4993,0
409587241,0.066425815,-0.017310876,-0.03543682,4995,0,1.9021307,0.8599991,-10.016251,4995,0
409607227,0.049392752,-0.048846338,-0.05721228,4997,0,-0.19066717,-0.63927835,-9.29057,4997,0
409627212,0.08871855,0.0074013867,0.23326473,4997,0,-1.0196882,-1.7784361,-10.434417,4997,0
409647198,-0.03906675,-0.020872097,-0.42565322,4994,0,-2.6993918,-1.9523414,-9.370998,4994,0
409667182,0.06935972,0.046333153,0.43455294,4996,0,-2.8862987,-1.1827499,-10.723132,4996,0
409687167,-0.116199434,0.022544388,-0.61565584,4996,0,-2.3291323,-0.7493522,-9.034737,4996,0
409707153,0.047353573,0.06409407,0.4994249,4997,0,-1.1730766,0.87851125,-10.660804,4997,0
409727138,-0.11441115,0.059132446,-0.555381,4993,0,-0.6785523,1.0954134,-9.656196,4993,0
409747123,0.027618773,0.05642089,0.3920542,4995,0,0.699501,2.2665775,-9.679094,4995,0
409767109,-0.03672355,0.058124956,-0.32931113,4995,0,0.7152942,2.8259053,-10.266594,4995,0
409787094,0.062932,0.0020438584,0.13588317,4996,0,0.8366215,2.3899255,-9.684358,4996,0
409807079,0.024153218,0.0022953812,0.03212751,4993,0,1.4352291,2.5599306,-10.651693,4993,0
409827065,0.017099753,-0.033915065,-0.13244754,4996,0,1.2251233,2.5997732,-9.063869,4996,0
409847049,0.09053937,-0.023405625,0.33841425,4996,0,2.015718,1.730364,-10.995182,4996,0
409867035,0.013878682,-0.04768783,-0.34701523,4997,0,0.38267273,1.3597624,-9.132648,4997,0
409887021,0.10465396,-0.03351806,0.46291625,4997,0,0.31216452,0.63700354,-10.73194,4997,0
409907005,0.026941793,-0.047178734,-0.39335278,4996,0,-0.56870425,0.8755383,-9.252648,4996,0
409926990,0.10130284,-0.058095824,0.3721297,4996,0,-1.582967,-0.7909877,-10.293388,4996,0
409946977,0.022057215,-0.053570606,-0.20398833,4997,0,-0.99695295,-1.2556286,-9.634537,4997,0
409966961,0.025461007,-0.035378203,0.057891026,4996,0,-2.5940883,-1.041038,-10.019324,4996,0
409986946,0.041826088,-0.011416729,0.06315798,4996,0,-1.5796604,-2.1941001,-10.106787,4996,0
410006932,-0.013811607,-0.0051800967,-0.24061577,4996,0,-2.8738964,-1.6402302,-9.615554,4996,0
410026917,0.054971073,0.021559024,0.26341647,4997,0,-3.0305433,-1.7692076,-10.457029,4997,0
410046903,-0.033357162,0.0009554257,-0.35840246,4997,0,-2.9089103,-1.810541,-9.531893,4997,0
410066888,0.034595262,0.014046932,0.19892241,4997,0,-3.6369922,-1.6376389,-10.651741,4997,0
410086873,-0.022425199,0.020001503,-0.19435611,4995,0,-3.1586373,-1.9878817,-10.016792,4995,0
410106858,-0.020290483,0.020218631,-0.032282047,4995,0,-3.2824256,-1.3462923,-9.939602,4995,0
410126843,0.006733663,0.041144677,0.0511542,4996,0,-2.342038,-1.5853789,-10.159373,4996,0
410146830,-0.06375509,0.06199398,-0.2746461,4998,0,-2.554421,-0.83053935,-9.651999,4998,0
410166816,-0.01110691,0.047550783,0.18238302,4999,0,-2.4715283,-1.1264135,-10.103487,4999,0
410186800,-0.055466928,0.06843358,-0.31070673,4995,0,-2.5485134,-1.1562679,-9.738817,4995,0
410206785,-0.011401931,0.053502005,0.066763245,4998,0,-2.9278438,-1.6894314,-10.134882,4998,0
410226769,-0.018127099,0.042907476,-0.0773701,4996,0,-2.9734554,-1.5980304,-10.184365,4996,0
410246755,-0.04369507,0.031185832,-0.15855274,4997,0,-3.427369,-1.6932648,-9.6378975,4997,0
410271736,-0.0030463033,0.09506033,0.16642952,4996,0,0.3267774,1.404355,-9.902173,4996,0
410286725,-0.06518286,-0.0017660183,-0.28732428,4995,0,-3.2410865,-2.0316947,-9.756781,4995,0
410306714,-0.008732205,0.010297504,0.17087501,5000,0,-2.8940382,-2.1301947,-10.144797,5000,0
410326696,-0.042931445,-0.012302459,-0.17047524,4997,0,-2.2611063,-2.3300123,-10.314837,4997,0
410346682,-0.01598969,-0.015755147,-0.0071117263,4996,0,-2.5122697,-1.6177531,-9.908473,4996,0
410366666,0.023605838,-0.017876083,0.080777206,4995,0,-2.3575845,-2.1422243,-10.595723,4995,0
410386652,0.003608694,-0.06896016,-0.19450693,4997,0,-2.186507,-1.6914042,-9.998654,4997,0
410406636,0.07303146,-0.08118095,0.28032574,4994,0,-1.7218281,-1.4394007,-10.442471,4994,0
410426626,0.011580407,-0.10456158,-0.208285,5001,0,-0.51158875,-0.016095053,-10.11486,5001,0
410446608,0.05002876,-0.10345955,0.2405532,4996,0,-0.27434355,0.5571517,-10.097799,4996,0
410466592,0.013293856,-0.11922757,-0.015697444,4995,0,1.5559429,0.8830628,-10.33818,4995,0
410486578,-0.0078744255,-0.09469231,-0.014196606,4995,0,1.4588535,1.470419,-9.628947,4995,0
410506563,0.027315395,-0.06751392,0.223095,4996,0,3.3187947,1.2693815,-10.120557,4996,0
410526548,-0.02886203,-0.03640183,-0.24075839,4995,0,3.106536,1.9064456,-9.4477625,4995,0
410551531,0.064929955,-0.09965175,0.19992137,4996,0,-0.41548628,0.4094865,-9.866895,4996,0
410566518,-0.09437068,0.007159546,-0.25597367,4994,0,3.077464,1.4487259,-9.5795,4994,0
410586504,-0.02044809,0.039570533,0.09567164,4996,0,2.994557,0.9036838,-9.4130125,4996,0
410606489,-0.076715626,0.06705567,-0.09952033,4993,0,1.9907689,-0.73220503,-9.482955,4993,0
410626474,-0.07102799,0.07232129,-0.19115789,4995,0,1.0041128,-0.98749566,-9.315146,4995,0
410646460,-0.011324455,0.08760074,0.14591368,4997,0,-0.08477654,-2.3754702,-9.9203615,4997,0
410666445,-0.092571825,0.06403576,-0.36624905,4995,0,-1.2712221,-2.3099813,-9.202336,4995,0
410691430,-0.054651387,0.06619299,0.088282555,5000,0,1.3222806,0.8581102,-9.5314045,5000,0
410706421,-0.034769308,-0.003054965,-0.28260761,5000,0,-2.0989976,-3.0821378,-9.779481,5000,0
410726401,0.03473968,-0.018758588,0.14113367,4997,0,-2.0309002,-3.0594893,-9.735156,4997,0
410746388,0.04840209,-0.042000685,0.008766824,4997,0,-1.2754157,-2.7945285,-9.905622,4997,0
410766372,0.034112845,-0.07017004,-0.07290853,4996,0,-1.1659044,-1.093778,-9.461017,4996,0
410786363,0.058979493,-0.076446354,0.30978888,5002,0,0.35639176,-0.8912666,-10.284917,5002,0
410806347,-0.010258543,-0.087328866,-0.25683323,5002,0,0.7524024,1.1646764,-9.349781,5002,0
410826327,0.08359885,-0.071336955,0.41954193,4995,0,2.3464556,0.90792304,-10.279753,4995,0
410846312,-0.05332066,-0.048071355,-0.2983927,4992,0,2.8999627,1.9511081,-9.1604,4992,0
410866300,0.015422297,-0.0020711902,0.2590149,4999,0,3.4087577,1.6960001,-9.567676,4999,0
410886282,-0.06367398,0.04882939,-0.1551793,4994,0,3.050401,1.0873665,-9.641382,4994,0
410906268,-0.06357693,0.0722043,-0.074208036,4996,0,2.1031995,0.28145888,-9.081802,4996,0
410926253,-0.049590375,0.094562605,0.061240498,4996,0,1.9774348,-1.320078,-9.436508,4996,0
410946238,-0.08217307,0.09736755,-0.3472715,4996,0,0.017461974,-1.9727049,-9.23149,4996,0
410971221,-0.030770618,0.017155468,0.28765768,4998,0,1.8219519,0.067216784,-9.638828,4998,0
410986208,-0.04013441,0.040412158,-0.41339123,4994,0,-1.7830852,-2.2202945,-9.450438,4994,0
411006194,0.07283428,0.013729544,0.34937018,4994,0,-2.5620537,-2.415472,-10.05548,4994,0
411026179,0.005198804,-0.04393724,-0.26568025,4994,0,-1.0392042,-1.5410182,-9.968078,4994,0
411046166,0.087661326,-0.053081937,0.20340946,4996,0,-1.1482817,-0.8458201,-9.855679,4996,0
411066151,0.058458455,-0.07369836,0.05093373,4996,0,0.92250717,0.3471617,-10.0763035,4996,0
411086136,0.03533774,-0.062938154,-0.07449214,4996,0,0.97696215,1.2872127,-9.532136,4996,0
411111127,0.06567588,-0.072796404,0.48180696,5007,0,-0.9960688,-1.3990449,-10.145409,5007,0
411126105,-0.05266577,-0.00878621,-0.35729557,4996,0,2.4264522,1.2489394,-9.339119,4996,0
411146091,0.060263444,0.017024707,0.4003798,4995,0,2.9293365,1.4437788,-9.722502,4995,0
411171073,-0.045820832,-0.07011731,-0.18298388,4998,0,2.7941146,1.3720697,-9.785373,4998,0
411186061,0.023285456,0.08285,0.30394468,4996,0,0.97985244,-0.98774207,-9.798128,4996,0
411206047,-0.07674077,0.094249,-0.3974208,4991,0,-0.4147544,-2.7010312,-9.121012,4991,0
411226032,0.043714628,0.08690779,0.15242434,4996,0,-1.9138746,-2.6161015,-9.499121,4996,0
411251015,-0.008345083,0.06692204,0.2489121,4998,0,0.75002635,-2.5864825,-9.750834,4998,0
411266002,0.055507053,-0.033812378,-0.04291331,4995,0,-2.146012,-0.44910717,-9.368587,4995,0
411285988,0.07084721,-0.052759588,0.28678125,4990,0,-0.2525649,-0.10927168,-10.72882,4990,0
411310969,-0.01782561,-0.061624326,-0.4113111,4996,0,-0.95681596,0.6630543,-9.564988,4996,0
411325958,0.015400533,-0.035089996,0.40707615,4989,0,2.335826,1.0285167,-9.958177,4989,0
411345943,-0.14172274,0.007085134,-0.5505337,4996,0,2.0276432,-0.8527826,-9.262419,4996,0
411365930,0.0023808908,0.052590128,0.39026392,4997,0,1.390423,-2.3914268,-9.5282955,4997,0
411390910,-0.13392901,-0.0029640552,-0.18403992,4995,0,2.5889513,-0.6851729,-10.054371,4995,0
411405899,0.081523344,0.0672311,0.3322607,4996,0,-1.9164648,-2.3781927,-9.251138,4996,0
411425885,0.036425736,0.001442345,-0.13594854,4997,0,-1.2578312,-1.4494369,-9.454334,4997,0
411450866,0.008165133,0.020359976,-0.30978188,4995,0,-1.5106272,-0.6889416,-9.401415,4995,0
411465855,-0.015869673,-0.072937734,0.11150714,4996,0,1.038204,1.5061685,-10.582493,4996,0
411485841,-0.11356729,-0.06202117,-0.28516886,4995,0,1.2794614,0.27037078,-9.571232,4995,0
411505826,-0.10990483,-0.010235061,0.22378671,4995,0,2.071232,-2.1660538,-9.730779,4995,0
411530808,-0.17999424,-0.020925837,-0.6394164,4996,0,0.28439346,-0.039485846,-10.175576,4996,0
411545796,0.10047764,0.029697968,0.51458836,4996,0,-0.25506255,-3.0251038,-9.460326,4996,0
411565781,0.057215605,-0.011638197,-0.347241,4990,0,-1.3592844,1.7805882,-9.30538,4990,0
411590763,0.163706,0.04139561,0.18151107,4995,0,-2.2600467,0.43838602,-9.410761,4995,0
411605752,-0.16314307,-0.050119482,-0.30927804,4992,0,-0.5997179,3.1389928,-11.086822,4992,0
411625738,-0.14614516,-0.030477118,-0.072183214,4997,0,0.6518895,0.42717025,-10.185949,4997,0
411650720,-0.078885585,-0.03678766,0.17143884,4996,0,0.34879157,-0.23489161,-10.528338,4996,0
411670704,-0.09590868,0.034916133,-0.45576525,4997,0,0.73737854,-3.4605234,-8.844846,4997,0
411685693,0.16045389,0.0456718,0.38726953,4993,0,-1.7897474,0.52615976,-10.250487,4993,0
411710676,0.124536365,0.07662503,-0.10079588,4997,0,-0.9332886,-1.8979111,-8.868489,4997,0
411730659,0.12970889,0.021201458,0.1565056,4994,0,-2.3169334,1.4770943,-9.865888,4994,0
411745649,-0.12522162,-0.031724144,-0.25423682,4995,0,0.7579227,0.7846455,-10.392412,4995,0
411765634,-0.05097428,0.034191255,-0.11012162,4996,0,0.7262064,-1.7709252,-9.367452,4996,0
411790617,-0.0991878,0.0056783436,0.08609438,4998,0,1.4594889,-3.3760037,-9.478987,4998,0
411810601,-0.012997493,0.0346857,-0.28234273,4997,0,1.5329597,-5.0636086,-8.245537,4997,0
411825589,0.1877096,0.026910271,0.37874252,4994,0,-0.97058445,3.4004803,-10.451915,4994,0
411845575,-0.13110119,0.016190017,-0.26689214,4995,0,-1.1120601,3.0755107,-11.176901,4995,0
411870557,-0.11611041,-0.010304859,-0.10395696,4997,0,-0.563525,3.1577919,-11.047303,4997,0
411885545,-0.029446205,0.004948655,-0.16439804,4996,0,1.6815788,-5.596183,-8.081374,4996,0
411905531,0.18703298,0.016113024,0.04352395,4995,0,1.2982069,-1.5883193,-7.8870277,4995,0
411930514,0.20549992,-0.010365331,0.34063816,4998,0,1.1875764,-1.9262688,-8.503943,4998,0
411950499,0.09517347,0.019517297,-0.07373622,4998,0,0.96296024,3.5271478,-10.472324,4998,0
411965487,-0.23075199,-0.018094433,0.038998134,4996,0,-0.3829317,-2.0540588,-10.11831,4996,0
411985472,-0.0792883,-0.044032462,-0.29947993,4996,0,1.4179007,-5.5008655,-7.4826646,4996,0
412010454,-0.06254132,-0.06263886,-0.2053419,4997,0,1.0654356,-3.7327847,-8.827615,4997,0
412025443,0.16007884,0.021351682,0.15766598,4995,0,1.0879837,2.9981642,-10.335619,4995,0
412045428,-0.13714916,0.010862025,-0.18727528,4997,0,-0.69695735,2.5236785,-11.103238,4997,0
412070409,-0.13728605,0.0007975006,0.13696331,4996,0,-0.442617,3.5525303,-11.470767,4996,0
412090394,-0.28040653,-0.057434328,-0.34702078,4996,0,0.022272332,-2.059515,-10.18598,4996,0
412105384,0.22405723,-0.005629425,0.3304914,4997,0,1.4981071,-1.2203568,-8.537515,4997,0
412130365,0.20665868,-0.02329787,0.22466463,4996,0,1.5765088,0.5440201,-9.366716,4996,0
412150352,0.016155785,0.007975334,-0.07010553,4996,0,-0.36002862,4.971369,-11.160828,4996,0
412165341,-0.19788519,-0.04564136,-0.10825356,4999,0,0.3446033,-4.061431,-9.336778,4999,0
412185325,0.068990074,-0.039239313,-0.19022405,4997,0,1.5382988,-3.146137,-8.165924,4997,0
412210306,0.16013925,-0.060712267,0.22525214,4996,0,0.44743255,-2.3330534,-8.770037,4996,0
412230291,0.16825506,0.0007863278,0.08541638,4996,0,-0.048821233,2.945399,-9.955115,4996,0
412245281,-0.21760722,-0.014939985,-0.03096428,4997,0,-0.25423634,-0.5593489,-11.078163,4997,0
412270262,-0.20072217,-0.03356211,-0.06143483,4996,0,-1.7140895,-1.7167243,-10.8438,4996,0
412290247,-0.008055139,-0.030964848,-0.24560446,4996,0,-0.37439698,-3.067418,-8.602309,4996,0
412305236,0.09907842,-0.012150029,0.22440462,4997,0,1.1480306,3.835892,-11.076985,4997,0
412325222,-0.23922983,-0.012453982,-0.33582523,4998,0,-0.72873485,1.2717743,-11.038374,4998,0
412350203,-0.18370862,0.0064117,0.022456428,4996,0,-1.8717887,1.9502676,-11.77477,4996,0
412370188,-0.123679325,-0.054376066,-0.19019099,4996,0,-0.048797,-3.4253037,-9.503578,4996,0
412385177,0.19326296,-0.00408924,0.30073404,4993,0,0.67790747,2.2040744,-10.156624,4993,0
412410159,0.18393676,0.0030576466,0.29923806,4996,0,0.20169681,3.8141882,-10.928582,4996,0
412430144,-0.14341813,0.026511895,-0.26325497,4996,0,-1.6145927,3.187305,-11.645992,4996,0
412445134,0.018107489,-0.059379477,0.08479227,4998,0,1.1951487,-4.1749916,-8.381057,4998,0
412465119,0.14129333,-0.010116292,-0.06984892,4998,0,1.2386379,1.4039403,-9.099068,4998,0
412490099,0.21878554,0.00952407,0.2937903,4995,0,-0.6526231,2.2803066,-9.822647,4995,0
412510084,-0.04585234,0.023867598,-0.032498777,4995,0,-1.5825514,3.033628,-11.688119,4995,0
412525074,-0.03587875,-0.08280245,0.021609642,4997,0,0.49449268,-3.099205,-8.943792,4997,0
412550056,0.09546797,-0.034936618,0.1789752,4996,0,-0.095414415,-2.5440195,-9.007318,4996,0
412570041,0.174602,0.03269582,-0.09651015,4996,0,0.15312134,2.3243601,-9.600324,4996,0
412585030,-0.21084934,-0.036496714,0.023310691,4995,0,-1.2362094,-1.4113156,-10.929329,4995,0
412605015,-0.053229358,-0.064448245,-0.31124905,4997,0,0.030557342,-2.4912624,-8.520675,4997,0
412629996,0.15286602,-0.043213177,0.20276657,4996,0,-0.14673549,-1.4669137,-8.934428,4996,0
412649982,0.13544464,0.040424924,0.101275176,4996,0,-0.1612311,2.8641195,-9.85602,4996,0
412664971,-0.16958793,-0.020576859,-0.009948273,4997,0,-1.0489236,-0.32421097,-10.842309,4997,0
412689952,-0.086167,-0.0081833275,0.01953497,4996,0,-1.0126553,-2.9434204,-9.964177,4996,0
412709937,0.10572048,0.008410181,-0.2017782,4995,0,0.3858098,-2.3637025,-7.959509,4995,0
412724928,-0.0526484,0.041351452,0.17991419,4998,0,-1.1845186,3.146973,-11.202586,4998,0
412744913,-0.18474981,-0.0063688993,-0.40693396,4998,0,-1.4424477,-1.3285326,-9.8845825,4998,0
412769893,-0.078604735,0.0062997313,0.06930184,4996,0,0.12916155,-2.8978026,-9.409034,4996,0
412789878,0.14160173,-0.002110662,-0.067800656,4994,0,2.034981,-2.113036,-8.3172865,4994,0
412804868,-0.012285266,0.044155985,0.24108697,4997,0,-1.6139714,3.0576682,-11.759656,4997,0
412829850,-0.1413446,0.017708035,0.010369107,4997,0,-0.6253848,-0.16236801,-10.755299,4997,0
412849834,-0.08326225,-0.06250569,-0.35176906,4996,0,0.79752153,-3.192818,-8.8169985,4996,0
412864824,0.14219595,0.0634856,0.18573703,4997,0,0.5860149,2.5891192,-10.615097,4997,0
412884809,-0.14967695,0.011646875,-0.29305106,4995,0,-0.6231836,0.62403697,-10.682509,4995,0
412909790,-0.14373146,-0.011808983,0.21288191,4996,0,0.076180734,-1.9389108,-10.084443,4996,0
412929776,0.019032856,-0.037480433,-0.33713323,4997,0,2.325838,-1.4934937,-8.384038,4997,0
412944765,-0.016243152,0.045288514,0.3875279,4994,0,-0.5108375,1.2228729,-11.058623,4994,0
412969746,-0.18440856,-0.020386104,-0.24887787,4996,0,-0.49322006,0.04384024,-11.735371,4996,0
412989731,-0.078188024,-0.06773304,-0.09684229,4996,0,-0.48229778,-2.029111,-8.996607,4996,0
413004721,0.03147615,0.044722505,-0.14424689,4997,0,0.86612487,2.357972,-10.319942,4997,0
413024706,-0.17849603,0.015530384,-0.009194953,4997,0,-0.26498383,1.2297215,-11.014956,4997,0
413049688,-0.15286787,-0.04804242,0.1905988,4993,0,-1.7394589,-1.154295,-11.197558,4993,0
413069672,0.02538549,-0.035727836,-0.4072596,4996,0,0.7436764,-1.0306826,-8.220475,4996,0
413084662,-0.03822804,0.025296628,0.26315898,4997,0,-0.0965687,1.6164565,-11.366903,4997,0
413109644,-0.16376837,0.024506474,-0.4657168,4998,0,-1.9042834,1.675691,-11.207879,4998,0
413129628,0.019843018,-0.05021989,0.23679785,4996,0,-0.40949747,-1.8993809,-9.56736,4996,0
413144617,0.0065785195,0.049103677,-0.34336272,4996,0,-1.195255,2.4572623,-10.429139,4996,0
413164602,-0.089245535,0.0117865335,0.2757276,4994,0,-2.0838282,1.0151304,-11.754111,4994,0
413189584,-0.09049677,-0.027937394,-0.09514773,4996,0,-0.4542638,-3.3919916,-9.455613,4996,0
413204573,0.1801783,0.038186207,0.3122568,4996,0,0.121296,2.5193624,-9.658162,4996,0
413224559,-0.0934419,0.06950985,-0.15166147,4997,0,-1.8112978,0.85687596,-11.069223,4997,0
413249542,-0.1611523,-0.009070398,-0.43295208,4998,0,-0.3002754,-1.1156312,-10.032311,4998,0
413269525,0.092388,-0.055789456,0.36208817,4996,0,1.9331768,-1.9936699,-8.860082,4996,0
413284514,-0.09608116,0.07199751,-0.30134773,4996,0,-1.0603839,0.22682066,-10.476987,4996,0
413309496,-0.12780939,-0.008997761,0.10402965,4994,0,-0.727791,0.22943081,-11.17259,4994,0
413329481,0.04145079,-0.07946408,-0.10868626,4996,0,0.9528966,-1.4224721,-8.987896,4996,0
413349466,0.080904976,-0.012037542,0.04974359,4995,0,-0.2507755,2.4725335,-9.911464,4995,0
413364456,-0.1614297,-0.046101272,-0.23182015,4997,0,0.39509875,-2.0009859,-9.95492,4997,0
413389437,0.009944224,-0.035456855,-0.25831702,4996,0,-0.44293782,-1.0593206,-8.539136,4996,0
413409422,0.19269611,0.037384346,0.3558624,4995,0,-0.11546378,2.356212,-10.597109,4995,0
413424412,-0.123233914,-0.065459855,-0.3153959,4997,0,-1.3459729,-0.7230851,-9.8122,4997,0
413449393,0.10401722,-0.053642396,0.16139357,4997,0,0.39166975,-1.2290944,-9.077774,4997,0
413469378,0.06656281,0.06418112,0.028790351,4995,0,0.90738606,1.025985,-9.474164,4995,0
413489364,-0.105534725,0.026507774,-0.13745913,4995,0,-1.4966428,-0.22746833,-10.433042,4995,0
413504352,0.14062631,0.010974422,0.03968303,4996,0,1.0509866,1.0753622,-8.95406,4996,0
413529334,0.062494718,0.058417432,-0.1565364,4997,0,0.77221745,1.0158317,-9.622891,4997,0
413549319,-0.101928696,0.034590427,0.1449652,4997,0,-0.7687455,-0.12911999,-10.794667,4997,0
413564308,0.118859135,0.0074237217,-0.15498586,4996,0,0.18817644,0.047492057,-8.625365,4996,0
413589289,0.047498632,0.04361188,0.15961502,4996,0,0.642962,1.1247025,-9.515596,4996,0
413609274,-0.11299811,-0.012852216,-0.06988239,4996,0,-0.3299365,-2.4194434,-10.123532,4996,0
413629259,0.07028903,-0.06369983,-0.11478893,4995,0,1.2785327,-1.3322964,-8.766704,4995,0
413644251,-0.07669636,0.056339577,-0.0024024101,4998,0,-0.71067023,0.020230483,-10.755231,4998,0
413669231,-0.1576621,-0.031162865,-0.33919153,4996,0,0.063502036,-1.7885245,-10.000053,4996,0
413689216,0.11002519,-0.031381093,0.2526495,4996,0,1.8283134,-0.27360976,-8.796383,4996,0
413704205,-0.13069212,0.02728473,-0.31486687,4996,0,-0.9183014,-0.94543827,-10.195871,4996,0
413729186,-0.037005536,-0.07548284,-0.053897794,4996,0,0.11226595,-1.3099735,-9.445639,4996,0
413749172,0.052712746,0.0015465324,0.15041208,4996,0,1.0976497,0.9933158,-9.732842,4996,0
413769157,-0.12917806,-0.0015087391,-0.29725868,4992,0,-1.2300661,-0.24989372,-10.696893,4992,0
413784146,0.10097017,-0.01713697,0.19094,4996,0,2.0800352,-0.23646402,-9.41276,4996,0
413809127,-0.05105876,0.03279592,-0.24289794,4995,0,-0.37728593,2.0432088,-10.879493,4995,0
413829112,-0.08472225,-0.04294986,0.100003585,4994,0,-1.1390901,-0.55879724,-10.442761,4994,0
413844102,0.01524127,0.01573711,-0.20914651,4994,0,1.1934608,1.2181652,-9.69212,4994,0
413869084,-0.063632675,0.051815532,-0.04261227,4994,0,-2.0085704,1.535915,-11.618372,4994,0
413889068,0.009237979,-0.029759642,0.07588423,4995,0,-0.76619333,-1.2201291,-9.368688,4995,0
413909054,0.09155377,0.032427497,-0.123804055,4995,0,-0.15311508,1.882534,-9.68121,4995,0
413924047,-0.09104286,-0.062117636,0.021894485,5001,0,-1.2463619,-1.4010032,-10.348506,5001,0
413949024,0.048561376,-0.055947933,-0.2153609,4994,0,-0.07694759,-0.5602126,-8.706641,4994,0
413969009,0.10618397,0.056351453,0.22027595,4994,0,-0.43951336,1.797771,-10.824723,4994,0
413984001,-0.029777298,-0.053526282,-0.25806725,4998,0,-0.45568916,-0.6965036,-9.129724,4998,0
414008982,0.13815345,0.00030555404,0.036119,4993,0,0.76385415,0.6616458,-9.258457,4993,0
414028966,-0.040103342,0.07008509,0.11435394,4997,0,-1.059404,0.02362978,-10.704216,4997,0
414048950,-0.018162476,-0.023868209,-0.24885511,4996,0,0.05421358,-1.5445144,-8.902556,4996,0
414068936,0.15665299,0.034268066,0.32074243,4995,0,0.79569083,1.1449827,-9.715602,4995,0
414088923,-0.13409644,0.03166583,-0.31314674,4997,0,-0.42696103,-1.1290197,-9.891328,4997,0
414108906,0.10521336,-0.03876117,0.21872807,4995,0,1.2970144,-0.7877583,-8.615515,4995,0
414123896,-0.06837965,0.048766434,-0.3252591,4997,0,-1.5582924,0.035476904,-10.492592,4997,0
414148877,0.015842073,-0.051290095,-0.076068245,4995,0,0.2689948,-1.7127855,-8.954703,4995,0
414168863,0.050113257,0.03125896,0.20268038,4993,0,1.4786394,1.064462,-9.880996,4993,0
414188849,-0.14552252,-0.022700489,-0.34386194,4997,0,0.45665282,-0.77858824,-10.038767,4997,0
414208837,0.08721779,-0.05727805,0.34836635,4995,0,1.7775571,-1.1413049,-8.581927,4995,0
414228818,-0.10081323,0.011692007,-0.34590006,4995,0,-0.9652296,0.3867792,-11.157185,4995,0
414248804,0.04014451,-0.07079103,0.20653558,4995,0,-0.12623668,-1.1414319,-9.671587,4995,0
414263795,-0.102178745,0.03793517,-0.3410792,4999,0,-0.2139647,-0.37254295,-10.398776,4999,0
414288774,-0.09371219,-0.0154881915,-0.055091057,4995,0,-1.2830633,0.034145337,-10.454904,4995,0
414308759,0.13000613,-0.0431723,0.14995113,4994,0,0.9089303,0.43868122,-9.43232,4994,0
414328744,-0.087924026,0.051252168,-0.24233176,4994,0,-2.1318698,1.3072857,-10.933713,4994,0
414348730,0.07180985,-0.039937526,0.26806682,4995,0,-0.5718557,-0.7036168,-9.064529,4995,0
414368715,-0.01920636,0.05936114,-0.2767334,4994,0,-0.53572994,1.1050068,-10.406563,4994,0
414388700,0.017253812,-0.0138485925,0.25242645,4995,0,-1.1170219,-1.083114,-10.151743,4995,0
414403690,-0.032690436,0.064820334,-0.31093156,4990,0,-0.87475127,1.4875201,-10.0161705,4990,0
414428671,-0.04138193,0.04053959,0.08024329,4994,0,-0.7987411,-0.6993369,-10.54745,4994,0
414448656,0.07509371,-0.027042346,-0.011438874,4995,0,2.2385616,-0.5168228,-8.654259,4995,0
414468641,-0.09172004,0.040605877,-0.10302771,4996,0,0.11411642,-0.32494968,-10.197811,4996,0
414488627,0.07821565,-0.07055996,0.18744639,4997,0,1.384504,-2.0033648,-9.17491,4997,0
414508612,-0.05131367,0.028228333,-0.30373377,4992,0,-0.062378943,0.2047579,-10.292929,4992,0
414528597,0.001270452,-0.059896383,0.28388363,4993,0,0.36415726,-1.8437583,-9.47372,4993,0
414548585,-0.027058965,0.015759418,-0.3112224,4999,0,0.3305062,1.23167,-9.868762,4999,0
414568568,-0.08684272,-0.05341458,0.21129505,4991,0,-0.9164981,-0.9910679,-10.85407,4991,0
414588553,0.039677035,-0.013003316,-0.1935099,4996,0,0.55225945,1.1791118,-9.144649,4996,0
414608538,-0.07185005,0.044552088,0.048264984,4994,0,-1.659512,1.1001807,-11.16717,4994,0
414628523,0.08255242,-0.043554164,0.024099598,4994,0,0.82851094,0.61732143,-9.268581,4994,0
414648509,-0.055022378,0.04059986,-0.13570105,4997,0,-1.4123414,1.0365835,-10.674706,4997,0
414668494,0.110913865,-0.041202825,0.22466259,4997,0,-0.32513532,-0.4239787,-9.402874,4997,0
414688479,-0.04889267,0.07210169,-0.3054558,4996,0,-1.3135371,0.40636846,-10.492351,4996,0
414708465,0.13522385,-0.03518684,0.33620426,4997,0,0.41720995,-0.9703354,-9.477394,4997,0
414728450,-0.062443484,0.061003342,-0.31608877,4997,0,-0.1116554,0.15390757,-9.6990185,4997,0
414748436,0.009362097,-0.036871932,0.24125527,4997,0,-0.40594238,-1.9866676,-9.5031805,4997,0
414768420,-0.010212674,0.024610313,-0.20552342,4996,0,1.2814014,-0.18489164,-9.509004,4996,0
414788406,-0.03173361,-0.007863264,0.055082142,4997,0,0.15969169,-0.83931863,-9.931345,4997,0
414808391,0.012518256,-0.007993917,0.012623101,4996,0,1.7917237,0.49217653,-9.793742,4996,0
414828377,-0.08435555,-0.025540417,-0.16640599,4996,0,-0.91670215,-0.3857699,-9.964202,4996,0
414848362,0.071994394,-0.018889444,0.22291836,4997,0,0.8616912,0.9876004,-9.796867,4997,0
414868347,-0.094025016,0.026377767,-0.32869047,4996,0,-1.2656088,0.7129298,-10.576618,4996,0
414888332,0.1359557,-0.028739896,0.38356045,4995,0,0.6387621,1.2358309,-9.62769,4995,0
414908317,-0.11105067,0.041604236,-0.41527978,4996,0,-1.7533594,-0.56739,-9.932395,4996,0
414928303,0.17575003,-0.02244719,0.42336705,4995,0,0.39122283,0.1468461,-9.442954,4995,0
414948289,-0.10938754,0.06368941,-0.33780265,4996,0,-0.46013907,-1.037831,-10.373922,4996,0
414968273,0.09660659,-0.04741226,0.20850916,4996,0,1.3696042,-0.7555719,-8.727944,4996,0
414988259,-0.12960187,0.022719955,-0.09540196,4997,0,-0.18890782,-1.7569785,-10.656019,4997,0
415008244,0.021109834,-0.05811803,-0.08777249,4996,0,0.44745132,-0.3959025,-8.8853445,4996,0
415028229,-0.07202845,0.026984368,0.13336138,4996,0,-1.0635839,0.17223258,-10.979076,4996,0
415048217,0.035358347,-0.03894727,-0.23921312,4996,0,0.64648026,0.8319845,-9.351277,4996,0
415068201,-0.025131853,0.026066765,0.20823592,4992,0,-1.5942826,0.13998753,-10.692372,4992,0
415088185,0.031759445,-0.030368345,-0.18619783,4997,0,-0.06711837,0.9476167,-9.134838,4997,0
415108170,-0.031428766,0.048298113,0.060237437,4996,0,-1.5158409,0.5930763,-10.769254,4996,0
415128157,0.116768375,-0.00019307098,0.053703986,4998,0,1.2221956,0.2294459,-8.960178,4998,0
415148141,-0.045491874,0.040318113,-0.14790644,4997,0,-1.3487097,-0.55492306,-10.431631,4997,0
415168126,0.12210248,-0.0010561348,0.22899891,4996,0,0.9683465,-0.19055864,-9.107067,4996,0
415188111,-0.08336018,0.023478268,-0.2804275,4996,0,-0.17651327,-1.1234064,-10.306159,4996,0
415208099,0.096876614,-0.020484522,0.25632578,4999,0,1.4564914,-0.1154794,-9.39832,4999,0
415228082,-0.10936312,-0.0087075345,-0.19334875,4996,0,-0.091366,-1.6095414,-9.839353,4996,0
415248069,0.05473461,-0.010037463,0.051030785,4998,0,1.3132614,0.10814012,-9.638208,4998,0
415268052,-0.057323273,-0.013625406,0.023897396,4996,0,-0.078278005,-1.1444454,-10.036259,4996,0
415288037,-0.00038535756,-0.0031493253,-0.15518168,4996,0,0.34526357,0.27647442,-9.755992,4996,0
415308023,0.019313596,-0.051003296,0.17856227,4996,0,-0.9579308,-0.3328411,-10.258944,4996,0
415328008,-0.04983354,0.042068347,-0.23385485,4996,0,-0.9557643,1.4351509,-10.18607,4996,0
415347995,0.06291051,-0.05297926,0.15896997,4998,0,-0.31690475,-0.0563251,-9.538935,4998,0
415367979,-0.04187013,0.030852938,-0.11090747,4996,0,-1.137017,0.4157856,-10.388847,4996,0
415387963,0.05773918,-0.020096079,-0.008946014,4996,0,-0.51708484,0.24076822,-9.166834,4996,0
415407949,-0.02609496,0.07037115,0.07335411,4996,0,-0.72360677,-0.16164798,-10.285354,4996,0
415427934,0.015673334,-0.026041843,-0.14855659,4994,0,1.118077,-0.6118741,-8.511817,4994,0
415447921,-0.03553687,0.036199704,0.15543705,4998,0,-0.5887555,-1.0828818,-10.342771,4998,0
415467905,0.03467954,-0.02195188,-0.14549588,4995,0,1.3424598,0.019836145,-9.087349,4995,0
415487890,-0.051894534,0.0070091523,0.054047607,4996,0,0.31057698,-0.88471365,-10.419338,4996,0
415507877,0.024054723,-0.020712005,0.011587665,4997,0,0.95626515,-0.11620898,-9.604374,4997,0
415527861,-0.04228355,-0.028120644,-0.12985328,4995,0,-0.3013696,-0.19410841,-9.913918,4995,0
415547846,-0.014265145,0.016663752,0.14415312,4996,0,0.448453,0.49113733,-10.672747,4996,0
415567831,-0.009536089,-0.061606076,-0.20695974,4996,0,0.4839135,-0.07497482,-9.3001585,4996,0
415587817,-0.038713485,0.01830762,0.14560285,4997,0,-1.2995453,0.79719085,-11.058931,4997,0
415607803,0.05491209,-0.025227448,-0.1143393,4997,0,0.21586986,1.033139,-9.481324,4997,0
415627787,-0.04317193,0.005015068,-0.013131283,4996,0,-1.4432074,0.6158885,-10.844114,4996,0
415647774,0.07114737,-0.030781409,0.09765655,4998,0,0.044217087,1.0829386,-9.927133,4998,0
415667758,-0.03995085,0.0058257473,-0.20479254,4996,0,-1.3045982,0.4369681,-10.114194,4996,0
415687743,0.061771423,0.027856702,0.23854147,4996,0,-0.2841985,0.86594033,-10.368232,4996,0
415707728,-0.0027846037,-0.023674702,-0.23959707,4996,0,-0.34405866,0.28765437,-8.968459,4996,0
415727715,0.014178493,0.0395069,0.16728769,4997,0,-1.1979536,0.56161964,-10.92045,4997,0
415747700,0.03943793,-0.016758898,-0.08154013,4997,0,1.2067463,-0.016467517,-8.932748,4997,0
415767685,-0.042681035,0.042328436,-0.04769949,4997,0,-1.0671788,-0.23909333,-10.248616,4997,0
415787670,0.07653745,-0.0029473144,0.13582881,4997,0,0.7754141,0.39142483,-9.376793,4997,0
415807660,-0.041950356,0.017058732,-0.22324935,5002,0,0.49308518,-0.6450356,-9.855163,5002,0
415827640,0.043700922,0.024425566,0.25058863,4996,0,0.45303777,-0.35330728,-9.883002,4996,0
415847625,-0.026696503,-0.036770944,-0.24792665,4994,0,1.0154434,-0.78137803,-9.006254,4994,0
415867611,-0.024368875,0.021860346,0.15408981,4997,0,0.23240207,-0.31926504,-10.322152,4997,0
415887596,0.028429044,-0.053325865,-0.077399,4994,0,1.7037188,-0.7612394,-9.085768,4994,0
415907581,-0.08073934,-0.008186788,-0.071607254,4991,0,-0.5720024,0.16902143,-10.522757,4991,0
415927566,0.029249009,-0.0013331742,0.13617118,4996,0,0.76706505,0.47059268,-9.826204,4996,0
415947553,-0.019289648,-0.040985513,-0.24911982,4998,0,-0.17026174,0.5734451,-9.817743,4998,0
415967537,0.0057052597,0.025803627,0.23899671,4996,0,-0.9454922,0.92733884,-10.990823,4996,0
415987522,0.031334627,-0.02821853,-0.25956562,4994,0,0.026418744,1.2878644,-9.362925,4994,0
416007507,-0.010363741,0.017839178,0.17917947,4996,0,-1.3764607,0.14791632,-10.738322,4996,0
416027492,0.046096228,0.0118088,-0.13459466,4995,0,0.022362938,0.8337549,-9.54179,4995,0
416047478,0.008021193,0.0016165143,0.018619835,4997,0,-0.31187502,0.07303326,-9.563813,4997,0
416067463,-0.01503969,0.049729254,0.04655016,4996,0,0.28268123,-0.7968443,-9.975498,4996,0
416087448,0.029268714,-0.036338598,-0.14868921,4996,0,0.5728329,-0.19827226,-8.958592,4996,0
416107433,-0.0038894657,0.03553776,0.16833407,4996,0,0.33978224,-1.2304449,-10.629476,4996,0
416127419,0.0111012515,-0.023307413,-0.23758739,4994,0,1.2034063,-0.19910748,-9.449518,4994,0
416147404,0.006603822,-0.0385024,0.21709672,4996,0,0.13208613,-0.69850415,-10.029969,4996,0
416167390,-0.07260271,0.0155347595,-0.23447426,4997,0,0.26496214,-0.19156122,-10.438508,4997,0
416187375,0.049865667,-0.061524864,0.1410568,4997,0,0.030456943,0.2956505,-9.457604,4997,0
416207360,-0.064019725,0.015971804,-0.10999495,4997,0,-1.3059963,-0.06655318,-10.534396,4997,0
416227345,0.034717124,-0.01631564,-0.026170358,4994,0,-0.83830553,0.8597422,-9.89756,4994,0
416247331,0.057571705,-0.012504829,0.120019644,4997,0,-0.42111087,0.34830865,-9.774686,4997,0
416267316,-0.023123832,0.0444226,-0.25676346,4996,0,-1.1989003,-0.15741757,-10.142602,4996,0
416287301,0.10446836,-0.013840083,0.32777405,4996,0,0.88239074,-0.012696697,-9.504223,4996,0
416307286,-0.053655878,-0.019588929,-0.3328181,4995,0,0.4662891,-1.1019533,-9.438876,4995,0
416327272,0.018697,0.039224718,0.31786507,4996,0,0.26396644,-0.09264588,-10.492234,4996,0
416347257,-0.016124664,-0.056735497,-0.26872018,4995,0,1.4187483,0.030587941,-9.194113,4995,0
416367242,-0.02284974,-0.0064797984,0.15296523,4994,0,-0.7145697,-0.27480412,-10.663937,4994,0
416387228,0.00063773285,-0.010337648,-0.12033186,4995,0,0.32851,0.9998612,-9.999263,4995,0
416407214,0.0378306,-0.024390262,-0.015161106,4997,0,-0.84183884,1.0880411,-9.7769165,4997,0
416427198,-0.039414857,0.04682781,0.04499084,4997,0,-1.3825715,-0.43299448,-10.56084,4997,0
416447187,0.04058344,0.004107322,-0.17088787,4999,0,0.09696877,0.73523813,-9.468966,4999,0
416467169,0.04785346,0.003666396,0.24287932,4996,0,0.07054398,-1.1607326,-9.3998575,4996,0
416487154,-0.051359598,0.035264034,-0.30308464,4996,0,0.015365267,-0.87132996,-9.912411,4996,0
416507139,0.10687382,-0.02679895,0.33746892,4996,0,0.8777245,-0.16056962,-9.281407,4996,0
416527128,-0.08247659,-0.013640207,-0.31828523,5000,0,0.47327065,-0.59502506,-10.085126,5000,0
416547116,0.021204079,-0.0058464273,0.23605628,5002,0,-0.32510406,0.1229975,-10.720858,5002,0
416567095,0.04071419,-0.049840566,-0.19004357,4996,0,0.16786918,0.95721614,-9.6212015,4996,0
416587080,-0.00867834,0.00310456,0.032788716,4996,0,-1.4951397,1.0085219,-10.682499,4996,0
416607066,0.016428545,0.029759303,0.013146351,4991,0,-0.12655026,-0.23700164,-10.284048,4991,0
416627053,0.037581105,3.624428e-05,-0.12693873,4998,0,0.2033909,0.21477331,-9.052335,4998,0
416647040,-0.025265481,0.035219837,0.166401,5000,0,0.50494796,-1.9322531,-10.058947,5000,0
416667021,-0.055154417,-0.0020190445,-0.2579225,4993,0,0.22493868,-0.50379187,-9.411065,4993,0
416687007,0.06497577,-0.036786135,0.26041636,4994,0,0.5722032,0.055559263,-9.463165,4994,0
416706992,-0.09852759,-0.0053206617,-0.27468705,4996,0,-0.46688342,-0.09879794,-10.571252,4996,0
416726979,0.059109606,0.0059317937,0.14027394,4998,0,-0.9549102,0.64183825,-10.427889,4998,0
416746964,0.051826928,-0.05157268,-0.042829994,4997,0,-0.02800039,0.90612066,-9.61832,4997,0
416766948,-0.0039352486,0.033815756,-0.09669344,4996,0,-0.8792974,0.3432538,-10.167923,4996,0
416786933,0.026104799,0.029914305,0.16228247,4994,0,-0.2101979,0.06935491,-10.226457,4994,0
416806919,-0.005860007,-0.0027882077,-0.20953195,4996,0,0.99207973,-0.25868723,-8.671707,4996,0
416826904,-0.052090738,-0.0021566525,0.18359296,4997,0,0.42762136,-1.3925284,-9.810012,4997,0
416851886,-0.017970268,0.013998475,-0.00045716373,4995,0,-0.123623095,0.25066096,-10.306718,4995,0
416866874,0.020429824,-0.034296427,0.0911983,4995,0,0.9200815,-0.101272084,-9.032934,4995,0
416886860,-0.05922716,-0.027510164,-0.02154932,4995,0,-0.095957085,-0.78584933,-9.892683,4995,0
416906845,-0.049823456,0.019896802,-0.13538899,4996,0,-1.0488467,0.76909494,-10.537642,4996,0
416926830,0.088989146,-0.027235238,0.20772396,4996,0,-0.17498398,1.1422408,-10.017371,4996,0
416946817,-0.02703295,0.0018113083,-0.23693748,4994,0,-0.8693007,-0.1512463,-9.588868,4994,0
416966801,0.010249009,0.048948728,0.16674244,4996,0,-1.02068,0.35819227,-10.626891,4996,0
416991783,0.028647223,-0.024833042,0.062395815,4997,0,1.1467762,0.0020116977,-9.280178,4997,0
417006771,0.049945004,-0.032426134,0.022876948,4995,0,0.09189063,-0.47398132,-9.628623,4995,0
417026757,-0.059876516,0.03181291,0.03000512,4996,0,0.48590147,-1.3420956,-10.268685,4996,0
417046743,-0.026060846,-0.012948994,-0.14987518,4991,0,0.5603076,-0.45923778,-9.724762,4991,0
417066727,0.061476775,-0.05279044,0.19958301,4994,0,0.47100517,0.17362459,-9.480741,4994,0
417086713,-0.06377723,0.009692612,-0.23888843,4997,0,-0.73653406,0.053233918,-10.290507,4997,0
417106698,-0.04201967,0.029242065,0.16081777,4996,0,-0.8636133,0.19381286,-10.419604,4996,0
417131680,0.07175229,-0.0076982174,0.11531746,4997,0,0.31860483,-0.033250436,-9.191005,4997,0
417146669,0.0009112953,0.0054468084,-0.02574798,4995,0,-1.086283,0.6241512,-9.5913315,4995,0
417166654,-0.020231389,0.035443082,0.06858902,4995,0,-0.75366974,-1.0078021,-10.369986,4995,0
417186639,0.03420201,0.03232526,-0.17003071,4994,0,0.2745431,0.29603213,-9.653062,4994,0
417206624,0.0710486,-0.027964767,0.22309887,4994,0,0.81824225,-0.863864,-8.796815,4994,0
417226610,-0.08589367,0.005350889,-0.23798649,4995,0,0.3620855,-1.15799,-10.020865,4995,0
417246595,-0.033132114,0.020162806,0.15389605,4996,0,0.6475246,-0.57460207,-10.061553,4996,0
417271581,0.083797336,-0.022652617,0.1411507,5001,0,-0.068307444,1.501427,-9.812346,5001,0
417286565,-0.02695396,-0.0389246,-0.07518542,4996,0,-0.22792876,0.85358834,-9.602781,4996,0
417306551,-0.043634713,0.022287643,0.086343974,4995,0,-0.7319755,-0.73549885,-10.777745,4995,0
417326536,0.010218961,0.0014406473,-0.20592715,4997,0,-1.031074,0.88425916,-9.953312,4997,0
417346521,0.13831583,0.0004729802,0.2252698,4996,0,-0.2206965,0.73397076,-9.369436,4996,0
417366507,-0.03967713,0.013875894,-0.21671876,4990,0,-0.18230337,-0.3025843,-9.722422,4990,0
417386491,-0.005078694,0.053283863,0.14697854,4996,0,-0.34973344,-0.5279123,-10.429924,4996,0
417411473,0.023458613,-0.038992375,0.123917684,4995,0,0.35753953,0.71130013,-9.656872,4995,0
417426462,0.020126691,-0.034074996,-0.06629431,4994,0,0.47252584,-0.54811126,-9.390739,4994,0
417446448,-0.025562938,0.0044193272,0.10433466,4997,0,0.39150882,-1.0918885,-10.190026,4997,0
417466433,-0.07541263,0.009814216,-0.20570485,4991,0,-0.47821456,-0.1486455,-10.438918,4991,0
417486418,0.090071864,-0.034014814,0.2356939,4996,0,-0.22729838,0.9842936,-9.6275835,4996,0
417506405,-0.009225016,-0.021753943,-0.23523615,4996,0,-0.21210368,0.8622822,-9.718681,4996,0
417526388,0.0025409965,-0.0048602344,0.14794353,4993,0,-1.5952797,0.2633134,-10.582208,4993,0
417551372,-0.01280744,0.013645358,0.09824624,4997,0,0.850422,-1.1279659,-9.827771,4997,0
417566364,0.06933559,-0.0024212443,0.006112265,5000,0,0.329151,-0.49727204,-9.212485,5000,0
417586345,0.017354459,-0.0052676755,0.08662674,4996,0,0.8359171,-0.6188664,-9.437838,4996,0
417606331,-0.07185269,0.003562151,-0.1932111,4996,0,0.5144166,-0.97777563,-10.219463,4996,0
417626315,-0.0070568873,0.007788132,0.23456906,4996,0,-0.0031545223,-0.12661314,-10.157553,4996,0
417646302,-0.027092442,-0.031754732,-0.2550332,4996,0,0.42206445,0.84026575,-9.568656,4996,0
417666286,0.020766774,-0.045343734,0.18667792,4997,0,-0.2853543,0.16236378,-9.494029,4997,0
417691267,-0.044825953,0.0331432,0.028673664,4996,0,-0.28736997,-1.2863636,-10.2144375,4996,0
417706258,0.029963626,0.022458714,0.08371613,4998,0,-0.6090247,0.6508615,-10.241351,4998,0
417726241,0.04942773,0.007346647,0.009199342,4996,0,0.16593248,0.099113025,-9.396217,4996,0
417746228,0.014709764,-0.0082983,-0.12206102,4997,0,0.6961763,0.0015100538,-9.488867,4997,0
417766213,-0.034104127,-0.006317859,0.15850858,4996,0,0.49356824,-2.061965,-9.623251,4996,0
417786202,-0.065366544,0.007547546,-0.25970498,5001,0,0.03543799,-0.48383036,-10.057617,5001,0
417806183,0.06817691,-0.019172234,0.2820877,4997,0,0.15584297,0.4723954,-10.009808,4997,0
417831166,0.053969916,-0.018587638,-0.085236,4998,0,0.7459961,0.3476805,-9.529847,4998,0
417846155,0.0010266763,-0.019259008,0.17584907,4998,0,-0.87797135,1.1326032,-10.2941265,4998,0
417866139,-0.04860343,0.038754717,-0.17353657,4994,0,-0.93480456,-1.004022,-9.98778,4994,0
417886124,0.04717217,0.026170146,0.037631277,4995,0,-0.18955833,0.1759521,-10.220002,4995,0
417906111,0.07748231,-0.00025540107,0.07009524,4997,0,1.3186378,-0.41468143,-8.837378,4997,0
417926095,-0.03414587,0.0041166097,-0.15105462,4995,0,0.30045936,-0.16520466,-9.838882,4995,0
417946080,-0.059834532,-0.01003577,0.1716789,4997,0,0.33186904,-0.50695574,-10.358659,4997,0
417971062,-0.051176894,0.04690973,-0.2733701,4997,0,-0.74130833,0.36958683,-10.047092,4997,0
417986050,0.07464338,-0.020773433,0.26040983,4996,0,-0.55943495,1.2864739,-9.606036,4996,0
418006035,-0.003487901,-0.0029134634,-0.25814477,4994,0,-0.16925253,0.57731724,-9.271718,4994,0
418031020,-0.013743093,-0.0079386365,0.05048716,5000,0,0.44011366,-0.5804912,-9.612308,5000,0
418046006,-0.08570292,0.027095119,-0.21851754,4996,0,0.74485385,-1.466909,-10.239003,4996,0
418065992,0.01988734,-0.007078748,0.119078904,4997,0,0.32971174,-0.9079662,-10.194959,4997,0
418085977,0.0289147,0.0041721524,-0.052820906,4996,0,0.48190793,0.80491817,-9.744253,4996,0
418110959,0.023912868,0.02151833,-0.24916221,4997,0,-0.5347483,0.7780978,-9.704372,4997,0
418125948,-0.020654174,0.003520896,0.07616906,4997,0,-0.8558166,-0.28603843,-9.859325,4997,0
418145934,-0.043059077,0.03987749,-0.19919893,4998,0,0.01199921,-0.28619742,-9.929105,4998,0
418170918,0.02439388,-0.004155618,0.30037364,4999,0,0.6240378,-0.28950086,-9.917279,4999,0
418185904,-0.036481336,-0.0058575417,-0.2945615,4997,0,0.8825979,-0.09315161,-9.229839,4997,0
418205890,0.047241516,-0.0728651,0.28488362,4998,0,0.19428228,-0.2233044,-9.617799,4998,0
418225873,-0.06540735,0.0021782194,-0.31189924,4995,0,-0.73240304,0.22949125,-9.477316,4995,0
418245859,0.009877499,0.016959036,0.26611045,4996,0,-0.85664546,0.6984927,-10.525939,4996,0
418265844,-0.023470938,0.029563727,-0.22241555,4996,0,-0.3402576,-0.74103564,-9.925228,4996,0
418285830,0.050368667,-0.004806615,0.117232665,4995,0,0.31325343,-0.5022444,-9.556281,4995,0
418310814,0.07234559,-0.032953147,0.18092361,4995,0,-0.20261218,0.6003134,-9.480795,4995,0
418325801,-0.015442342,-0.012686063,-0.062577225,4996,0,-0.93691087,0.81642175,-9.830043,4996,0
418345788,-0.004817685,-0.0067036254,0.084700786,4999,0,-0.5200433,0.15593976,-10.255703,4999,0
418365772,-0.023151418,0.03617146,-0.19278985,4997,0,-0.7001245,-0.6486315,-10.039731,4997,0
418390755,0.028294187,-0.017533083,0.20113757,4999,0,0.39162567,-0.58002245,-10.444009,4999,0
418405743,-0.032832947,-0.011350745,-0.2222543,4996,0,0.90875626,-0.21567963,-9.439225,4996,0
418425727,0.037202805,-0.049946554,0.16133559,4996,0,-0.0885516,0.24676614,-9.598678,4996,0
418450710,0.014782999,-0.0072603575,0.05103487,4998,0,-0.45709333,-0.3216082,-9.711665,4998,0
418465698,0.006617385,-0.0026070736,0.008706017,4997,0,-0.952973,0.44332135,-9.806252,4997,0
418485683,-0.017379805,0.04510749,0.04488934,4995,0,-0.60193956,-0.40589428,-10.607856,4995,0
418505668,-0.02834834,0.02742337,-0.14411306,4995,0,0.5552269,-0.99560755,-9.541478,4995,0
418530652,0.028640894,-0.027593816,0.15506959,4997,0,0.02492241,-0.0764554,-9.829777,4997,0
418545638,-0.02181324,-0.022597974,-0.19502956,4996,0,0.6746427,0.19418211,-9.337182,4996,0
418565624,0.027512377,-0.039560538,0.13124919,4995,0,-0.8007518,0.71818763,-9.6408615,4995,0
418590607,-0.016468331,-0.0071253446,0.06957568,4998,0,-0.29995012,-1.181325,-9.756344,4998,0
418605595,-0.020729717,0.024443028,-0.008925684,4995,0,-0.8470185,0.06954393,-10.084928,4995,0
418625579,-0.01069573,0.055266853,0.06961936,4994,0,-0.32044148,-0.72806984,-10.031168,4994,0
418650561,-0.05639897,0.0038951528,-0.22498769,4996,0,-0.38810274,0.40368024,-9.453436,4996,0
418670547,0.06804993,-0.038348,0.14052545,4997,0,-0.19578555,0.66383696,-9.985574,4997,0
418685535,-0.0035609766,-0.012253418,-0.19498304,4989,0,0.24579759,0.5997898,-9.615983,4989,0
418705522,-0.006559911,-0.03557843,0.11682435,4997,0,-0.80102175,0.60333407,-9.809532,4997,0
418730504,-0.03795548,0.007992162,0.09237779,4998,0,0.34991118,-1.5653354,-9.853543,4998,0
418745491,0.008831453,0.019647138,-0.03548945,4994,0,-0.22917397,-0.6192224,-10.1516695,4994,0
418765476,-0.005259535,0.0396234,0.11122884,4995,0,0.029400485,-0.8120682,-9.898071,4995,0
418790458,-0.029977856,-0.002275719,-0.21634977,4996,0,-0.8024628,0.97945887,-9.722159,4996,0
418810443,0.05419778,-0.028012693,0.12796706,4996,0,-0.4560327,0.7298914,-9.776219,4996,0
418825433,-0.0008214684,0.0053674667,-0.19642256,4996,0,-0.10703127,0.8537295,-9.257891,4996,0
418845418,0.019870637,-0.0368602,0.11454027,4997,0,-1.077821,0.75343716,-10.065118,4997,0
418870399,-0.031079052,-0.0029652875,0.12933409,4997,0,0.50656545,-1.2492976,-10.049955,4997,0
418885388,-0.018902145,0.020884493,-0.05992363,4995,0,0.20354852,-0.93360907,-9.84946,4995,0
418905373,-0.024816927,0.023324654,0.11985276,4993,0,0.4827284,-1.0288314,-10.316235,4993,0
418930356,-0.008652618,0.0260066,-0.22663493,4997,0,-1.3768007,0.7090079,-9.643546,4997,0
418950342,0.06477457,0.008883786,0.12931082,4996,0,-0.51011896,0.2921346,-10.280978,4996,0
418965329,-0.024148531,0.017874405,-0.21186033,4992,0,-0.4414504,0.7092727,-9.017311,4992,0
418990311,0.015957044,0.013224203,-0.04425349,4996,0,0.48719913,-0.109934665,-9.29722,4996,0
419010296,0.0057203006,-0.03767788,0.11815507,4996,0,0.81848174,-1.1056994,-9.578325,4996,0
419025285,-0.03205605,-0.008874159,-0.024209604,4995,0,0.6269327,-0.6781091,-9.741124,4995,0
419045270,-0.073928945,-0.016757827,0.0789289,4996,0,0.19908793,-0.9524785,-10.105258,4996,0
419070252,-0.027715271,0.037889246,-0.2491055,4997,0,-1.0451832,-0.0013036513,-10.19167,4997,0
419090237,0.03948645,0.016930334,0.20783699,4995,0,0.13198523,-0.5355407,-10.026618,4995,0
419105226,-0.033292066,0.033101708,-0.24382658,4995,0,-0.4220936,0.22752976,-9.67271,4995,0
419130208,0.023774276,-0.027299287,0.03903493,4995,0,0.43469918,-0.13782589,-9.985102,4995,0
419150194,0.02674607,-0.031104041,0.016452575,4997,0,0.5759543,0.39244288,-9.71628,4997,0
419165183,-0.009393692,-0.023044089,0.06024615,4995,0,0.31619897,0.079084516,-9.441643,4995,0
419185168,-0.00018452128,-0.030359056,-0.014843446,4992,0,-0.14071272,0.42425796,-9.828475,4992,0
419210149,-0.0072447713,0.03219507,-0.23625658,4994,0,-0.024574671,-0.1491305,-9.968405,4994,0
419230134,-0.015850486,0.0039015699,0.22295587,4996,0,0.6044139,-0.9991304,-9.848933,4996,0
419245129,-0.038308587,0.02205807,-0.21283741,5002,0,0.32611147,-0.86395574,-10.049429,5002,0
419270105,0.019787742,-0.007955799,0.123559944,4995,0,-0.062382564,0.21182083,-10.537376,4995,0
419290090,-0.004180731,0.017741293,-0.07126151,4993,0,-1.1995192,-0.059254646,-9.996963,4993,0
419305081,0.04083868,-0.017828522,0.14023316,4998,0,-0.5670498,0.24914952,-10.605044,4998,0
