timestamp,q[0],q[1],q[2],q[3],delta_q_reset[0],delta_q_reset[1],delta_q_reset[2],delta_q_reset[3],quat_reset_counter
406384607,0.71015716,0.005453047,0.00042852422,0.70402205,-0.9441011,-2.5442032e-10,-8.8480634e-10,-0.32965627,3
406389603,0.7101551,0.005450801,0.00042595222,0.7040241,-0.9441011,-2.5442032e-10,-8.8480634e-10,-0.32965627,3
406409587,0.7101556,0.005453484,0.0004198137,0.70402354,-0.9441011,-2.5442032e-10,-8.8480634e-10,-0.32965627,3
406424577,0.7101567,0.0054591163,0.00042277918,0.70402247,-0.9441011,-2.5442032e-10,-8.8480634e-10,-0.32965627,3
406449558,0.71017563,0.005457977,0.00040351707,0.7040033,-0.9441011,-2.5442032e-10,-8.8480634e-10,-0.32965627,3
406469544,0.7101035,0.0054642977,0.0004350216,0.70407605,-0.9441011,-2.5442032e-10,-8.8480634e-10,-0.32965627,3
406489528,0.71017814,0.005453268,0.00044027192,0.7040009,-0.9441011,-2.5442032e-10,-8.8480634e-10,-0.32965627,3
406509513,0.71011025,0.005463623,0.0004256037,0.70406926,-0.9441011,-2.5442032e-10,-8.8480634e-10,-0.32965627,3
406529498,0.71018887,0.005472937,0.00040610382,0.70398986,-0.9441011,-2.5442032e-10,-8.8480634e-10,-0.32965627,3
406549485,0.71013665,0.005468479,0.0004321118,0.70404255,-0.9441011,-2.5442032e-10,-8.8480634e-10,-0.32965627,3
406564473,0.7101744,0.005464869,0.00041192383,0.7040045,-0.9441011,-2.5442032e-10,-8.8480634e-10,-0.32965627,3
406589454,0.7101689,0.005509463,0.00044017023,0.7040098,-0.9441011,-2.5442032e-10,-8.8480634e-10,-0.32965627,3
406609439,0.710139,0.00550062,0.00043689046,0.70403993,-0.9441011,-2.5442032e-10,-8.8480634e-10,-0.32965627,3
406629425,0.7101757,0.0054554995,0.00039542594,0.7040032,-0.9441011,-2.5442032e-10,-8.8480634e-10,-0.32965627,3
406644414,0.7101323,0.005464979,0.00040415543,0.7040469,-0.9441011,-2.5442032e-10,-8.8480634e-10,-0.32965627,3
406669395,0.7101693,0.0054723113,0.00040011996,0.7040096,-0.9441011,-2.5442032e-10,-8.8480634e-10,-0.32965627,3
406689380,0.71015745,0.005472921,0.00041308376,0.7040215,-0.9441011,-2.5442032e-10,-8.8480634e-10,-0.32965627,3
406704369,0.7101674,0.005457038,0.00038780138,0.7040117,-0.9441011,-2.5442032e-10,-8.8480634e-10,-0.32965627,3
406729352,0.7101987,0.0054782564,0.0003841808,0.7039799,-0.9441011,-2.5442032e-10,-8.8480634e-10,-0.32965627,3
406749336,0.7101566,0.005463112,0.0003693726,0.70402247,-0.9441011,-2.5442032e-10,-8.8480634e-10,-0.32965627,3
406769322,0.7101621,0.005475744,0.00038274896,0.70401686,-0.9441011,-2.5442032e-10,-8.8480634e-10,-0.32965627,3
406789307,0.7101621,0.005495341,0.00039360105,0.7040167,-0.9441011,-2.5442032e-10,-8.8480634e-10,-0.32965627,3
406809292,0.71015084,0.0054773646,0.00042016548,0.70402825,-0.9441011,-2.5442032e-10,-8.8480634e-10,-0.32965627,3
406829278,0.71018696,0.0054629273,0.0003924973,0.7039919,-0.9441011,-2.5442032e-10,-8.8480634e-10,-0.32965627,3
406844268,0.7101535,0.0054635443,0.00042839244,0.7040256,-0.9441011,-2.5442032e-10,-8.8480634e-10,-0.32965627,3
406869248,0.7101985,0.0054233787,0.00038637864,0.70398057,-0.9441011,-2.5442032e-10,-8.8480634e-10,-0.32965627,3
406889233,0.7101605,0.005446854,0.00041347244,0.7040187,-0.9441011,-2.5442032e-10,-8.8480634e-10,-0.32965627,3
406909221,0.7101843,0.0054075876,0.0003723039,0.70399505,-0.9441011,-2.5442032e-10,-8.8480634e-10,-0.32965627,3
406929208,0.7101691,0.005472423,0.00043493995,0.70400983,-0.9441011,-2.5442032e-10,-8.8480634e-10,-0.32965627,3
406949189,0.71019536,0.005401976,0.00043438165,0.7039838,-0.9441011,-2.5442032e-10,-8.8480634e-10,-0.32965627,3
406969174,0.7101686,0.0053866315,0.0004078641,0.70401096,-0.9441011,-2.5442032e-10,-8.8480634e-10,-0.32965627,3
406984163,0.71015495,0.005399277,0.00038342492,0.70402473,-0.9441011,-2.5442032e-10,-8.8480634e-10,-0.32965627,3
407009144,0.7102577,0.005324598,0.00032557637,0.70392156,-0.9441011,-2.5442032e-10,-8.8480634e-10,-0.32965627,3
407029130,0.7101576,0.005356326,0.0003741793,0.70402235,-0.9441011,-2.5442032e-10,-8.8480634e-10,-0.32965627,3
407049115,0.71016425,0.00536056,0.00035127436,0.70401555,-0.9441011,-2.5442032e-10,-8.8480634e-10,-0.32965627,3
407069100,0.7103081,0.005288635,0.00025715513,0.703871,-0.9441011,-2.5442032e-10,-8.8480634e-10,-0.32965627,3
407089086,0.7100017,0.0054227486,0.0004085264,0.70417905,-0.9441011,-2.5442032e-10,-8.8480634e-10,-0.32965627,3
407109072,0.71024776,0.005310194,0.00032092934,0.70393175,-0.9441011,-2.5442032e-10,-8.8480634e-10,-0.32965627,3
407124061,0.710071,0.0054319794,0.0004378859,0.7041091,-0.9441011,-2.5442032e-10,-8.8480634e-10,-0.32965627,3
407149043,0.7099488,0.00544096,0.000484776,0.7042322,-0.9441011,-2.5442032e-10,-8.8480634e-10,-0.32965627,3
407169026,0.71041965,0.0053503956,0.00042208403,0.7037579,-0.9441011,-2.5442032e-10,-8.8480634e-10,-0.32965627,3
407189012,0.7100442,0.005359739,0.00039325506,0.70413667,-0.9441011,-2.5442032e-10,-8.8480634e-10,-0.32965627,3
407208997,0.7101877,0.0053514987,0.00047997752,0.70399195,-0.9441011,-2.5442032e-10,-8.8480634e-10,-0.32965627,3
407228982,0.7103591,0.005348249,0.00040030136,0.7038191,-0.9441011,-2.5442032e-10,-8.8480634e-10,-0.32965627,3
407248967,0.70986295,0.0054093245,0.0003986011,0.704319,-0.9441011,-2.5442032e-10,-8.8480634e-10,-0.32965627,3
407263956,0.71047753,0.005244528,0.0002597683,0.70370036,-0.9441011,-2.5442032e-10,-8.8480634e-10,-0.32965627,3
407288938,0.7099238,0.005407034,0.00036420682,0.7042577,-0.9441011,-2.5442032e-10,-8.8480634e-10,-0.32965627,3
407308923,0.7102424,0.0053037894,0.00033629927,0.70393723,-0.9441011,-2.5442032e-10,-8.8480634e-10,-0.32965627,3
407328908,0.7103008,0.0053252834,0.00043074967,0.7038781,-0.9441011,-2.5442032e-10,-8.8480634e-10,-0.32965627,3
407348894,0.7097397,0.0054347,0.00043798465,0.7044429,-0.9441011,-2.5442032e-10,-8.8480634e-10,-0.32965627,3
407368879,0.7107611,0.005249844,0.00023910434,0.7034139,-0.9441011,-2.5442032e-10,-8.8480634e-10,-0.32965627,3
407388864,0.7095292,0.0054525235,0.00055248267,0.70465475,-0.9441011,-2.5442032e-10,-8.8480634e-10,-0.32965627,3
407408850,0.7105351,0.0052915337,0.00034858863,0.7036418,-0.9441011,-2.5442032e-10,-8.8480634e-10,-0.32965627,3
407428835,0.7101826,0.005298183,0.00037828993,0.70399755,-0.9441011,-2.5442032e-10,-8.8480634e-10,-0.32965627,3
407448822,0.70978785,0.005442899,0.0005076948,0.70439434,-0.9441011,-2.5442032e-10,-8.8480634e-10,-0.32965627,3
407468805,0.71073854,0.0052566687,0.00037033975,0.7034366,-0.9441011,-2.5442032e-10,-8.8480634e-10,-0.32965627,3
407488790,0.70941836,0.0053695096,0.00047433694,0.7047671,-0.9441011,-2.5442032e-10,-8.8480634e-10,-0.32965627,3
407508776,0.7108972,0.0052595185,0.0003388358,0.7032762,-0.9441011,-2.5442032e-10,-8.8480634e-10,-0.32965627,3
407528761,0.7094629,0.0054903687,0.00050413935,0.7047213,-0.9441011,-2.5442032e-10,-8.8480634e-10,-0.32965627,3
407548746,0.7104787,0.005232315,0.00035079053,0.7036992,-0.9441011,-2.5442032e-10,-8.8480634e-10,-0.32965627,3
407568732,0.7100605,0.0052638063,0.00042800762,0.70412093,-0.9441011,-2.5442032e-10,-8.8480634e-10,-0.32965627,3
407588717,0.7098061,0.0052929632,0.00038497194,0.70437723,-0.9441011,-2.5442032e-10,-8.8480634e-10,-0.32965627,3
407608702,0.7108834,0.005179368,0.00024749336,0.7032909,-0.9441011,-2.5442032e-10,-8.8480634e-10,-0.32965627,3
407628687,0.7090466,0.005434642,0.0005516699,0.70514053,-0.9441011,-2.5442032e-10,-8.8480634e-10,-0.32965627,3
407648673,0.7111768,0.005156788,0.00016807592,0.70299435,-0.9441011,-2.5442032e-10,-8.8480634e-10,-0.32965627,3
407668658,0.709315,0.005279656,0.00035653374,0.7048719,-0.9441011,-2.5442032e-10,-8.8480634e-10,-0.32965627,3
407688645,0.710817,0.0052532195,0.0002529966,0.7033574,-0.9441011,-2.5442032e-10,-8.8480634e-10,-0.32965627,3
407708628,0.7096878,0.005378398,0.0004533355,0.7044957,-0.9441011,-2.5442032e-10,-8.8480634e-10,-0.32965627,3
407728613,0.7101342,0.0052009826,0.00030875747,0.704047,-0.9441011,-2.5442032e-10,-8.8480634e-10,-0.32965627,3
407748598,0.71052194,0.005172101,0.0002277953,0.703656,-0.9441011,-2.5442032e-10,-8.8480634e-10,-0.32965627,3
407768583,0.7094442,0.005348134,0.00040204442,0.7047412,-0.9441011,-2.5442032e-10,-8.8480634e-10,-0.32965627,3
407788569,0.7110346,0.005108883,0.00017580048,0.70313853,-0.9441011,-2.5442032e-10,-8.8480634e-10,-0.32965627,3
407808555,0.70892346,0.0054563335,0.0006440323,0.7052641,-0.9441011,-2.5442032e-10,-8.8480634e-10,-0.32965627,3
407828539,0.7112451,0.0051163533,0.00015082929,0.70292556,-0.9441011,-2.5442032e-10,-8.8480634e-10,-0.32965627,3
407848524,0.7091916,0.0053267004,0.00041305565,0.7049956,-0.9441011,-2.5442032e-10,-8.8480634e-10,-0.32965627,3
407868510,0.7107881,0.0052526193,0.0003682003,0.70338655,-0.9441011,-2.5442032e-10,-8.8480634e-10,-0.32965627,3
407888496,0.70948637,0.0054518944,0.0005185995,0.70469797,-0.9441011,-2.5442032e-10,-8.8480634e-10,-0.32965627,3
407908480,0.71025175,0.0052800467,0.00042196133,0.70392793,-0.9441011,-2.5442032e-10,-8.8480634e-10,-0.32965627,3
407928465,0.7104568,0.0051201484,0.00025844364,0.7037222,-0.9441011,-2.5442032e-10,-8.8480634e-10,-0.32965627,3
407948451,0.70947164,0.0054401015,0.00053307606,0.7047128,-0.9441011,-2.5442032e-10,-8.8480634e-10,-0.32965627,3
407968436,0.71095884,0.0052687363,0.00035645152,0.7032138,-0.9441011,-2.5442032e-10,-8.8480634e-10,-0.32965627,3
407988421,0.7089876,0.0053703412,0.0005323637,0.7052003,-0.9441011,-2.5442032e-10,-8.8480634e-10,-0.32965627,3
408008406,0.71128225,0.0051475465,0.00025602127,0.7028876,-0.9441011,-2.5442032e-10,-8.8480634e-10,-0.32965627,3
408028391,0.70890296,0.0054593845,0.00057963736,0.70528466,-0.9441011,-2.5442032e-10,-8.8480634e-10,-0.32965627,3
408048378,0.71116227,0.0051943185,0.00034746778,0.70300865,-0.9441011,-2.5442032e-10,-8.8480634e-10,-0.32965627,3
408068363,0.7091892,0.005318292,0.0005909955,0.7049979,-0.9441011,-2.5442032e-10,-8.8480634e-10,-0.32965627,3
408088347,0.71072286,0.0052494244,0.000247669,0.7034525,-0.9441011,-2.5442032e-10,-8.8480634e-10,-0.32965627,3
408108332,0.70986974,0.0053703412,0.000429397,0.7043124,-0.9441011,-2.5442032e-10,-8.8480634e-10,-0.32965627,3
408128319,0.7098869,0.0052391365,0.00039723664,0.70429605,-0.9441011,-2.5442032e-10,-8.8480634e-10,-0.32965627,3
408148304,0.7105829,0.0052205273,0.0004049233,0.7035941,-0.9441011,-2.5442032e-10,-8.8480634e-10,-0.32965627,3
408168288,0.70924467,0.0053839698,0.0004116623,0.7049418,-0.9441011,-2.5442032e-10,-8.8480634e-10,-0.32965627,3
408188273,0.71109873,0.0052713603,0.0002683325,0.70307237,-0.9441011,-2.5442032e-10,-8.8480634e-10,-0.32965627,3
408208259,0.7090165,0.00536858,0.00059335225,0.7051712,-0.9441011,-2.5442032e-10,-8.8480634e-10,-0.32965627,3
408228244,0.71107936,0.0051691295,0.00016371818,0.7030928,-0.9441011,-2.5442032e-10,-8.8480634e-10,-0.32965627,3
408248230,0.7093298,0.0054922053,0.0005022433,0.7048552,-0.9441011,-2.5442032e-10,-8.8480634e-10,-0.32965627,3
408268215,0.7104585,0.005209289,0.00027680653,0.70371985,-0.9441011,-2.5442032e-10,-8.8480634e-10,-0.32965627,3
408288200,0.7101339,0.005174594,0.0003653099,0.7040476,-0.9441011,-2.5442032e-10,-8.8480634e-10,-0.32965627,3
408308186,0.70972705,0.0054077343,0.00040847147,0.7044559,-0.9441011,-2.5442032e-10,-8.8480634e-10,-0.32965627,3
408328173,0.71062696,0.0053103273,0.00032575883,0.7035489,-0.9441011,-2.5442032e-10,-8.8480634e-10,-0.32965627,3
408348156,0.7094496,0.0053097373,0.0003753923,0.7047362,-0.9441011,-2.5442032e-10,-8.8480634e-10,-0.32965627,3
408368141,0.7108318,0.0051577953,0.00023004644,0.7033431,-0.9441011,-2.5442032e-10,-8.8480634e-10,-0.32965627,3
408388128,0.7096049,0.0052966885,0.00047748262,0.7045798,-0.9441011,-2.5442032e-10,-8.8480634e-10,-0.32965627,3
408408112,0.7102881,0.0052418225,0.00036479664,0.70389146,-0.9441011,-2.5442032e-10,-8.8480634e-10,-0.32965627,3
408428097,0.71014404,0.005347156,0.00034466435,0.70403606,-0.9441011,-2.5442032e-10,-8.8480634e-10,-0.32965627,3
408448083,0.7097624,0.0052751848,0.0004596219,0.70442134,-0.9441011,-2.5442032e-10,-8.8480634e-10,-0.32965627,3
408468068,0.7106559,0.005172338,0.0003171313,0.7035207,-0.9441011,-2.5442032e-10,-8.8480634e-10,-0.32965627,3
408488053,0.7094371,0.0053977678,0.00050730654,0.704748,-0.9441011,-2.5442032e-10,-8.8480634e-10,-0.32965627,3
408508037,0.71054673,0.0052555143,0.00037352272,0.7036304,-0.9441011,-2.5442032e-10,-8.8480634e-10,-0.32965627,3
408528023,0.7098089,0.005400154,0.0004295047,0.7043736,-0.9441011,-2.5442032e-10,-8.8480634e-10,-0.32965627,3
408548008,0.71014756,0.0052562924,0.00037955222,0.7040332,-0.9441011,-2.5442032e-10,-8.8480634e-10,-0.32965627,3
408567993,0.71035707,0.0051214704,0.00032951028,0.7038228,-0.9441011,-2.5442032e-10,-8.8480634e-10,-0.32965627,3
408587978,0.70963764,0.005300513,0.00051916175,0.7045468,-0.9441011,-2.5442032e-10,-8.8480634e-10,-0.32965627,3
408607965,0.71055514,0.005206373,0.00040531982,0.7036222,-0.9441011,-2.5442032e-10,-8.8480634e-10,-0.32965627,3
408627949,0.7096222,0.005445807,0.00048788873,0.7045612,-0.9441011,-2.5442032e-10,-8.8480634e-10,-0.32965627,3
408647934,0.7104429,0.0052051414,0.00037284373,0.70373553,-0.9441011,-2.5442032e-10,-8.8480634e-10,-0.32965627,3
408667919,0.71010095,0.005250083,0.0004384955,0.7040803,-0.9441011,-2.5442032e-10,-8.8480634e-10,-0.32965627,3
408687905,0.70993406,0.005274863,0.00043073544,0.7042483,-0.9441011,-2.5442032e-10,-8.8480634e-10,-0.32965627,3
408707890,0.7104654,0.0052769464,0.0004032102,0.70371234,-0.9441011,-2.5442032e-10,-8.8480634e-10,-0.32965627,3
408727875,0.70958847,0.00540782,0.000465959,0.7045955,-0.9441011,-2.5442032e-10,-8.8480634e-10,-0.32965627,3
408747863,0.7105572,0.005340776,0.0002859612,0.7036191,-0.9441011,-2.5442032e-10,-8.8480634e-10,-0.32965627,3
408767846,0.7099138,0.0053231744,0.000327857,0.7042685,-0.9441011,-2.5442032e-10,-8.8480634e-10,-0.32965627,3
408787831,0.71018004,0.0052189208,0.00029245994,0.7040008,-0.9441011,-2.5442032e-10,-8.8480634e-10,-0.32965627,3
408807816,0.710359,0.0052172877,0.00034549998,0.70382017,-0.9441011,-2.5442032e-10,-8.8480634e-10,-0.32965627,3
408827801,0.7096544,0.0053936676,0.00044947257,0.7045292,-0.9441011,-2.5442032e-10,-8.8480634e-10,-0.32965627,3
408847786,0.7105005,0.005357348,0.00025709393,0.70367634,-0.9441011,-2.5442032e-10,-8.8480634e-10,-0.32965627,3
408867772,0.7096527,0.0054353913,0.0003911886,0.7045306,-0.9441011,-2.5442032e-10,-8.8480634e-10,-0.32965627,3
408887757,0.71037555,0.005291386,0.00027831626,0.70380294,-0.9441011,-2.5442032e-10,-8.8480634e-10,-0.32965627,3
408907743,0.7100968,0.005266799,0.00034226084,0.70408434,-0.9441011,-2.5442032e-10,-8.8480634e-10,-0.32965627,3
408927728,0.7098388,0.005316233,0.00043196738,0.704344,-0.9441011,-2.5442032e-10,-8.8480634e-10,-0.32965627,3
408947714,0.7105087,0.0051846104,0.00034935103,0.7036693,-0.9441011,-2.5442032e-10,-8.8480634e-10,-0.32965627,3
408967699,0.7094574,0.0054352423,0.00054453954,0.7047272,-0.9441011,-2.5442032e-10,-8.8480634e-10,-0.32965627,3
408987684,0.71050644,0.005291049,0.0003025788,0.7036708,-0.9441011,-2.5442032e-10,-8.8480634e-10,-0.32965627,3
409007669,0.7096892,0.0055302503,0.0004706736,0.70449305,-0.9441011,-2.5442032e-10,-8.8480634e-10,-0.32965627,3
409027656,0.71016335,0.0053134924,0.00030213132,0.70401686,-0.9441011,-2.5442032e-10,-8.8480634e-10,-0.32965627,3
409047641,0.7103371,0.0052879397,0.00032621258,0.7038417,-0.9441011,-2.5442032e-10,-8.8480634e-10,-0.32965627,3
409067625,0.70962965,0.0052322736,0.0004199175,0.7045554,-0.9441011,-2.5442032e-10,-8.8480634e-10,-0.32965627,3
409087611,0.71072364,0.005162177,0.00024957032,0.7034524,-0.9441011,-2.5442032e-10,-8.8480634e-10,-0.32965627,3
409107595,0.7093692,0.005407222,0.0004120767,0.7048163,-0.9441011,-2.5442032e-10,-8.8480634e-10,-0.32965627,3
409127581,0.71053755,0.0052341158,0.00023123263,0.70363986,-0.9441011,-2.5442032e-10,-8.8480634e-10,-0.32965627,3
409147567,0.70974696,0.0054574646,0.00036261263,0.7044356,-0.9441011,-2.5442032e-10,-8.8480634e-10,-0.32965627,3
409167551,0.7100553,0.005319761,0.00022254448,0.70412576,-0.9441011,-2.5442032e-10,-8.8480634e-10,-0.32965627,3
409187536,0.7104604,0.005250445,0.0002083613,0.7037175,-0.9441011,-2.5442032e-10,-8.8480634e-10,-0.32965627,3
409207521,0.70949954,0.0052913046,0.0003386905,0.70468605,-0.9441011,-2.5442032e-10,-8.8480634e-10,-0.32965627,3
409227506,0.7108029,0.0051111938,0.00015548931,0.70337266,-0.9441011,-2.5442032e-10,-8.8480634e-10,-0.32965627,3
409247493,0.7093119,0.0053438395,0.0004253658,0.7048744,-0.9441011,-2.5442032e-10,-8.8480634e-10,-0.32965627,3
409267477,0.7106197,0.00524349,0.0001976139,0.70355684,-0.9441011,-2.5442032e-10,-8.8480634e-10,-0.32965627,3
409287462,0.7096428,0.0054801307,0.00035595853,0.7045402,-0.9441011,-2.5442032e-10,-8.8480634e-10,-0.32965627,3
409307447,0.71018285,0.0052994424,0.0002650899,0.7039973,-0.9441011,-2.5442032e-10,-8.8480634e-10,-0.32965627,3
409327433,0.7102805,0.00526294,0.00023186421,0.7038991,-0.9441011,-2.5442032e-10,-8.8480634e-10,-0.32965627,3
409347419,0.70967996,0.0052732034,0.00039699106,0.70450443,-0.9441011,-2.5442032e-10,-8.8480634e-10,-0.32965627,3
409367404,0.7108146,0.005079981,0.00018504585,0.70336115,-0.9441011,-2.5442032e-10,-8.8480634e-10,-0.32965627,3
409387389,0.70928895,0.0053496994,0.0004920864,0.7048974,-0.9441011,-2.5442032e-10,-8.8480634e-10,-0.32965627,3
409407377,0.7109099,0.005101079,0.00025605044,0.7032646,-0.9441011,-2.5442032e-10,-8.8480634e-10,-0.32965627,3
409427359,0.70928735,0.0054787784,0.000453845,0.70489806,-0.9441011,-2.5442032e-10,-8.8480634e-10,-0.32965627,3
409447344,0.7105753,0.0053025223,0.0003385349,0.70360124,-0.9441011,-2.5442032e-10,-8.8480634e-10,-0.32965627,3
409467330,0.70985717,0.005404977,0.0003675328,0.70432484,-0.9441011,-2.5442032e-10,-8.8480634e-10,-0.32965627,3
409487315,0.7100156,0.005267926,0.00046177654,0.7041661,-0.9441011,-2.5442032e-10,-8.8480634e-10,-0.32965627,3
409507300,0.7105761,0.0051669115,0.0003189964,0.7036013,-0.9441011,-2.5442032e-10,-8.8480634e-10,-0.32965627,3
409527285,0.7094094,0.005251048,0.00044963614,0.704777,-0.9441011,-2.5442032e-10,-8.8480634e-10,-0.32965627,3
409547271,0.7110052,0.005043813,0.00027510745,0.70316863,-0.9441011,-2.5442032e-10,-8.8480634e-10,-0.32965627,3
409567256,0.7090116,0.005387379,0.00054955756,0.7051761,-0.9441011,-2.5442032e-10,-8.8480634e-10,-0.32965627,3
409587241,0.7110755,0.005214421,0.00026473004,0.70309633,-0.9441011,-2.5442032e-10,-8.8480634e-10,-0.32965627,3
409607227,0.7091496,0.005500087,0.00047903394,0.70503646,-0.9441011,-2.5442032e-10,-8.8480634e-10,-0.32965627,3
409627212,0.7107732,0.0052360925,0.00029633107,0.7034017,-0.9441011,-2.5442032e-10,-8.8480634e-10,-0.32965627,3
409647198,0.709695,0.0054249545,0.00038713764,0.7044881,-0.9441011,-2.5442032e-10,-8.8480634e-10,-0.32965627,3
409667182,0.71011144,0.005207627,0.00027848216,0.70407,-0.9441011,-2.5442032e-10,-8.8480634e-10,-0.32965627,3
409687167,0.71049535,0.0052177343,0.00020282161,0.7036826,-0.9441011,-2.5442032e-10,-8.8480634e-10,-0.32965627,3
409707153,0.70942146,0.0052093198,0.00041651953,0.7047652,-0.9441011,-2.5442032e-10,-8.8480634e-10,-0.32965627,3
409727138,0.71112174,0.0050164126,0.00016218136,0.703051,-0.9441011,-2.5442032e-10,-8.8480634e-10,-0.32965627,3
409747123,0.7089163,0.00523789,0.0004706831,0.70527303,-0.9441011,-2.5442032e-10,-8.8480634e-10,-0.32965627,3
409767109,0.7113338,0.005070632,0.00015264853,0.70283616,-0.9441011,-2.5442032e-10,-8.8480634e-10,-0.32965627,3
409787094,0.70885247,0.0053758593,0.0005516427,0.70533615,-0.9441011,-2.5442032e-10,-8.8480634e-10,-0.32965627,3
409807079,0.7111883,0.0050993515,0.00016831238,0.7029832,-0.9441011,-2.5442032e-10,-8.8480634e-10,-0.32965627,3
409827065,0.70905364,0.0053500403,0.00048318753,0.7051341,-0.9441011,-2.5442032e-10,-8.8480634e-10,-0.32965627,3
409847049,0.7106896,0.0051895706,0.00019235793,0.7034866,-0.9441011,-2.5442032e-10,-8.8480634e-10,-0.32965627,3
409867035,0.70967066,0.005339408,0.00043493186,0.7045133,-0.9441011,-2.5442032e-10,-8.8480634e-10,-0.32965627,3
409887021,0.7098553,0.005321043,0.00029204527,0.7043274,-0.9441011,-2.5442032e-10,-8.8480634e-10,-0.32965627,3
409907005,0.7104608,0.005269879,0.00030330234,0.703717,-0.9441011,-2.5442032e-10,-8.8480634e-10,-0.32965627,3
409926990,0.70929456,0.00554462,0.00039385076,0.7048903,-0.9441011,-2.5442032e-10,-8.8480634e-10,-0.32965627,3
409946977,0.71078795,0.0052539953,0.00025344946,0.7033867,-0.9441011,-2.5442032e-10,-8.8480634e-10,-0.32965627,3
409966961,0.7093167,0.0054865545,0.00036063406,0.70486856,-0.9441011,-2.5442032e-10,-8.8480634e-10,-0.32965627,3
409986946,0.71065253,0.005251128,0.00024151873,0.7035235,-0.9441011,-2.5442032e-10,-8.8480634e-10,-0.32965627,3
410006932,0.70976216,0.005459991,0.00037880542,0.70442015,-0.9441011,-2.5442032e-10,-8.8480634e-10,-0.32965627,3
410026917,0.71007234,0.0053656623,0.00029207804,0.70410836,-0.9441011,-2.5442032e-10,-8.8480634e-10,-0.32965627,3
410046903,0.71037817,0.005306946,0.00030596997,0.70380014,-0.9441011,-2.5442032e-10,-8.8480634e-10,-0.32965627,3
410066888,0.7096269,0.0053329333,0.00031734243,0.7045574,-0.9441011,-2.5442032e-10,-8.8480634e-10,-0.32965627,3
410086873,0.7106792,0.005231952,0.0002158777,0.70349675,-0.9441011,-2.5442032e-10,-8.8480634e-10,-0.32965627,3
410106858,0.70957726,0.0053269016,0.0003109372,0.7046074,-0.9441011,-2.5442032e-10,-8.8480634e-10,-0.32965627,3
410126843,0.7104171,0.0051715476,0.00023651384,0.7037619,-0.9441011,-2.5442032e-10,-8.8480634e-10,-0.32965627,3
410146830,0.71000004,0.0052290508,0.00031792192,0.70418227,-0.9441011,-2.5442032e-10,-8.8480634e-10,-0.32965627,3
410166816,0.70989543,0.005178705,0.00020942678,0.7042881,-0.9441011,-2.5442032e-10,-8.8480634e-10,-0.32965627,3
410186800,0.71049017,0.005192719,0.0002928846,0.70368797,-0.9441011,-2.5442032e-10,-8.8480634e-10,-0.32965627,3
410206785,0.70962775,0.005269311,0.00031654586,0.7045571,-0.9441011,-2.5442032e-10,-8.8480634e-10,-0.32965627,3
410226769,0.7105066,0.0051913667,0.0001776809,0.70367134,-0.9441011,-2.5442032e-10,-8.8480634e-10,-0.32965627,3
410246755,0.7097734,0.005308977,0.00028808368,0.7044101,-0.9441011,-2.5442032e-10,-8.8480634e-10,-0.32965627,3
410271736,0.709808,0.0051016402,0.0003624115,0.7043767,-0.9441011,-2.5442032e-10,-8.8480634e-10,-0.32965627,3
410286725,0.7101929,0.005322919,0.00017129384,0.70398706,-0.9441011,-2.5442032e-10,-8.8480634e-10,-0.32965627,3
410306714,0.7096455,0.005339372,0.0003112158,0.7045387,-0.9441011,-2.5442032e-10,-8.8480634e-10,-0.32965627,3
410326696,0.71046454,0.0052478705,0.0001857174,0.7037135,-0.9441011,-2.5442032e-10,-8.8480634e-10,-0.32965627,3
410346682,0.70952713,0.005395066,0.00028676054,0.7046575,-0.9441011,-2.5442032e-10,-8.8480634e-10,-0.32965627,3
410366666,0.7103052,0.0053101485,0.00015127221,0.7038739,-0.9441011,-2.5442032e-10,-8.8480634e-10,-0.32965627,3
410386652,0.70987105,0.0054418975,0.00024581683,0.70431066,-0.9441011,-2.5442032e-10,-8.8480634e-10,-0.32965627,3
410406636,0.7098563,0.005400583,0.00021929362,0.7043259,-0.9441011,-2.5442032e-10,-8.8480634e-10,-0.32965627,3
410426626,0.71039927,0.0052495287,8.644236e-05,0.70377934,-0.9441011,-2.5442032e-10,-8.8480634e-10,-0.32965627,3
410446608,0.70952797,0.0053727236,0.00027074426,0.7046568,-0.9441011,-2.5442032e-10,-8.8480634e-10,-0.32965627,3
410466592,0.7106474,0.005126123,0.00011082606,0.7035297,-0.9441011,-2.5442032e-10,-8.8480634e-10,-0.32965627,3
410486578,0.7096394,0.005217171,0.00028959964,0.7045458,-0.9441011,-2.5442032e-10,-8.8480634e-10,-0.32965627,3
410506563,0.71035075,0.0051021916,0.00028597505,0.70382935,-0.9441011,-2.5442032e-10,-8.8480634e-10,-0.32965627,3
410526548,0.7101555,0.0050596027,0.00030265702,0.70402664,-0.9441011,-2.5442032e-10,-8.8480634e-10,-0.32965627,3
410551531,0.709431,0.0053639864,0.0003371582,0.7047545,-0.9441011,-2.5442032e-10,-8.8480634e-10,-0.32965627,3
410566518,0.71066564,0.004881123,0.00015111326,0.703513,-0.9441011,-2.5442032e-10,-8.8480634e-10,-0.32965627,3
410586504,0.7096086,0.0050080037,0.00042062005,0.70457816,-0.9441011,-2.5442032e-10,-8.8480634e-10,-0.32965627,3
410606489,0.7107345,0.0048683365,0.00029656524,0.7034435,-0.9441011,-2.5442032e-10,-8.8480634e-10,-0.32965627,3
410626474,0.70973563,0.0050423983,0.00034630467,0.7044501,-0.9441011,-2.5442032e-10,-8.8480634e-10,-0.32965627,3
410646460,0.7103233,0.0050207386,0.00032503,0.70385766,-0.9441011,-2.5442032e-10,-8.8480634e-10,-0.32965627,3
410666445,0.71021926,0.0050649233,0.00025399172,0.7039624,-0.9441011,-2.5442032e-10,-8.8480634e-10,-0.32965627,3
410691430,0.7095913,0.0049289763,0.00033135133,0.7045962,-0.9441011,-2.5442032e-10,-8.8480634e-10,-0.32965627,3
410706421,0.71056724,0.005120016,0.00013781402,0.70361066,-0.9441011,-2.5442032e-10,-8.8480634e-10,-0.32965627,3
410726401,0.7093795,0.0053301184,0.00031683504,0.70480657,-0.9441011,-2.5442032e-10,-8.8480634e-10,-0.32965627,3
410746388,0.71061414,0.005154836,0.00014314183,0.7035631,-0.9441011,-2.5442032e-10,-8.8480634e-10,-0.32965627,3
410766372,0.7094768,0.005335709,0.00028447542,0.7047085,-0.9441011,-2.5442032e-10,-8.8480634e-10,-0.32965627,3
410786363,0.7103224,0.0051729456,0.000163167,0.7038575,-0.9441011,-2.5442032e-10,-8.8480634e-10,-0.32965627,3
410806347,0.710044,0.005124048,0.00023150085,0.7041386,-0.9441011,-2.5442032e-10,-8.8480634e-10,-0.32965627,3
410826327,0.70974606,0.005134968,0.00028753854,0.7044389,-0.9441011,-2.5442032e-10,-8.8480634e-10,-0.32965627,3
410846312,0.71068937,0.004883816,0.00016857812,0.703489,-0.9441011,-2.5442032e-10,-8.8480634e-10,-0.32965627,3
410866300,0.7093992,0.0049594254,0.00039419642,0.70478934,-0.9441011,-2.5442032e-10,-8.8480634e-10,-0.32965627,3
410886282,0.71089536,0.0048058294,0.00018959728,0.7032814,-0.9441011,-2.5442032e-10,-8.8480634e-10,-0.32965627,3
410906268,0.70947576,0.004862435,0.00039208937,0.704713,-0.9441011,-2.5442032e-10,-8.8480634e-10,-0.32965627,3
410926253,0.71070427,0.0048068566,0.0003106283,0.70347446,-0.9441011,-2.5442032e-10,-8.8480634e-10,-0.32965627,3
410946238,0.7098235,0.004993716,0.00041626065,0.7043618,-0.9441011,-2.5442032e-10,-8.8480634e-10,-0.32965627,3
410971221,0.7095475,0.0049172025,0.00032027857,0.70464045,-0.9441011,-2.5442032e-10,-8.8480634e-10,-0.32965627,3
410986208,0.7103624,0.0051185405,0.00024769598,0.70381755,-0.9441011,-2.5442032e-10,-8.8480634e-10,-0.32965627,3
411006194,0.70947784,0.0052140113,0.00031481354,0.7047084,-0.9441011,-2.5442032e-10,-8.8480634e-10,-0.32965627,3
411026179,0.7107306,0.0051065143,0.00017492307,0.70344573,-0.9441011,-2.5442032e-10,-8.8480634e-10,-0.32965627,3
411046166,0.7091349,0.0053209844,0.00037590813,0.70505273,-0.9441011,-2.5442032e-10,-8.8480634e-10,-0.32965627,3
411066151,0.7107968,0.0050220396,0.00013370566,0.7033795,-0.9441011,-2.5442032e-10,-8.8480634e-10,-0.32965627,3
411086136,0.70935434,0.005129203,0.0003426595,0.7048334,-0.9441011,-2.5442032e-10,-8.8480634e-10,-0.32965627,3
411111127,0.70966023,0.005201969,0.00023020308,0.7045249,-0.9441011,-2.5442032e-10,-8.8480634e-10,-0.32965627,3
411126105,0.7099904,0.0048786546,0.00032641555,0.7041945,-0.9441011,-2.5442032e-10,-8.8480634e-10,-0.32965627,3
411146091,0.70991784,0.004873963,0.00035838966,0.70426756,-0.9441011,-2.5442032e-10,-8.8480634e-10,-0.32965627,3
411171073,0.7108955,0.0047854036,8.802383e-05,0.70328146,-0.9441011,-2.5442032e-10,-8.8480634e-10,-0.32965627,3
411186061,0.7093864,0.0049401564,0.00048968254,0.7048024,-0.9441011,-2.5442032e-10,-8.8480634e-10,-0.32965627,3
411206047,0.71092993,0.0049305554,0.00030579805,0.7032455,-0.9441011,-2.5442032e-10,-8.8480634e-10,-0.32965627,3
411226032,0.70904166,0.0051535335,0.00053206674,0.7051475,-0.9441011,-2.5442032e-10,-8.8480634e-10,-0.32965627,3
411251015,0.7103793,0.004880648,0.0003443289,0.70380205,-0.9441011,-2.5442032e-10,-8.8480634e-10,-0.32965627,3
411266002,0.7091138,0.0053165862,0.00036603946,0.705074,-0.9441011,-2.5442032e-10,-8.8480634e-10,-0.32965627,3
411285988,0.71054083,0.005065649,0.00019668881,0.7036377,-0.9441011,-2.5442032e-10,-8.8480634e-10,-0.32965627,3
411310969,0.71035177,0.0050447416,0.00017765498,0.70382875,-0.9441011,-2.5442032e-10,-8.8480634e-10,-0.32965627,3
411325958,0.71008515,0.0049172915,0.00030256217,0.7040986,-0.9441011,-2.5442032e-10,-8.8480634e-10,-0.32965627,3
411345943,0.7104316,0.0047984086,0.00025840767,0.7037499,-0.9441011,-2.5442032e-10,-8.8480634e-10,-0.32965627,3
411365930,0.7094124,0.0049374485,0.0005050868,0.70477617,-0.9441011,-2.5442032e-10,-8.8480634e-10,-0.32965627,3
411390910,0.7110936,0.00470696,0.00018868383,0.70308167,-0.9441011,-2.5442032e-10,-8.8480634e-10,-0.32965627,3
411405899,0.7089008,0.0051495126,0.00048534735,0.70528924,-0.9441011,-2.5442032e-10,-8.8480634e-10,-0.32965627,3
411425885,0.71087503,0.0049801054,0.0001318369,0.7033007,-0.9441011,-2.5442032e-10,-8.8480634e-10,-0.32965627,3
411450866,0.70945764,0.0052054636,0.0003888245,0.7047287,-0.9441011,-2.5442032e-10,-8.8480634e-10,-0.32965627,3
411465855,0.71091884,0.0047971024,-2.9044122e-06,0.7032577,-0.9441011,-2.5442032e-10,-8.8480634e-10,-0.32965627,3
411485841,0.70944923,0.0048311353,0.0002092049,0.7047399,-0.9441011,-2.5442032e-10,-8.8480634e-10,-0.32965627,3
411505826,0.71054184,0.004734169,0.00029580927,0.70363903,-0.9441011,-2.5442032e-10,-8.8480634e-10,-0.32965627,3
411530808,0.7108731,0.0047686724,0.0001626554,0.7033041,-0.9441011,-2.5442032e-10,-8.8480634e-10,-0.32965627,3
411545796,0.70977205,0.0050227162,0.00045518565,0.7044134,-0.9441011,-2.5442032e-10,-8.8480634e-10,-0.32965627,3
411565781,0.7102582,0.0050463593,0.00023396728,0.7039232,-0.9441011,-2.5442032e-10,-8.8480634e-10,-0.32965627,3
411590763,0.70907855,0.0052332077,0.00054266775,0.7051099,-0.9441011,-2.5442032e-10,-8.8480634e-10,-0.32965627,3
411605752,0.71108377,0.0046007447,-0.00015995679,0.7030922,-0.9441011,-2.5442032e-10,-8.8480634e-10,-0.32965627,3
411625738,0.7094951,0.0048291474,0.00020096956,0.7046938,-0.9441011,-2.5442032e-10,-8.8480634e-10,-0.32965627,3
411650720,0.71024054,0.004785632,0.00013715621,0.7039429,-0.9441011,-2.5442032e-10,-8.8480634e-10,-0.32965627,3
411670704,0.7102975,0.0048872544,0.0004596534,0.70388454,-0.9441011,-2.5442032e-10,-8.8480634e-10,-0.32965627,3
411685693,0.7099146,0.0049908278,0.0003146353,0.70427006,-0.9441011,-2.5442032e-10,-8.8480634e-10,-0.32965627,3
411710676,0.7104457,0.004976697,0.0004385292,0.7037344,-0.9441011,-2.5442032e-10,-8.8480634e-10,-0.32965627,3
411730659,0.7094252,0.0050483495,0.00035361946,0.70476264,-0.9441011,-2.5442032e-10,-8.8480634e-10,-0.32965627,3
411745649,0.7107201,0.0046864026,0.00013171283,0.7034593,-0.9441011,-2.5442032e-10,-8.8480634e-10,-0.32965627,3
411765634,0.7095949,0.0049047805,0.00048495072,0.7045927,-0.9441011,-2.5442032e-10,-8.8480634e-10,-0.32965627,3
411790617,0.70998394,0.004746917,0.00039275846,0.70420176,-0.9441011,-2.5442032e-10,-8.8480634e-10,-0.32965627,3
411810601,0.71022224,0.005006889,0.00059873454,0.70395947,-0.9441011,-2.5442032e-10,-8.8480634e-10,-0.32965627,3
411825589,0.70986444,0.0048617534,0.0002907954,0.70432156,-0.9441011,-2.5442032e-10,-8.8480634e-10,-0.32965627,3
411845575,0.71063375,0.0045259763,9.1072425e-06,0.70354754,-0.9441011,-2.5442032e-10,-8.8480634e-10,-0.32965627,3
411870557,0.70996404,0.004559772,-4.9882065e-06,0.70422316,-0.9441011,-2.5442032e-10,-8.8480634e-10,-0.32965627,3
411885545,0.71042424,0.0050111334,0.00061273837,0.7037557,-0.9441011,-2.5442032e-10,-8.8480634e-10,-0.32965627,3
411905531,0.70938313,0.0051589045,0.0007707309,0.7048038,-0.9441011,-2.5442032e-10,-8.8480634e-10,-0.32965627,3
411930514,0.7095462,0.005091297,0.0006685144,0.70464027,-0.9441011,-2.5442032e-10,-8.8480634e-10,-0.32965627,3
411950499,0.71039873,0.0046083047,0.00018679704,0.7037844,-0.9441011,-2.5442032e-10,-8.8480634e-10,-0.32965627,3
411965487,0.7099846,0.0046821716,0.00016517579,0.7042017,-0.9441011,-2.5442032e-10,-8.8480634e-10,-0.32965627,3
411985472,0.7102851,0.005024096,0.0006165529,0.703896,-0.9441011,-2.5442032e-10,-8.8480634e-10,-0.32965627,3
412010454,0.70965403,0.005176364,0.0006003721,0.7045311,-0.9441011,-2.5442032e-10,-8.8480634e-10,-0.32965627,3
412025443,0.71041876,0.004622859,0.00027075614,0.70376396,-0.9441011,-2.5442032e-10,-8.8480634e-10,-0.32965627,3
412045428,0.71004987,0.0044871834,-1.2476958e-05,0.7041371,-0.9441011,-2.5442032e-10,-8.8480634e-10,-0.32965627,3
412070409,0.7099947,0.0044815703,3.629334e-05,0.7041928,-0.9441011,-2.5442032e-10,-8.8480634e-10,-0.32965627,3
412090394,0.71060854,0.004681335,3.6819463e-05,0.70357203,-0.9441011,-2.5442032e-10,-8.8480634e-10,-0.32965627,3
412105384,0.7094397,0.005017373,0.00069202686,0.70474803,-0.9441011,-2.5442032e-10,-8.8480634e-10,-0.32965627,3
412130365,0.7101239,0.0048364587,0.000535441,0.70406,-0.9441011,-2.5442032e-10,-8.8480634e-10,-0.32965627,3
412150352,0.7099594,0.0044864533,0.00013743703,0.7042284,-0.9441011,-2.5442032e-10,-8.8480634e-10,-0.32965627,3
412165341,0.71038336,0.0047243014,0.000244678,0.70379907,-0.9441011,-2.5442032e-10,-8.8480634e-10,-0.32965627,3
412185325,0.7096502,0.0050962074,0.0006888789,0.7045355,-0.9441011,-2.5442032e-10,-8.8480634e-10,-0.32965627,3
412210306,0.7093308,0.0051697018,0.00069914554,0.7048565,-0.9441011,-2.5442032e-10,-8.8480634e-10,-0.32965627,3
412230291,0.7103439,0.0046115196,0.0003481962,0.7038396,-0.9441011,-2.5442032e-10,-8.8480634e-10,-0.32965627,3
412245281,0.70980084,0.0046267663,0.00018163044,0.70438725,-0.9441011,-2.5442032e-10,-8.8480634e-10,-0.32965627,3
412270262,0.7104498,0.004651423,7.885051e-05,0.70373255,-0.9441011,-2.5442032e-10,-8.8480634e-10,-0.32965627,3
412290247,0.709799,0.005086354,0.0006529026,0.7043857,-0.9441011,-2.5442032e-10,-8.8480634e-10,-0.32965627,3
412305236,0.7103348,0.0044972124,0.00020101153,0.7038496,-0.9441011,-2.5442032e-10,-8.8480634e-10,-0.32965627,3
412325222,0.7102422,0.00445962,8.2531085e-05,0.7039433,-0.9441011,-2.5442032e-10,-8.8480634e-10,-0.32965627,3
412350203,0.70984775,0.0045197774,0.000115443865,0.70434064,-0.9441011,-2.5442032e-10,-8.8480634e-10,-0.32965627,3
412370188,0.7104428,0.0048218756,0.0003463226,0.7037384,-0.9441011,-2.5442032e-10,-8.8480634e-10,-0.32965627,3
412385177,0.70949924,0.0047742217,0.00050111546,0.7046899,-0.9441011,-2.5442032e-10,-8.8480634e-10,-0.32965627,3
412410159,0.71017355,0.0046253284,0.0002935296,0.7040115,-0.9441011,-2.5442032e-10,-8.8480634e-10,-0.32965627,3
412430144,0.7102595,0.004394121,4.4632605e-05,0.70392627,-0.9441011,-2.5442032e-10,-8.8480634e-10,-0.32965627,3
412445134,0.7100365,0.0049809683,0.0006085611,0.7041471,-0.9441011,-2.5442032e-10,-8.8480634e-10,-0.32965627,3
412465119,0.70988,0.0047339136,0.0005422487,0.7043066,-0.9441011,-2.5442032e-10,-8.8480634e-10,-0.32965627,3
412490099,0.7094311,0.004842672,0.000559733,0.704758,-0.9441011,-2.5442032e-10,-8.8480634e-10,-0.32965627,3
412510084,0.71065533,0.0043666014,0.00010658109,0.7035268,-0.9441011,-2.5442032e-10,-8.8480634e-10,-0.32965627,3
412525074,0.7094337,0.0050478545,0.0005781999,0.70475394,-0.9441011,-2.5442032e-10,-8.8480634e-10,-0.32965627,3
412550056,0.70994306,0.004930733,0.00066733256,0.7042416,-0.9441011,-2.5442032e-10,-8.8480634e-10,-0.32965627,3
412570041,0.70996904,0.004611869,0.00057924556,0.7042176,-0.9441011,-2.5442032e-10,-8.8480634e-10,-0.32965627,3
412585030,0.71039015,0.0044339737,8.458389e-05,0.7037942,-0.9441011,-2.5442032e-10,-8.8480634e-10,-0.32965627,3
412605015,0.7098946,0.004916677,0.0005582116,0.70429057,-0.9441011,-2.5442032e-10,-8.8480634e-10,-0.32965627,3
412629996,0.70922387,0.005020756,0.0007156122,0.7049651,-0.9441011,-2.5442032e-10,-8.8480634e-10,-0.32965627,3
412649982,0.7104951,0.004452829,0.00037764406,0.70368797,-0.9441011,-2.5442032e-10,-8.8480634e-10,-0.32965627,3
412664971,0.70965236,0.004604449,0.00025908474,0.704537,-0.9441011,-2.5442032e-10,-8.8480634e-10,-0.32965627,3
412689952,0.7103639,0.004613607,0.00042582443,0.7038194,-0.9441011,-2.5442032e-10,-8.8480634e-10,-0.32965627,3
412709937,0.70972294,0.0049280385,0.00076635816,0.70446336,-0.9441011,-2.5442032e-10,-8.8480634e-10,-0.32965627,3
412724928,0.7105466,0.0041865273,3.8158316e-05,0.7036378,-0.9441011,-2.5442032e-10,-8.8480634e-10,-0.32965627,3
412744913,0.7100485,0.0046899305,0.00032600758,0.70413715,-0.9441011,-2.5442032e-10,-8.8480634e-10,-0.32965627,3
412769893,0.709495,0.00475432,0.0005378423,0.7046943,-0.9441011,-2.5442032e-10,-8.8480634e-10,-0.32965627,3
412789878,0.7103958,0.0046982197,0.0007034593,0.70378643,-0.9441011,-2.5442032e-10,-8.8480634e-10,-0.32965627,3
412804868,0.7096336,0.004339159,0.0002100814,0.7045576,-0.9441011,-2.5442032e-10,-8.8480634e-10,-0.32965627,3
412829850,0.71073806,0.004309365,0.00015975318,0.7034436,-0.9441011,-2.5442032e-10,-8.8480634e-10,-0.32965627,3
412849834,0.70966816,0.004901646,0.00066492264,0.70451885,-0.9441011,-2.5442032e-10,-8.8480634e-10,-0.32965627,3
412864824,0.7106179,0.0043812385,0.00040198507,0.70356447,-0.9441011,-2.5442032e-10,-8.8480634e-10,-0.32965627,3
412884809,0.70976204,0.004535413,0.000289658,0.704427,-0.9441011,-2.5442032e-10,-8.8480634e-10,-0.32965627,3
412909790,0.70967436,0.0045596706,0.00037461694,0.70451504,-0.9441011,-2.5442032e-10,-8.8480634e-10,-0.32965627,3
412929776,0.71052366,0.004651528,0.0006157258,0.70365775,-0.9441011,-2.5442032e-10,-8.8480634e-10,-0.32965627,3
412944765,0.70985264,0.0043121045,0.00023104683,0.704337,-0.9441011,-2.5442032e-10,-8.8480634e-10,-0.32965627,3
412969746,0.7110807,0.0042557833,5.6754266e-06,0.70309764,-0.9441011,-2.5442032e-10,-8.8480634e-10,-0.32965627,3
412989731,0.7092186,0.004928125,0.000607802,0.7049712,-0.9441011,-2.5442032e-10,-8.8480634e-10,-0.32965627,3
413004721,0.7108984,0.0042827544,0.00031779165,0.7032816,-0.9441011,-2.5442032e-10,-8.8480634e-10,-0.32965627,3
413024706,0.70943606,0.0044137933,0.00029018018,0.704756,-0.9441011,-2.5442032e-10,-8.8480634e-10,-0.32965627,3
413049688,0.7103727,0.004454234,0.00015099271,0.7038117,-0.9441011,-2.5442032e-10,-8.8480634e-10,-0.32965627,3
413069672,0.7099207,0.004800029,0.00077814906,0.7042649,-0.9441011,-2.5442032e-10,-8.8480634e-10,-0.32965627,3
413084662,0.71055996,0.004253228,0.00020452842,0.7036238,-0.9441011,-2.5442032e-10,-8.8480634e-10,-0.32965627,3
413109644,0.71082586,0.0043970933,0.000109663306,0.7033544,-0.9441011,-2.5442032e-10,-8.8480634e-10,-0.32965627,3
413129628,0.7092206,0.004945596,0.00067282596,0.704969,-0.9441011,-2.5442032e-10,-8.8480634e-10,-0.32965627,3
413144617,0.71044916,0.004276539,0.00034362255,0.70373553,-0.9441011,-2.5442032e-10,-8.8480634e-10,-0.32965627,3
413164602,0.7095599,0.0045037186,0.00028580858,0.70463073,-0.9441011,-2.5442032e-10,-8.8480634e-10,-0.32965627,3
413189584,0.7107821,0.004576202,0.00044780216,0.70339733,-0.9441011,-2.5442032e-10,-8.8480634e-10,-0.32965627,3
413204573,0.70906246,0.004585023,0.0007258922,0.7051304,-0.9441011,-2.5442032e-10,-8.8480634e-10,-0.32965627,3
413224559,0.7109714,0.0043099625,0.00025135308,0.70320773,-0.9441011,-2.5442032e-10,-8.8480634e-10,-0.32965627,3
413249542,0.70987445,0.004673317,0.0005404985,0.7043126,-0.9441011,-2.5442032e-10,-8.8480634e-10,-0.32965627,3
413269525,0.70965296,0.0048186365,0.0008170952,0.70453453,-0.9441011,-2.5442032e-10,-8.8480634e-10,-0.32965627,3
413284514,0.70996726,0.004382404,0.00044280355,0.70422095,-0.9441011,-2.5442032e-10,-8.8480634e-10,-0.32965627,3
413309496,0.70956856,0.00456594,0.00040546016,0.7046215,-0.9441011,-2.5442032e-10,-8.8480634e-10,-0.32965627,3
413329481,0.7103995,0.0047191666,0.00067162554,0.7037825,-0.9441011,-2.5442032e-10,-8.8480634e-10,-0.32965627,3
413349466,0.7094799,0.004450497,0.00056540855,0.7047114,-0.9441011,-2.5442032e-10,-8.8480634e-10,-0.32965627,3
413364456,0.7105625,0.0045555998,0.00045263302,0.70361924,-0.9441011,-2.5442032e-10,-8.8480634e-10,-0.32965627,3
413389437,0.7097974,0.004852881,0.0008304823,0.7043887,-0.9441011,-2.5442032e-10,-8.8480634e-10,-0.32965627,3
413409422,0.70977575,0.0045103184,0.0007010872,0.704413,-0.9441011,-2.5442032e-10,-8.8480634e-10,-0.32965627,3
413424412,0.7099837,0.004758086,0.000543708,0.7042018,-0.9441011,-2.5442032e-10,-8.8480634e-10,-0.32965627,3
413449393,0.7093679,0.004940794,0.0008896334,0.70482063,-0.9441011,-2.5442032e-10,-8.8480634e-10,-0.32965627,3
413469378,0.710486,0.0042825695,0.0006269562,0.7036981,-0.9441011,-2.5442032e-10,-8.8480634e-10,-0.32965627,3
413489364,0.70974976,0.004519686,0.0004886793,0.7044393,-0.9441011,-2.5442032e-10,-8.8480634e-10,-0.32965627,3
413504352,0.7103124,0.0045619095,0.00080757984,0.7038714,-0.9441011,-2.5442032e-10,-8.8480634e-10,-0.32965627,3
413529334,0.71000886,0.0043446473,0.0007374503,0.70417905,-0.9441011,-2.5442032e-10,-8.8480634e-10,-0.32965627,3
413549319,0.70986676,0.004408339,0.00049937586,0.70432204,-0.9441011,-2.5442032e-10,-8.8480634e-10,-0.32965627,3
413564308,0.70989764,0.0046198005,0.0009257694,0.70428914,-0.9441011,-2.5442032e-10,-8.8480634e-10,-0.32965627,3
413589289,0.709524,0.004342737,0.0007152898,0.7046676,-0.9441011,-2.5442032e-10,-8.8480634e-10,-0.32965627,3
413609274,0.7104689,0.004466175,0.00052885624,0.7037143,-0.9441011,-2.5442032e-10,-8.8480634e-10,-0.32965627,3
413629259,0.7096082,0.004738735,0.0009340832,0.70457995,-0.9441011,-2.5442032e-10,-8.8480634e-10,-0.32965627,3
413644251,0.7104871,0.004263798,0.00049325085,0.70369714,-0.9441011,-2.5442032e-10,-8.8480634e-10,-0.32965627,3
413669231,0.71022534,0.0046142503,0.00058237213,0.7039591,-0.9441011,-2.5442032e-10,-8.8480634e-10,-0.32965627,3
413689216,0.7094497,0.004649766,0.00093872903,0.7047401,-0.9441011,-2.5442032e-10,-8.8480634e-10,-0.32965627,3
413704205,0.7103352,0.0044349814,0.0005510516,0.7038494,-0.9441011,-2.5442032e-10,-8.8480634e-10,-0.32965627,3
413729186,0.70948416,0.004807069,0.00077679544,0.70470464,-0.9441011,-2.5442032e-10,-8.8480634e-10,-0.32965627,3
413749172,0.71028215,0.004263004,0.00066255627,0.70390385,-0.9441011,-2.5442032e-10,-8.8480634e-10,-0.32965627,3
413769157,0.7100106,0.0045299637,0.0005299184,0.7041763,-0.9441011,-2.5442032e-10,-8.8480634e-10,-0.32965627,3
413784146,0.71019185,0.004411122,0.00080810534,0.7039939,-0.9441011,-2.5442032e-10,-8.8480634e-10,-0.32965627,3
413809127,0.71041596,0.00422074,0.0004892473,0.7037692,-0.9441011,-2.5442032e-10,-8.8480634e-10,-0.32965627,3
413829112,0.7095442,0.0046641002,0.0005849964,0.7046453,-0.9441011,-2.5442032e-10,-8.8480634e-10,-0.32965627,3
413844102,0.71032506,0.0042885365,0.00067806715,0.70386046,-0.9441011,-2.5442032e-10,-8.8480634e-10,-0.32965627,3
413869084,0.709691,0.004347488,0.0005701113,0.70449954,-0.9441011,-2.5442032e-10,-8.8480634e-10,-0.32965627,3
413889068,0.71018183,0.0046295333,0.0007665253,0.70400274,-0.9441011,-2.5442032e-10,-8.8480634e-10,-0.32965627,3
413909054,0.7098629,0.0044821673,0.0008377958,0.70432526,-0.9441011,-2.5442032e-10,-8.8480634e-10,-0.32965627,3
413924047,0.71027166,0.004591814,0.00056256214,0.70391256,-0.9441011,-2.5442032e-10,-8.8480634e-10,-0.32965627,3
413949024,0.7101546,0.0046549984,0.00090523367,0.70402986,-0.9441011,-2.5442032e-10,-8.8480634e-10,-0.32965627,3
413969009,0.7095304,0.0043739756,0.0008090742,0.70466083,-0.9441011,-2.5442032e-10,-8.8480634e-10,-0.32965627,3
413984001,0.7102028,0.0047244392,0.000745573,0.70398104,-0.9441011,-2.5442032e-10,-8.8480634e-10,-0.32965627,3
414008982,0.709394,0.0046815136,0.0010024521,0.7047959,-0.9441011,-2.5442032e-10,-8.8480634e-10,-0.32965627,3
414028966,0.7103221,0.0042602182,0.00057426264,0.7038637,-0.9441011,-2.5442032e-10,-8.8480634e-10,-0.32965627,3
414048950,0.7098205,0.0047270674,0.00094398664,0.70436615,-0.9441011,-2.5442032e-10,-8.8480634e-10,-0.32965627,3
414068936,0.70971584,0.004438565,0.00086581765,0.7044735,-0.9441011,-2.5442032e-10,-8.8480634e-10,-0.32965627,3
414088923,0.71043897,0.0044216057,0.00060248526,0.70374477,-0.9441011,-2.5442032e-10,-8.8480634e-10,-0.32965627,3
414108906,0.709279,0.004720805,0.0009961061,0.7049115,-0.9441011,-2.5442032e-10,-8.8480634e-10,-0.32965627,3
414123896,0.71048886,0.0045157783,0.00062111416,0.70369375,-0.9441011,-2.5442032e-10,-8.8480634e-10,-0.32965627,3
414148877,0.7093728,0.0049056145,0.0009559393,0.7048158,-0.9441011,-2.5442032e-10,-8.8480634e-10,-0.32965627,3
414168863,0.7103261,0.0042531462,0.00070623093,0.7038597,-0.9441011,-2.5442032e-10,-8.8480634e-10,-0.32965627,3
414188849,0.7099224,0.00466627,0.0006344634,0.7042643,-0.9441011,-2.5442032e-10,-8.8480634e-10,-0.32965627,3
414208837,0.70963514,0.00460562,0.0009458763,0.7045537,-0.9441011,-2.5442032e-10,-8.8480634e-10,-0.32965627,3
414228818,0.71048576,0.004334252,0.00051730307,0.70369816,-0.9441011,-2.5442032e-10,-8.8480634e-10,-0.32965627,3
414248804,0.7092843,0.0048832637,0.00091342826,0.7049051,-0.9441011,-2.5442032e-10,-8.8480634e-10,-0.32965627,3
414263795,0.7104383,0.004268441,0.00061956386,0.7037464,-0.9441011,-2.5442032e-10,-8.8480634e-10,-0.32965627,3
414288774,0.7094141,0.0047063227,0.00069702725,0.70477587,-0.9441011,-2.5442032e-10,-8.8480634e-10,-0.32965627,3
414308759,0.71032965,0.0045070867,0.0008067087,0.7038543,-0.9441011,-2.5442032e-10,-8.8480634e-10,-0.32965627,3
414328744,0.7098506,0.004384283,0.0006034823,0.7043385,-0.9441011,-2.5442032e-10,-8.8480634e-10,-0.32965627,3
414348730,0.7098219,0.004687308,0.0008823624,0.70436513,-0.9441011,-2.5442032e-10,-8.8480634e-10,-0.32965627,3
414368715,0.710255,0.004238198,0.0006818673,0.7039314,-0.9441011,-2.5442032e-10,-8.8480634e-10,-0.32965627,3
414388700,0.7094346,0.004767749,0.00088702515,0.70475465,-0.9441011,-2.5442032e-10,-8.8480634e-10,-0.32965627,3
414403690,0.7102116,0.004240236,0.00067570584,0.7039752,-0.9441011,-2.5442032e-10,-8.8480634e-10,-0.32965627,3
414428671,0.7093209,0.0046145953,0.00080683175,0.70487016,-0.9441011,-2.5442032e-10,-8.8480634e-10,-0.32965627,3
414448656,0.7104727,0.004518126,0.0008795891,0.7037097,-0.9441011,-2.5442032e-10,-8.8480634e-10,-0.32965627,3
414468641,0.70947176,0.0044325977,0.00071010494,0.7047196,-0.9441011,-2.5442032e-10,-8.8480634e-10,-0.32965627,3
414488627,0.7101981,0.0046767932,0.00092668086,0.7039858,-0.9441011,-2.5442032e-10,-8.8480634e-10,-0.32965627,3
414508612,0.70995855,0.004335527,0.00071022403,0.70422983,-0.9441011,-2.5442032e-10,-8.8480634e-10,-0.32965627,3
414528597,0.7097695,0.004848246,0.0008880414,0.7044169,-0.9441011,-2.5442032e-10,-8.8480634e-10,-0.32965627,3
414548585,0.7103807,0.004242109,0.0007192145,0.70380455,-0.9441011,-2.5442032e-10,-8.8480634e-10,-0.32965627,3
414568568,0.7094551,0.0046984293,0.00072437,0.70473474,-0.9441011,-2.5442032e-10,-8.8480634e-10,-0.32965627,3
414588553,0.7105306,0.004393578,0.000783813,0.70365214,-0.9441011,-2.5442032e-10,-8.8480634e-10,-0.32965627,3
414608538,0.7093572,0.0045950282,0.00070677,0.7048339,-0.9441011,-2.5442032e-10,-8.8480634e-10,-0.32965627,3
414628523,0.71047705,0.004551017,0.0008311211,0.7037052,-0.9441011,-2.5442032e-10,-8.8480634e-10,-0.32965627,3
414648509,0.7095774,0.0044677597,0.00070648134,0.70461303,-0.9441011,-2.5442032e-10,-8.8480634e-10,-0.32965627,3
414668494,0.7100869,0.0047315983,0.00096121075,0.70409757,-0.9441011,-2.5442032e-10,-8.8480634e-10,-0.32965627,3
414688479,0.7099952,0.0043808185,0.0007800621,0.7041925,-0.9441011,-2.5442032e-10,-8.8480634e-10,-0.32965627,3
414708465,0.70958334,0.004903284,0.0010566487,0.7046038,-0.9441011,-2.5442032e-10,-8.8480634e-10,-0.32965627,3
414728450,0.71042615,0.0042307717,0.0007093416,0.7037587,-0.9441011,-2.5442032e-10,-8.8480634e-10,-0.32965627,3
414748436,0.7092486,0.0049215746,0.0009538133,0.7049407,-0.9441011,-2.5442032e-10,-8.8480634e-10,-0.32965627,3
414768420,0.7106404,0.0042397366,0.00077026425,0.7035423,-0.9441011,-2.5442032e-10,-8.8480634e-10,-0.32965627,3
414788406,0.7091946,0.00491312,0.00093730894,0.7049951,-0.9441011,-2.5442032e-10,-8.8480634e-10,-0.32965627,3
414808391,0.7106189,0.004231341,0.0007794271,0.70356405,-0.9441011,-2.5442032e-10,-8.8480634e-10,-0.32965627,3
414828377,0.7094093,0.0048484467,0.00083761447,0.7047796,-0.9441011,-2.5442032e-10,-8.8480634e-10,-0.32965627,3
414848362,0.7102672,0.0044019143,0.0009095336,0.7039179,-0.9441011,-2.5442032e-10,-8.8480634e-10,-0.32965627,3
414868347,0.7098097,0.004722014,0.000827222,0.7043772,-0.9441011,-2.5442032e-10,-8.8480634e-10,-0.32965627,3
414888332,0.709779,0.004487649,0.00097148574,0.7044095,-0.9441011,-2.5442032e-10,-8.8480634e-10,-0.32965627,3
414908317,0.71027404,0.0045903134,0.00086889876,0.70390975,-0.9441011,-2.5442032e-10,-8.8480634e-10,-0.32965627,3
414928303,0.70929974,0.004657983,0.0011022039,0.70489085,-0.9441011,-2.5442032e-10,-8.8480634e-10,-0.32965627,3
414948289,0.7105832,0.004384822,0.0008133052,0.70359915,-0.9441011,-2.5442032e-10,-8.8480634e-10,-0.32965627,3
414968273,0.7091608,0.004734855,0.0010812165,0.70503014,-0.9441011,-2.5442032e-10,-8.8480634e-10,-0.32965627,3
414988259,0.7106158,0.0043816986,0.0007160002,0.70356625,-0.9441011,-2.5442032e-10,-8.8480634e-10,-0.32965627,3
415008244,0.70937854,0.004660671,0.0010090745,0.70481163,-0.9441011,-2.5442032e-10,-8.8480634e-10,-0.32965627,3
415028229,0.7102107,0.004443237,0.0006647395,0.70397496,-0.9441011,-2.5442032e-10,-8.8480634e-10,-0.32965627,3
415048217,0.7098663,0.0045786006,0.0010110998,0.70432097,-0.9441011,-2.5442032e-10,-8.8480634e-10,-0.32965627,3
415068201,0.70970285,0.0045241886,0.00073568826,0.7044863,-0.9441011,-2.5442032e-10,-8.8480634e-10,-0.32965627,3
415088185,0.7103036,0.0044349246,0.0008671669,0.7038809,-0.9441011,-2.5442032e-10,-8.8480634e-10,-0.32965627,3
415108170,0.7094983,0.00458918,0.00081325165,0.70469177,-0.9441011,-2.5442032e-10,-8.8480634e-10,-0.32965627,3
415128157,0.71028024,0.004488721,0.0009611585,0.70390415,-0.9441011,-2.5442032e-10,-8.8480634e-10,-0.32965627,3
415148141,0.7096901,0.0046791323,0.000803703,0.70449805,-0.9441011,-2.5442032e-10,-8.8480634e-10,-0.32965627,3
415168126,0.7099048,0.004530368,0.001064782,0.70428234,-0.9441011,-2.5442032e-10,-8.8480634e-10,-0.32965627,3
415188111,0.7101119,0.004640226,0.00082313205,0.70407313,-0.9441011,-2.5442032e-10,-8.8480634e-10,-0.32965627,3
415208099,0.7094444,0.0045100143,0.0010084586,0.70474637,-0.9441011,-2.5442032e-10,-8.8480634e-10,-0.32965627,3
415228082,0.71037203,0.0046100575,0.00073557167,0.7038109,-0.9441011,-2.5442032e-10,-8.8480634e-10,-0.32965627,3
415248069,0.7094198,0.004484773,0.0010171407,0.70477134,-0.9441011,-2.5442032e-10,-8.8480634e-10,-0.32965627,3
415268052,0.71019614,0.0046247146,0.00076328404,0.7039883,-0.9441011,-2.5442032e-10,-8.8480634e-10,-0.32965627,3
415288037,0.70979095,0.004315095,0.00083957304,0.70439875,-0.9441011,-2.5442032e-10,-8.8480634e-10,-0.32965627,3
415308023,0.7097984,0.0047913464,0.0008053963,0.7043882,-0.9441011,-2.5442032e-10,-8.8480634e-10,-0.32965627,3
415328008,0.7102679,0.0042153103,0.0007160454,0.7039185,-0.9441011,-2.5442032e-10,-8.8480634e-10,-0.32965627,3
415347995,0.70939195,0.004857289,0.00090387155,0.70479685,-0.9441011,-2.5442032e-10,-8.8480634e-10,-0.32965627,3
415367979,0.71046203,0.004236364,0.0006903947,0.70372254,-0.9441011,-2.5442032e-10,-8.8480634e-10,-0.32965627,3
415387963,0.70940554,0.0047122743,0.0010264963,0.7047841,-0.9441011,-2.5442032e-10,-8.8480634e-10,-0.32965627,3
415407949,0.71029097,0.004276102,0.00076342496,0.7038948,-0.9441011,-2.5442032e-10,-8.8480634e-10,-0.32965627,3
415427934,0.7097876,0.0045077484,0.0010299995,0.70440066,-0.9441011,-2.5442032e-10,-8.8480634e-10,-0.32965627,3
415447921,0.709856,0.0044738674,0.00077984197,0.70433223,-0.9441011,-2.5442032e-10,-8.8480634e-10,-0.32965627,3
415467905,0.7101738,0.0043704626,0.00090538885,0.7040123,-0.9441011,-2.5442032e-10,-8.8480634e-10,-0.32965627,3
415487890,0.70954204,0.0046531,0.00083301653,0.70464736,-0.9441011,-2.5442032e-10,-8.8480634e-10,-0.32965627,3
415507877,0.71027315,0.004232736,0.00080802693,0.7039131,-0.9441011,-2.5442032e-10,-8.8480634e-10,-0.32965627,3
415527861,0.70960015,0.004787219,0.00090858166,0.70458776,-0.9441011,-2.5442032e-10,-8.8480634e-10,-0.32965627,3
415547846,0.71005505,0.0042519146,0.0008346644,0.70413285,-0.9441011,-2.5442032e-10,-8.8480634e-10,-0.32965627,3
415567831,0.7099342,0.004694521,0.00090970687,0.7042519,-0.9441011,-2.5442032e-10,-8.8480634e-10,-0.32965627,3
415587817,0.7097046,0.004359218,0.0007379758,0.7044856,-0.9441011,-2.5442032e-10,-8.8480634e-10,-0.32965627,3
415607803,0.7101989,0.004546314,0.00096204726,0.7039858,-0.9441011,-2.5442032e-10,-8.8480634e-10,-0.32965627,3
415627787,0.70952886,0.004634126,0.0007889357,0.70466083,-0.9441011,-2.5442032e-10,-8.8480634e-10,-0.32965627,3
415647774,0.7101265,0.004411781,0.0008979385,0.7040597,-0.9441011,-2.5442032e-10,-8.8480634e-10,-0.32965627,3
415667758,0.7097488,0.0048112352,0.000918781,0.70443785,-0.9441011,-2.5442032e-10,-8.8480634e-10,-0.32965627,3
415687743,0.70983523,0.004327638,0.0008888022,0.704354,-0.9441011,-2.5442032e-10,-8.8480634e-10,-0.32965627,3
415707728,0.71010065,0.0047391513,0.000987863,0.7040836,-0.9441011,-2.5442032e-10,-8.8480634e-10,-0.32965627,3
415727715,0.70956206,0.0044309814,0.0008429058,0.7046286,-0.9441011,-2.5442032e-10,-8.8480634e-10,-0.32965627,3
415747700,0.7102688,0.0044737775,0.0010267298,0.7039156,-0.9441011,-2.5442032e-10,-8.8480634e-10,-0.32965627,3
415767685,0.70952624,0.0046236105,0.0009197152,0.70466334,-0.9441011,-2.5442032e-10,-8.8480634e-10,-0.32965627,3
415787670,0.7101447,0.00434238,0.0009438511,0.7040418,-0.9441011,-2.5442032e-10,-8.8480634e-10,-0.32965627,3
415807660,0.7097887,0.0047973422,0.0010574248,0.70439756,-0.9441011,-2.5442032e-10,-8.8480634e-10,-0.32965627,3
415827640,0.70978767,0.004363912,0.0009468883,0.70440155,-0.9441011,-2.5442032e-10,-8.8480634e-10,-0.32965627,3
415847625,0.71014786,0.0046774484,0.0009989239,0.7040364,-0.9441011,-2.5442032e-10,-8.8480634e-10,-0.32965627,3
415867611,0.7094874,0.0044522015,0.00087513344,0.7047035,-0.9441011,-2.5442032e-10,-8.8480634e-10,-0.32965627,3
415887596,0.71031004,0.0044758916,0.0009139,0.70387423,-0.9441011,-2.5442032e-10,-8.8480634e-10,-0.32965627,3
415907581,0.7094806,0.0046609584,0.0008128736,0.70470923,-0.9441011,-2.5442032e-10,-8.8480634e-10,-0.32965627,3
415927566,0.71021485,0.004255542,0.00084698293,0.7039716,-0.9441011,-2.5442032e-10,-8.8480634e-10,-0.32965627,3
415947553,0.7097561,0.0048162146,0.0009913879,0.7044305,-0.9441011,-2.5442032e-10,-8.8480634e-10,-0.32965627,3
415967537,0.7098879,0.004312891,0.0008148699,0.70430106,-0.9441011,-2.5442032e-10,-8.8480634e-10,-0.32965627,3
415987522,0.71014893,0.004603543,0.0009554046,0.7040358,-0.9441011,-2.5442032e-10,-8.8480634e-10,-0.32965627,3
416007507,0.70948213,0.004619537,0.00089335087,0.7047078,-0.9441011,-2.5442032e-10,-8.8480634e-10,-0.32965627,3
416027492,0.7104935,0.0042530852,0.0008961494,0.70369047,-0.9441011,-2.5442032e-10,-8.8480634e-10,-0.32965627,3
416047478,0.70928574,0.004912474,0.0011085717,0.7049032,-0.9441011,-2.5442032e-10,-8.8480634e-10,-0.32965627,3
416067463,0.7104501,0.004237834,0.0008539067,0.7037344,-0.9441011,-2.5442032e-10,-8.8480634e-10,-0.32965627,3
416087448,0.70952326,0.0047323974,0.001176042,0.7046652,-0.9441011,-2.5442032e-10,-8.8480634e-10,-0.32965627,3
416107433,0.7100699,0.004530016,0.0009134674,0.7041161,-0.9441011,-2.5442032e-10,-8.8480634e-10,-0.32965627,3
416127419,0.7100405,0.0042947982,0.00092309,0.7041472,-0.9441011,-2.5442032e-10,-8.8480634e-10,-0.32965627,3
416147404,0.7094871,0.004810635,0.0009796771,0.70470136,-0.9441011,-2.5442032e-10,-8.8480634e-10,-0.32965627,3
416167390,0.7104837,0.0041615954,0.0006956037,0.7037011,-0.9441011,-2.5442032e-10,-8.8480634e-10,-0.32965627,3
416187375,0.70917535,0.004734145,0.0010527748,0.70501554,-0.9441011,-2.5442032e-10,-8.8480634e-10,-0.32965627,3
416207360,0.7105551,0.0044861264,0.0007400498,0.70362693,-0.9441011,-2.5442032e-10,-8.8480634e-10,-0.32965627,3
416227345,0.70933926,0.004354352,0.0010048561,0.7048531,-0.9441011,-2.5442032e-10,-8.8480634e-10,-0.32965627,3
416247331,0.71024114,0.004757866,0.0009369821,0.7039418,-0.9441011,-2.5442032e-10,-8.8480634e-10,-0.32965627,3
416267316,0.7097973,0.0044210018,0.0008310283,0.7043916,-0.9441011,-2.5442032e-10,-8.8480634e-10,-0.32965627,3
416287301,0.7099044,0.004468394,0.0009600384,0.70428336,-0.9441011,-2.5442032e-10,-8.8480634e-10,-0.32965627,3
416307286,0.7101002,0.004717085,0.0009616893,0.7040843,-0.9441011,-2.5442032e-10,-8.8480634e-10,-0.32965627,3
416327272,0.7095773,0.004293001,0.0009067864,0.7046139,-0.9441011,-2.5442032e-10,-8.8480634e-10,-0.32965627,3
416347257,0.710344,0.0044482583,0.0009257419,0.7038401,-0.9441011,-2.5442032e-10,-8.8480634e-10,-0.32965627,3
416367242,0.7093282,0.004636177,0.0008836416,0.70486265,-0.9441011,-2.5442032e-10,-8.8480634e-10,-0.32965627,3
416387228,0.7105518,0.0041451347,0.00088042987,0.70363224,-0.9441011,-2.5442032e-10,-8.8480634e-10,-0.32965627,3
416407214,0.70920306,0.00497693,0.0010470947,0.7049859,-0.9441011,-2.5442032e-10,-8.8480634e-10,-0.32965627,3
416427198,0.71045303,0.004314759,0.000854735,0.7037309,-0.9441011,-2.5442032e-10,-8.8480634e-10,-0.32965627,3
416447187,0.70954394,0.0044371337,0.0010784852,0.7046464,-0.9441011,-2.5442032e-10,-8.8480634e-10,-0.32965627,3
416467169,0.709896,0.004774241,0.0010593067,0.70428956,-0.9441011,-2.5442032e-10,-8.8480634e-10,-0.32965627,3
416487154,0.71006376,0.004332459,0.00085763,0.7041236,-0.9441011,-2.5442032e-10,-8.8480634e-10,-0.32965627,3
416507139,0.70945305,0.0045962627,0.0011600212,0.7047368,-0.9441011,-2.5442032e-10,-8.8480634e-10,-0.32965627,3
416527128,0.7103594,0.0046719485,0.00089535053,0.7038232,-0.9441011,-2.5442032e-10,-8.8480634e-10,-0.32965627,3
416547116,0.70931447,0.004389075,0.0009349708,0.704878,-0.9441011,-2.5442032e-10,-8.8480634e-10,-0.32965627,3
416567095,0.71049005,0.00446855,0.00092676794,0.7036925,-0.9441011,-2.5442032e-10,-8.8480634e-10,-0.32965627,3
416587080,0.7092173,0.004794575,0.0009570693,0.7049731,-0.9441011,-2.5442032e-10,-8.8480634e-10,-0.32965627,3
416607066,0.7105398,0.0041855588,0.00092056085,0.703644,-0.9441011,-2.5442032e-10,-8.8480634e-10,-0.32965627,3
416627053,0.7093323,0.004768324,0.0012206531,0.7048572,-0.9441011,-2.5442032e-10,-8.8480634e-10,-0.32965627,3
416647040,0.71014047,0.0045492775,0.0010485172,0.7040446,-0.9441011,-2.5442032e-10,-8.8480634e-10,-0.32965627,3
416667021,0.70998144,0.004202481,0.0008499383,0.70420736,-0.9441011,-2.5442032e-10,-8.8480634e-10,-0.32965627,3
416687007,0.70956755,0.004656549,0.001119468,0.70462126,-0.9441011,-2.5442032e-10,-8.8480634e-10,-0.32965627,3
416706992,0.71036226,0.004593562,0.0008690834,0.70382077,-0.9441011,-2.5442032e-10,-8.8480634e-10,-0.32965627,3
416726979,0.70947546,0.004331936,0.000980685,0.7047162,-0.9441011,-2.5442032e-10,-8.8480634e-10,-0.32965627,3
416746964,0.7103475,0.004573245,0.0010598773,0.7038356,-0.9441011,-2.5442032e-10,-8.8480634e-10,-0.32965627,3
416766948,0.7095856,0.0047477996,0.0010097438,0.70460266,-0.9441011,-2.5442032e-10,-8.8480634e-10,-0.32965627,3
416786933,0.71011513,0.0041184328,0.0009167736,0.7040729,-0.9441011,-2.5442032e-10,-8.8480634e-10,-0.32965627,3
416806919,0.7098901,0.004522711,0.0011629553,0.70429695,-0.9441011,-2.5442032e-10,-8.8480634e-10,-0.32965627,3
416826904,0.70966905,0.0046324977,0.0009449402,0.70451945,-0.9441011,-2.5442032e-10,-8.8480634e-10,-0.32965627,3
416851886,0.710389,0.004106449,0.0007928969,0.70379686,-0.9441011,-2.5442032e-10,-8.8480634e-10,-0.32965627,3
416866874,0.7093887,0.004536208,0.0011347831,0.70480204,-0.9441011,-2.5442032e-10,-8.8480634e-10,-0.32965627,3
416886860,0.7102984,0.0046237623,0.000881905,0.70388496,-0.9441011,-2.5442032e-10,-8.8480634e-10,-0.32965627,3
416906845,0.70974714,0.0042362106,0.0008848433,0.7044433,-0.9441011,-2.5442032e-10,-8.8480634e-10,-0.32965627,3
416926830,0.70988965,0.0044145435,0.00097266707,0.70429844,-0.9441011,-2.5442032e-10,-8.8480634e-10,-0.32965627,3
416946817,0.7100569,0.0047407127,0.0010503012,0.7041276,-0.9441011,-2.5442032e-10,-8.8480634e-10,-0.32965627,3
416966801,0.7096652,0.004362316,0.0008971593,0.70452505,-0.9441011,-2.5442032e-10,-8.8480634e-10,-0.32965627,3
416991783,0.71021885,0.0042754984,0.000985327,0.70396733,-0.9441011,-2.5442032e-10,-8.8480634e-10,-0.32965627,3
417006771,0.709449,0.004799229,0.0010726107,0.7047397,-0.9441011,-2.5442032e-10,-8.8480634e-10,-0.32965627,3
417026757,0.71025896,0.004392141,0.00087666337,0.7039263,-0.9441011,-2.5442032e-10,-8.8480634e-10,-0.32965627,3
417046743,0.70981914,0.0041841697,0.00088144705,0.7043711,-0.9441011,-2.5442032e-10,-8.8480634e-10,-0.32965627,3
417066727,0.7097696,0.0045834966,0.0010627959,0.70441824,-0.9441011,-2.5442032e-10,-8.8480634e-10,-0.32965627,3
