timestamp,ref_timestamp,ref_lat,ref_lon,x,y,z,delta_xy[0],delta_xy[1],delta_z,vx,vy,vz,z_deriv,delta_vxy[0],delta_vxy[1],delta_vz,ax,ay,az,heading,delta_heading,ref_alt,dist_bottom,eph,epv,evh,evv,vxy_max,vz_max,hagl_min,hagl_max,xy_valid,z_valid,v_xy_valid,v_z_valid,xy_reset_counter,z_reset_counter,vxy_reset_counter,vz_reset_counter,heading_reset_counter,xy_global,z_global,dist_bottom_valid
406379612,0,0.0,0.0,0.019687785,-0.0029025427,-0.099908724,-0.035031028,-0.02340852,0.3379954,0.0066108005,-0.0021945494,-0.0022993085,-0.0031241504,2.4806237e-05,-5.8458263e-05,-0.00059875334,-0.009899803,0.005098092,-0.03396737,1.5620874,0.6718789,0.0,0.10058286,0.03392301,0.016602408,0.058829933,0.032218233,inf,inf,inf,inf,1,1,1,1,2,1,1,1,3,0,0,1
406389603,0,0.0,0.0,0.019664465,-0.0028773013,-0.099930786,-0.035031028,-0.02340852,0.3379954,0.0064839222,-0.0020886785,-0.002334884,-0.0031471222,2.4806237e-05,-5.8458263e-05,-0.00059875334,0.011412508,0.009460243,-0.017148674,1.5620961,0.6718789,0.0,0.10060492,0.03340258,0.016602406,0.058295846,0.032218233,inf,inf,inf,inf,1,1,1,1,2,1,1,1,3,0,0,1
406409587,0,0.0,0.0,0.019619983,-0.002827746,-0.099974215,-0.035031028,-0.02340852,0.3379954,0.0066157277,-0.00218844,-0.0023700634,-0.0031563507,2.4806237e-05,-5.8458263e-05,-0.00059875334,0.04401775,-0.006449271,-0.008971824,1.5620946,0.6718789,0.0,0.10064835,0.03333217,0.0166024,0.05823665,0.032218236,inf,inf,inf,inf,1,1,1,1,2,1,1,1,3,0,0,1
406419580,0,0.0,0.0,0.019599302,-0.002803706,-0.099996015,-0.035031028,-0.02340852,0.3379954,0.006431174,-0.0020287917,-0.002338871,-0.0031117783,2.4806237e-05,-5.8458263e-05,-0.00059875334,-0.01877115,0.009187882,0.023827571,1.5620897,0.6718789,0.0,0.10067015,0.033775985,0.016602399,0.05870208,0.032218236,inf,inf,inf,inf,1,1,1,1,2,1,1,1,3,0,0,1
406449558,0,0.0,0.0,0.01953171,-0.0027343035,-0.1000544,-0.035031028,-0.02340852,0.3379954,0.0068912264,-0.0020213667,-0.002593629,-0.0033248954,2.4806237e-05,-5.8458263e-05,-0.00059875334,0.10243342,0.03470414,-0.14023331,1.5620376,0.6718789,0.0,0.100728534,0.034156553,0.016602393,0.059155885,0.03221824,inf,inf,inf,inf,1,1,1,1,2,1,1,1,3,0,0,1
406469544,0,0.0,0.0,0.019487135,-0.0026922915,-0.10009214,-0.035031028,-0.02340852,0.3379954,0.0067341826,-0.002134156,-0.0029389083,-0.0036411479,2.4806237e-05,-5.8458263e-05,-0.00059875334,0.0066625364,0.017900672,-0.21605273,1.5622424,0.6718789,0.0,0.10076628,0.034065798,0.016602388,0.059121583,0.032218248,inf,inf,inf,inf,1,1,1,1,2,1,1,1,3,0,0,1
406489528,0,0.0,0.0,0.019454312,-0.0026538393,-0.10012742,-0.035031028,-0.02340852,0.3379954,0.0061452114,-0.0025618079,-0.0018208491,-0.0024930183,2.4806237e-05,-5.8458263e-05,-0.00059875334,0.04206446,-0.08988137,0.20944607,1.5620307,0.6718789,0.0,0.10080156,0.03395436,0.016602384,0.05907116,0.03221826,inf,inf,inf,inf,1,1,1,1,2,1,1,1,3,0,0,1
406509513,0,0.0,0.0,0.019409958,-0.0026140811,-0.100172445,-0.035031028,-0.02340852,0.3379954,0.0061408803,-0.0022807894,-0.0027485434,-0.0033895692,2.4806237e-05,-5.8458263e-05,-0.00059875334,0.08186895,0.029780036,0.25296396,1.5622233,0.6718789,0.0,0.10084658,0.033849135,0.01660238,0.059050754,0.032218274,inf,inf,inf,inf,1,1,1,1,2,1,1,1,3,0,0,1
406529498,0,0.0,0.0,0.019375935,-0.0025698184,-0.100209534,-0.035031028,-0.02340852,0.3379954,0.0071538854,-0.002076537,-0.0029961262,-0.003605298,2.4806237e-05,-5.8458263e-05,-0.00059875334,0.025304468,-0.07973406,-0.039643582,1.5619997,0.6718789,0.0,0.10088367,0.03374999,0.016602376,0.059058283,0.032218292,inf,inf,inf,inf,1,1,1,1,2,1,1,1,3,0,0,1
406549485,0,0.0,0.0,0.019345175,-0.0025363648,-0.100240834,-0.035031028,-0.02340852,0.3379954,0.0064719957,-0.0023399398,-0.0016558694,-0.0022324722,2.4806237e-05,-5.8458263e-05,-0.00059875334,-0.024933094,0.03027347,0.20605317,1.5621481,0.6718789,0.0,0.10091497,0.034652457,0.016602373,0.06009007,0.03221831,inf,inf,inf,inf,1,1,1,1,2,1,1,1,3,0,0,1
406559477,0,0.0,0.0,0.019326545,-0.0025186671,-0.10025698,-0.035031028,-0.02340852,0.3379954,0.0067394194,-0.0021331406,-0.0034358255,-0.0039959475,2.4806237e-05,-5.8458263e-05,-0.00059875334,0.06968975,0.016946938,-0.18817529,1.5620407,0.6718789,0.0,0.100931115,0.034078043,0.01660237,0.05956966,0.032218322,inf,inf,inf,inf,1,1,1,1,2,1,1,1,3,0,0,1
406589454,0,0.0,0.0,0.019283162,-0.00245187,-0.10031279,-0.035031028,-0.02340852,0.3379954,0.0062996,-0.002500185,-0.0038096744,-0.0043196087,2.4806237e-05,-5.8458263e-05,-0.00059875334,-0.16091411,-0.09402549,-0.33783907,1.5620557,0.6718789,0.0,0.10098693,0.034389965,0.016602367,0.060080227,0.032218352,inf,inf,inf,inf,1,1,1,1,2,1,1,1,3,0,0,1
406609439,0,0.0,0.0,0.019261293,-0.0024225004,-0.10034596,-0.035031028,-0.02340852,0.3379954,0.0063026985,-0.0019849425,-0.0032324872,-0.0037080168,2.4806237e-05,-5.8458263e-05,-0.00059875334,0.0012337248,0.016140109,-0.02216171,1.5621408,0.6718789,0.0,0.1010201,0.035309855,0.016602367,0.061151855,0.032218378,inf,inf,inf,inf,1,1,1,1,2,1,1,1,3,0,0,1
406629425,0,0.0,0.0,0.019226283,-0.0023789858,-0.10037414,-0.035031028,-0.02340852,0.3379954,0.006663002,-0.001662546,-0.0026360084,-0.003076297,2.4806237e-05,-5.8458263e-05,-0.00059875334,0.14144567,-0.07666449,0.038902618,1.5620375,0.6718789,0.0,0.101048276,0.035147123,0.016602365,0.061132945,0.032218408,inf,inf,inf,inf,1,1,1,1,2,1,1,1,3,0,0,1
406639418,0,0.0,0.0,0.019211888,-0.0023620604,-0.10038938,-0.035031028,-0.02340852,0.3379954,0.006933029,-0.0022688305,-0.0023492507,-0.0027717345,2.4806237e-05,-5.8458263e-05,-0.00059875334,0.07969431,-0.04116245,0.14250107,1.5621367,0.6718789,0.0,0.10106351,0.034536015,0.016602363,0.060597684,0.032218423,inf,inf,inf,inf,1,1,1,1,2,1,1,1,3,0,0,1
406669395,0,0.0,0.0,0.019170174,-0.002321071,-0.10042669,-0.035031028,-0.02340852,0.3379954,0.006263248,-0.001719029,-0.0030029127,-0.0033714923,2.4806237e-05,-5.8458263e-05,-0.00059875334,-0.07731527,0.03508473,-0.09073062,1.5620552,0.6718789,0.0,0.101100825,0.03482606,0.016602362,0.061140116,0.03221847,inf,inf,inf,inf,1,1,1,1,2,1,1,1,3,0,0,1
406689380,0,0.0,0.0,0.019136962,-0.002295311,-0.10045048,-0.035031028,-0.02340852,0.3379954,0.006271868,-0.002526821,-0.0029071036,-0.0032391404,2.4806237e-05,-5.8458263e-05,-0.00059875334,-0.0029219761,-0.0013698994,-0.10182534,1.5620888,0.6718789,0.0,0.101124614,0.03466853,0.016602362,0.061161377,0.032218505,inf,inf,inf,inf,1,1,1,1,2,1,1,1,3,0,0,1
406699373,0,0.0,0.0,0.019123467,-0.0022853639,-0.100459725,-0.035031028,-0.02340852,0.3379954,0.0066810152,-0.0023277907,-0.0022746602,-0.00258827,2.4806237e-05,-5.8458263e-05,-0.00059875334,0.04990841,0.03350198,0.019861149,1.5619699,0.6718789,0.0,0.10113386,0.03513054,0.016602362,0.06172689,0.03221852,inf,inf,inf,inf,1,1,1,1,2,1,1,1,3,0,0,1
406729352,0,0.0,0.0,0.019088082,-0.0022518558,-0.10048886,-0.035031028,-0.02340852,0.3379954,0.0059991097,-0.0028391238,-0.0026400078,-0.0028979352,2.4806237e-05,-5.8458263e-05,-0.00059875334,-0.06986714,-0.107393295,-0.1203686,1.5619715,0.6718789,0.0,0.10116299,0.035421498,0.016602362,0.06230506,0.03221858,inf,inf,inf,inf,1,1,1,1,2,1,1,1,3,0,0,1
406749336,0,0.0,0.0,0.019061657,-0.0022339085,-0.10050753,-0.035031028,-0.02340852,0.3379954,0.0067113745,-0.0025938733,-0.0021228413,-0.0023434986,2.4806237e-05,-5.8458263e-05,-0.00059875334,0.020114835,-0.025980508,0.1382536,1.5620915,0.6718789,0.0,0.10118166,0.035228126,0.016602362,0.062293176,0.032218616,inf,inf,inf,inf,1,1,1,1,2,1,1,1,3,0,0,1
406769322,0,0.0,0.0,0.019036,-0.0022199277,-0.10052401,-0.035031028,-0.02340852,0.3379954,0.006732185,-0.0030776688,-0.0018859413,-0.0020693731,2.4806237e-05,-5.8458263e-05,-0.00059875334,0.064702004,-0.13744743,0.18187326,1.5620756,0.6718789,0.0,0.101198144,0.03617746,0.016602362,0.06344775,0.032218657,inf,inf,inf,inf,1,1,1,1,2,1,1,1,3,0,0,1
406789307,0,0.0,0.0,0.019011058,-0.0022014626,-0.10053294,-0.035031028,-0.02340852,0.3379954,0.0057012974,-0.0022139044,-0.0033368175,-0.0034827893,2.4806237e-05,-5.8458263e-05,-0.00059875334,-0.27314225,0.01808291,-0.27235937,1.5620753,0.6718789,0.0,0.10120708,0.035964813,0.016602362,0.06342475,0.032218702,inf,inf,inf,inf,1,1,1,1,2,1,1,1,3,0,0,1
406809292,0,0.0,0.0,0.01898585,-0.0021883836,-0.100541174,-0.035031028,-0.02340852,0.3379954,0.006128435,-0.0017472066,-0.002308662,-0.0024170007,2.4806237e-05,-5.8458263e-05,-0.00059875334,-0.23815915,0.13103418,-0.10731331,1.5621077,0.6718789,0.0,0.10121531,0.035768136,0.016602363,0.063431874,0.03221874,inf,inf,inf,inf,1,1,1,1,2,1,1,1,3,0,0,1
406829278,0,0.0,0.0,0.01895961,-0.0021713625,-0.10054885,-0.035031028,-0.02340852,0.3379954,0.0070433165,-0.0030207485,-0.002480279,-0.0025512215,2.4806237e-05,-5.8458263e-05,-0.00059875334,-0.029532807,-0.1647614,0.0631211,1.5620054,0.6718789,0.0,0.101222984,0.03558654,0.016602367,0.06346637,0.032218784,inf,inf,inf,inf,1,1,1,1,2,1,1,1,3,0,0,1
406839270,0,0.0,0.0,0.018946264,-0.0021654854,-0.10055596,-0.035031028,-0.02340852,0.3379954,0.0063021863,-0.001218312,-0.002745157,-0.0027975272,2.4806237e-05,-5.8458263e-05,-0.00059875334,-0.030516151,0.34085295,0.007883699,1.5621231,0.6718789,0.0,0.10123009,0.034947574,0.016602367,0.06293288,0.032218806,inf,inf,inf,inf,1,1,1,1,2,1,1,1,3,0,0,1
406869248,0,0.0,0.0,0.018916808,-0.0021393795,-0.10058201,-0.035031028,-0.02340852,0.3379954,0.003875508,-0.0024285035,-0.005893812,-0.0058908416,2.4806237e-05,-5.8458263e-05,-0.00059875334,-0.78187597,0.0020779811,-0.6520818,1.5619735,0.6718789,0.0,0.10125615,0.035236176,0.01660237,0.063554116,0.03221887,inf,inf,inf,inf,1,1,1,1,2,1,1,1,3,0,0,1
406889233,0,0.0,0.0,0.01889984,-0.00212364,-0.10061569,-0.035031028,-0.02340852,0.3379954,0.0033442045,0.00012796304,-0.004931234,-0.00489148,2.4806237e-05,-5.8458263e-05,-0.00059875334,-1.2753378,0.7784823,-0.77344984,1.562081,0.6718789,0.0,0.10128982,0.035067577,0.016602373,0.06360675,0.03221892,inf,inf,inf,inf,1,1,1,1,2,1,1,1,3,0,0,1
406909221,0,0.0,0.0,0.018873528,-0.0021081814,-0.10064628,-0.035031028,-0.02340852,0.3379954,0.004819157,-0.0040670824,-0.003564878,-0.0034886869,2.4806237e-05,-5.8458263e-05,-0.00059875334,-0.7893915,-0.5044112,-0.058268916,1.5620142,0.6718789,0.0,0.101320416,0.034912605,0.016602376,0.063679546,0.03221896,inf,inf,inf,inf,1,1,1,1,2,1,1,1,3,0,0,1
406929208,0,0.0,0.0,0.018820655,-0.0020940856,-0.100647025,-0.035031028,-0.02340852,0.3379954,0.00079502625,-0.001962574,-0.00087592885,-0.0007634908,2.4806237e-05,-5.8458263e-05,-0.00059875334,-0.59346795,0.19817032,0.1483531,1.562056,0.6718789,0.0,0.10132116,0.03587162,0.016602382,0.06488927,0.032219008,inf,inf,inf,inf,1,1,1,1,2,1,1,1,3,0,0,1
406949189,0,0.0,0.0,0.018818395,-0.0020971573,-0.100656,-0.035031028,-0.02340852,0.3379954,0.011772511,-0.007968507,-0.0020802852,-0.0019319146,2.4806237e-05,-5.8458263e-05,-0.00059875334,1.2957094,-1.1297852,0.39938357,1.5619828,0.6718789,0.0,0.10133014,0.035698865,0.016602386,0.0649282,0.03221905,inf,inf,inf,inf,1,1,1,1,2,1,1,1,3,0,0,1
406969174,0,0.0,0.0,0.018791128,-0.002087702,-0.10065518,-0.035031028,-0.02340852,0.3379954,-0.0054176655,-0.00073490513,-0.0028831058,-0.0026994457,2.4806237e-05,-5.8458263e-05,-0.00059875334,-2.8640983,1.0669911,-0.05134711,1.5620592,0.6718789,0.0,0.10132932,0.035540495,0.01660239,0.064988,0.03221909,inf,inf,inf,inf,1,1,1,1,2,1,1,1,3,0,0,1
406979167,0,0.0,0.0,0.018770685,-0.0020707706,-0.10064652,-0.035031028,-0.02340852,0.3379954,0.01047693,-0.0018402814,-0.00018498588,1.6059028e-05,2.4806237e-05,-5.8458263e-05,-0.00059875334,0.31448862,-0.16881928,0.21277612,1.5619553,0.6718789,0.0,0.101320654,0.03491431,0.016602391,0.064455576,0.032219116,inf,inf,inf,inf,1,1,1,1,2,1,1,1,3,0,0,1
407009144,0,0.0,0.0,0.01873852,-0.0020319715,-0.10063976,-0.035031028,-0.02340852,0.3379954,0.0074972208,-0.0065793497,-0.0030017204,-0.0027496761,2.4806237e-05,-5.8458263e-05,-0.00059875334,-1.2048652,-1.0057373,-0.25682595,1.5618073,0.6718789,0.0,0.1013139,0.035263557,0.0166024,0.06515832,0.032219183,inf,inf,inf,inf,1,1,1,1,2,1,1,1,3,0,0,1
407029130,0,0.0,0.0,0.018700965,-0.00202184,-0.100631006,-0.035031028,-0.02340852,0.3379954,-0.0030346513,0.00034143619,-0.0012928195,-0.0010075449,2.4806237e-05,-5.8458263e-05,-0.00059875334,-2.737702,0.7026466,-0.06429352,1.5620911,0.6718789,0.0,0.10130514,0.03514349,0.016602406,0.06526273,0.032219227,inf,inf,inf,inf,1,1,1,1,2,1,1,1,3,0,0,1
407049115,0,0.0,0.0,0.018662965,-0.0019876848,-0.100622274,-0.035031028,-0.02340852,0.3379954,0.014330908,-0.0036254455,-0.0029631003,-0.002645165,2.4806237e-05,-5.8458263e-05,-0.00059875334,2.8549984,-1.8363292,-0.08980676,1.562072,0.6718789,0.0,0.10129641,0.03503481,0.016602412,0.06537408,0.032219276,inf,inf,inf,inf,1,1,1,1,2,1,1,1,3,0,0,1
407069100,0,0.0,0.0,0.01863136,-0.0019607253,-0.10060812,-0.035031028,-0.02340852,0.3379954,0.0047726557,0.0012654823,-0.0018403901,-0.0014902628,2.4806237e-05,-5.8458263e-05,-0.00059875334,-2.421496,0.67024463,-0.35208103,1.5616649,0.6718789,0.0,0.101282254,0.034936756,0.016602417,0.06549534,0.03221932,inf,inf,inf,inf,1,1,1,1,2,1,1,1,3,0,0,1
407089086,0,0.0,0.0,0.018570477,-0.0019335723,-0.100604214,-0.035031028,-0.02340852,0.3379954,0.0037030543,0.0016527488,-0.0010819958,-0.0007000684,2.4806237e-05,-5.8458263e-05,-0.00059875334,-0.23983839,0.2870248,-0.007983834,1.5625325,0.6718789,0.0,0.10127835,0.034819447,0.016602425,0.065565996,0.032219354,inf,inf,inf,inf,1,1,1,1,2,1,1,1,3,0,0,1
407109072,0,0.0,0.0,0.018569833,-0.0019205097,-0.10057273,-0.035031028,-0.02340852,0.3379954,0.017262457,3.0684558e-05,9.3626986e-05,0.0005068402,2.4806237e-05,-5.8458263e-05,-0.00059875334,3.1200504,0.014626327,0.12550251,1.561836,0.6718789,0.0,0.10124686,0.035808343,0.01660243,0.06680192,0.032219406,inf,inf,inf,inf,1,1,1,1,2,1,1,1,3,0,0,1
407119064,0,0.0,0.0,0.018551763,-0.0019093711,-0.10057189,-0.035031028,-0.02340852,0.3379954,-0.0020846152,-0.00080884807,-0.003670107,-0.0032414398,2.4806237e-05,-5.8458263e-05,-0.00059875334,-1.258421,0.43040052,-0.17093526,1.5626183,0.6718789,0.0,0.10124603,0.035173442,0.016602434,0.0662072,0.032219414,inf,inf,inf,inf,1,1,1,1,2,1,1,1,3,0,0,1
407149043,0,0.0,0.0,0.018488612,-0.0018726552,-0.100539245,-0.035031028,-0.02340852,0.3379954,0.0007481533,0.002894029,-0.000789106,-0.0003146947,2.4806237e-05,-5.8458263e-05,-0.00059875334,-0.19570035,1.5454375,0.13860144,1.5626824,0.6718789,0.0,0.10121338,0.03551527,0.016602445,0.066798605,0.032219473,inf,inf,inf,inf,1,1,1,1,2,1,1,1,3,0,0,1
407169026,0,0.0,0.0,0.018462237,-0.0018625689,-0.100506075,-0.035031028,-0.02340852,0.3379954,0.0146698505,-0.00470741,0.00084155245,0.0013460016,2.4806237e-05,-5.8458263e-05,-0.00059875334,3.9119804,-0.7011949,0.48932606,1.5613465,0.6718789,0.0,0.10118021,0.035372008,0.016602453,0.066791885,0.032219537,inf,inf,inf,inf,1,1,1,1,2,1,1,1,3,0,0,1
407189012,0,0.0,0.0,0.018477157,-0.0018424916,-0.10049113,-0.035031028,-0.02340852,0.3379954,0.0004710013,-0.0030244696,-0.0029928046,-0.0024588646,2.4806237e-05,-5.8458263e-05,-0.00059875334,-2.9606903,0.47159293,0.07354297,1.5624131,0.6718789,0.0,0.101165265,0.035240863,0.016602458,0.06679416,0.03221955,inf,inf,inf,inf,1,1,1,1,2,1,1,1,3,0,0,1
407208997,0,0.0,0.0,0.018431826,-0.0018239619,-0.100452475,-0.035031028,-0.02340852,0.3379954,0.0008134237,-0.003692333,-0.0029549215,-0.002391927,2.4806237e-05,-5.8458263e-05,-0.00059875334,0.011550506,0.09696509,-0.42379335,1.5620058,0.6718789,0.0,0.10112661,0.035121005,0.016602468,0.06680547,0.03221958,inf,inf,inf,inf,1,1,1,1,2,1,1,1,3,0,0,1
407228982,0,0.0,0.0,0.018399673,-0.0018075628,-0.1004355,-0.035031028,-0.02340852,0.3379954,0.009384972,-0.0056124697,-5.09896e-05,0.00054051634,2.4806237e-05,-5.8458263e-05,-0.00059875334,1.7145516,-1.3012533,0.272087,1.5615188,0.6718789,0.0,0.10110964,0.03501174,0.016602475,0.06682425,0.03221964,inf,inf,inf,inf,1,1,1,1,2,1,1,1,3,0,0,1
407248967,0,0.0,0.0,0.01839523,-0.0017753667,-0.10041118,-0.035031028,-0.02340852,0.3379954,0.0012040187,-0.0031352574,-0.0051835985,-0.0045643197,2.4806237e-05,-5.8458263e-05,-0.00059875334,-3.0480156,-0.5121155,-0.60282356,1.5629268,0.6718789,0.0,0.10108531,0.034912314,0.016602483,0.066850476,0.032219652,inf,inf,inf,inf,1,1,1,1,2,1,1,1,3,0,0,1
407258961,0,0.0,0.0,0.01835626,-0.0017664838,-0.10041046,-0.035031028,-0.02340852,0.3379954,0.018010061,-0.002121711,0.0011759732,0.0018089309,2.4806237e-05,-5.8458263e-05,-0.00059875334,4.2318068,-0.3036641,0.8036444,1.5621493,0.6718789,0.0,0.1010846,0.035416264,0.016602486,0.067464285,0.032219674,inf,inf,inf,inf,1,1,1,1,2,1,1,1,3,0,0,1
407288938,0,0.0,0.0,0.018323636,-0.0017464539,-0.10039293,-0.035031028,-0.02340852,0.3379954,0.016254503,-0.0023786516,-0.0020543383,-0.0013818284,2.4806237e-05,-5.8458263e-05,-0.00059875334,2.2011383,-1.2672567,0.18933445,1.562754,0.6718789,0.0,0.101067066,0.03474042,0.0166025,0.06691473,0.032219727,inf,inf,inf,inf,1,1,1,1,2,1,1,1,3,0,0,1
407308923,0,0.0,0.0,0.0182904,-0.0017506188,-0.100352466,-0.035031028,-0.02340852,0.3379954,0.0048943004,-0.00091772235,-0.0020017505,-0.0013040956,2.4806237e-05,-5.8458263e-05,-0.00059875334,-1.8849691,0.201192,-0.62567496,1.5618514,0.6718789,0.0,0.1010266,0.034666773,0.016602507,0.066943385,0.032219745,inf,inf,inf,inf,1,1,1,1,2,1,1,1,3,0,0,1
407328908,0,0.0,0.0,0.018247325,-0.0017331404,-0.10036434,-0.035031028,-0.02340852,0.3379954,2.354382e-05,0.0023327332,-0.0011123914,-0.0003906786,2.4806237e-05,-5.8458263e-05,-0.00059875334,-0.75158143,1.0319517,0.21692945,1.561685,0.6718789,0.0,0.10103848,0.03460051,0.016602514,0.06697982,0.03221977,inf,inf,inf,inf,1,1,1,1,2,1,1,1,3,0,0,1
407348894,0,0.0,0.0,0.018212968,-0.001717985,-0.10034432,-0.035031028,-0.02340852,0.3379954,0.017452065,-0.0014837488,-0.0026567462,-0.001911832,2.4806237e-05,-5.8458263e-05,-0.00059875334,3.4921522,-0.6992105,-0.011447279,1.563276,0.6718789,0.0,0.10101846,0.035619907,0.016602522,0.06820405,0.032219805,inf,inf,inf,inf,1,1,1,1,2,1,1,1,3,0,0,1
407368879,0,0.0,0.0,0.018184517,-0.00171738,-0.1003318,-0.035031028,-0.02340852,0.3379954,0.0069384375,-0.0012704347,0.001395977,0.0021629282,2.4806237e-05,-5.8458263e-05,-0.00059875334,-1.1915475,0.28160176,0.23808454,1.5603782,0.6718789,0.0,0.101005934,0.035530075,0.016602531,0.06817014,0.032219846,inf,inf,inf,inf,1,1,1,1,2,1,1,1,3,0,0,1
407388864,0,0.0,0.0,0.01816004,-0.0017005376,-0.10034613,-0.035031028,-0.02340852,0.3379954,0.0007478641,0.002725368,-0.00474728,-0.003959654,2.4806237e-05,-5.8458263e-05,-0.00059875334,-0.25158963,1.5942872,0.20754528,1.5638733,0.6718789,0.0,0.10102027,0.03544814,0.016602539,0.06815204,0.032219857,inf,inf,inf,inf,1,1,1,1,2,1,1,1,3,0,0,1
407408850,0,0.0,0.0,0.01812888,-0.00170178,-0.10030408,-0.035031028,-0.02340852,0.3379954,0.011527673,-0.0015235825,-0.0010449806,-0.00023787296,2.4806237e-05,-5.8458263e-05,-0.00059875334,2.6237438,-0.19386256,-0.3503929,1.5610197,0.6718789,0.0,0.10097822,0.035373583,0.016602546,0.06812738,0.03221989,inf,inf,inf,inf,1,1,1,1,2,1,1,1,3,0,0,1
407428835,0,0.0,0.0,0.018129341,-0.0016889956,-0.10032958,-0.035031028,-0.02340852,0.3379954,0.010151748,-0.0041026976,0.00072109845,0.0015466941,2.4806237e-05,-5.8458263e-05,-0.00059875334,-0.28595632,-0.14060228,0.70684266,1.5620213,0.6718789,0.0,0.101003714,0.0353059,0.016602553,0.06810393,0.032219935,inf,inf,inf,inf,1,1,1,1,2,1,1,1,3,0,0,1
407448822,0,0.0,0.0,0.01809239,-0.0016828834,-0.10031757,-0.035031028,-0.02340852,0.3379954,0.00215785,0.0005182489,-0.0049395375,-0.004096401,2.4806237e-05,-5.8458263e-05,-0.00059875334,-0.3430073,1.1987202,-0.13038076,1.5631393,0.6718789,0.0,0.1009917,0.03524446,0.01660256,0.06809048,0.032219928,inf,inf,inf,inf,1,1,1,1,2,1,1,1,3,0,0,1
407468805,0,0.0,0.0,0.018073522,-0.001700301,-0.100320734,-0.035031028,-0.02340852,0.3379954,0.007722517,-0.002236342,0.004025522,0.0048854616,2.4806237e-05,-5.8458263e-05,-0.00059875334,2.8777125,0.29386958,1.0704654,1.5604422,0.6718789,0.0,0.10099487,0.035188884,0.01660257,0.068062246,0.03221995,inf,inf,inf,inf,1,1,1,1,2,1,1,1,3,0,0,1
407488790,0,0.0,0.0,0.018082116,-0.0016768486,-0.1003142,-0.035031028,-0.02340852,0.3379954,0.0039656977,-0.0056590065,-0.006652923,-0.005777101,2.4806237e-05,-5.8458263e-05,-0.00059875334,-1.3323541,-0.45381433,0.031451292,1.5641898,0.6718789,0.0,0.100988336,0.035138603,0.016602576,0.068046354,0.032219976,inf,inf,inf,inf,1,1,1,1,2,1,1,1,3,0,0,1
407508776,0,0.0,0.0,0.018001603,-0.0016541763,-0.10027543,-0.035031028,-0.02340852,0.3379954,-0.0022080434,-0.00089866994,0.00043730263,0.0013281528,2.4806237e-05,-5.8458263e-05,-0.00059875334,-1.3386005,0.915503,-0.34178475,1.5599909,0.6718789,0.0,0.10094956,0.035061702,0.016602583,0.06795809,0.032219984,inf,inf,inf,inf,1,1,1,1,2,1,1,1,3,0,0,1
407528761,0,0.0,0.0,0.017974097,-0.0016448527,-0.10029755,-0.035031028,-0.02340852,0.3379954,0.014238112,-0.005424733,-0.0013626799,-0.0004574306,2.4806237e-05,-5.8458263e-05,-0.00059875334,3.6428707,-1.0573995,0.76297027,1.5640607,0.6718789,0.0,0.100971684,0.03499076,0.01660259,0.0678764,0.032220013,inf,inf,inf,inf,1,1,1,1,2,1,1,1,3,0,0,1
407548746,0,0.0,0.0,0.017969387,-0.0016784604,-0.100255184,-0.035031028,-0.02340852,0.3379954,0.0012731771,-0.006426149,-0.0042013107,-0.003282069,2.4806237e-05,-5.8458263e-05,-0.00059875334,-1.6117246,-0.11581836,-0.42833462,1.5611812,0.6718789,0.0,0.10092932,0.03604165,0.016602598,0.06907193,0.032220047,inf,inf,inf,inf,1,1,1,1,2,1,1,1,3,0,0,1
407568732,0,0.0,0.0,0.017984586,-0.0016620611,-0.10028194,-0.035031028,-0.02340852,0.3379954,-0.0066166073,-0.0024677967,-0.0026605213,-0.0017280602,2.4806237e-05,-5.8458263e-05,-0.00059875334,-2.3314574,0.5465687,0.23770463,1.5623689,0.6718789,0.0,0.100956075,0.035941992,0.016602606,0.068914294,0.032220054,inf,inf,inf,inf,1,1,1,1,2,1,1,1,3,0,0,1
407588717,0,0.0,0.0,0.017944032,-0.0016098025,-0.10026517,-0.035031028,-0.02340852,0.3379954,0.011569884,-0.0032624376,-0.005035502,-0.0040907282,2.4806237e-05,-5.8458263e-05,-0.00059875334,2.070422,-1.6562335,-0.47048283,1.5630908,0.6718789,0.0,0.1009393,0.035849113,0.016602611,0.068785064,0.032220062,inf,inf,inf,inf,1,1,1,1,2,1,1,1,3,0,0,1
407608702,0,0.0,0.0,0.017888784,-0.0015889741,-0.10029067,-0.035031028,-0.02340852,0.3379954,0.0015384915,-0.0076444885,-0.00024269085,0.00071339495,2.4806237e-05,-5.8458263e-05,-0.00059875334,-2.042242,-1.309161,0.31299746,1.560032,0.6718789,0.0,0.10096481,0.03576271,0.016602617,0.06864046,0.032220095,inf,inf,inf,inf,1,1,1,1,2,1,1,1,3,0,0,1
407628687,0,0.0,0.0,0.01785435,-0.0015619773,-0.100290336,-0.035031028,-0.02340852,0.3379954,-0.0007541309,0.0027412297,-0.0066577597,-0.005690891,2.4806237e-05,-5.8458263e-05,-0.00059875334,-0.8257261,1.0492679,-0.42763525,1.565243,0.6718789,0.0,0.10096447,0.035682242,0.01660262,0.068510175,0.0322201,inf,inf,inf,inf,1,1,1,1,2,1,1,1,3,0,0,1
407648673,0,0.0,0.0,0.017839944,-0.0015506429,-0.10028088,-0.035031028,-0.02340852,0.3379954,0.004742014,-0.005241048,-0.0012827846,-0.00030527494,2.4806237e-05,-5.8458263e-05,-0.00059875334,1.0598462,-1.3800354,-0.278037,1.5591978,0.6718789,0.0,0.10095502,0.035607167,0.016602628,0.068378456,0.032220103,inf,inf,inf,inf,1,1,1,1,2,1,1,1,3,0,0,1
407668658,0,0.0,0.0,0.017848853,-0.0015183857,-0.1003141,-0.035031028,-0.02340852,0.3379954,0.0025886684,-0.0068209665,-0.0059578205,-0.0049700188,2.4806237e-05,-5.8458263e-05,-0.00059875334,-3.448725,-1.8034497,-0.24752125,1.564485,0.6718789,0.0,0.10098824,0.035537276,0.016602634,0.06824381,0.032220125,inf,inf,inf,inf,1,1,1,1,2,1,1,1,3,0,0,1
407688645,0,0.0,0.0,0.017738387,-0.001480984,-0.10028724,-0.035031028,-0.02340852,0.3379954,0.0023286764,0.0035658036,-0.0041764774,-0.0031786745,2.4806237e-05,-5.8458263e-05,-0.00059875334,-0.429833,0.5043866,-1.0996851,1.5602192,0.6718789,0.0,0.10096138,0.03547192,0.016602637,0.068130076,0.032220125,inf,inf,inf,inf,1,1,1,1,2,1,1,1,3,0,0,1
407708628,0,0.0,0.0,0.01770398,-0.0014410305,-0.10033216,-0.035031028,-0.02340852,0.3379954,0.0076800673,-0.0009279511,-0.0012799168,-0.000272423,2.4806237e-05,-5.8458263e-05,-0.00059875334,1.7698585,-1.2200558,0.59217054,1.5634248,0.6718789,0.0,0.1010063,0.03537841,0.016602643,0.06793493,0.032220136,inf,inf,inf,inf,1,1,1,1,2,1,1,1,3,0,0,1
407728613,0,0.0,0.0,0.01769257,-0.0014282395,-0.10029661,-0.035031028,-0.02340852,0.3379954,0.00363878,-0.00045108658,-0.004316867,-0.0033002964,2.4806237e-05,-5.8458263e-05,-0.00059875334,-1.8140588,-0.2768875,-0.7552804,1.5621607,0.6718789,0.0,0.100970745,0.035290524,0.016602647,0.067761764,0.032220207,inf,inf,inf,inf,1,1,1,1,2,1,1,1,3,0,0,1
407748598,0,0.0,0.0,0.01768469,-0.0014034879,-0.100309245,-0.035031028,-0.02340852,0.3379954,-0.0028270262,0.00033867187,-0.00049716677,0.0005277189,2.4806237e-05,-5.8458263e-05,-0.00059875334,-2.3617985,0.6910453,0.029477857,1.5610596,0.6718789,0.0,0.10098338,0.035207927,0.01660265,0.06758335,0.03222016,inf,inf,inf,inf,1,1,1,1,2,1,1,1,3,0,0,1
407768583,0,0.0,0.0,0.017665578,-0.0013784813,-0.100311115,-0.035031028,-0.02340852,0.3379954,0.017127724,0.000105177176,-0.003816003,-0.0027838368,2.4806237e-05,-5.8458263e-05,-0.00059875334,2.016969,-1.1045792,-0.081459686,1.5641167,0.6718789,0.0,0.10098525,0.036266975,0.016602654,0.06873537,0.03222016,inf,inf,inf,inf,1,1,1,1,2,1,1,1,3,0,0,1
407788569,0,0.0,0.0,0.017620727,-0.0013750051,-0.10032527,-0.035031028,-0.02340852,0.3379954,0.00792444,0.0013551982,0.00016001594,0.001199196,2.4806237e-05,-5.8458263e-05,-0.00059875334,0.277465,0.2798907,-0.1051978,1.5596035,0.6718789,0.0,0.10099941,0.03615247,0.01660266,0.068494976,0.032220207,inf,inf,inf,inf,1,1,1,1,2,1,1,1,3,0,0,1
407808555,0,0.0,0.0,0.017576577,-0.0013177921,-0.10035297,-0.035031028,-0.02340852,0.3379954,-0.0020346218,0.006084415,-0.0038718416,-0.0028255603,2.4806237e-05,-5.8458263e-05,-0.00059875334,-0.69033426,1.4670932,0.18771969,1.5655918,0.6718789,0.0,0.10102711,0.036044586,0.016602665,0.068267785,0.032220203,inf,inf,inf,inf,1,1,1,1,2,1,1,1,3,0,0,1
407828539,0,0.0,0.0,0.017554669,-0.001286081,-0.10033854,-0.035031028,-0.02340852,0.3379954,0.0077357753,0.0016204173,-0.001114317,-6.0974464e-05,2.4806237e-05,-5.8458263e-05,-0.00059875334,1.7884384,-0.020262236,-0.30831563,1.5590043,0.6718789,0.0,0.10101268,0.03594276,0.01660267,0.06805547,0.032220174,inf,inf,inf,inf,1,1,1,1,2,1,1,1,3,0,0,1
407848524,0,0.0,0.0,0.017565325,-0.001232606,-0.100372605,-0.035031028,-0.02340852,0.3379954,0.010854116,-0.005369669,-0.0043560145,-0.0032955643,2.4806237e-05,-5.8458263e-05,-0.00059875334,-0.5779598,-1.0629447,-0.22312757,1.564834,0.6718789,0.0,0.10104674,0.03581313,0.016602674,0.06777399,0.0322202,inf,inf,inf,inf,1,1,1,1,2,1,1,1,3,0,0,1
407868510,0,0.0,0.0,0.017464405,-0.0012407871,-0.10036014,-0.035031028,-0.02340852,0.3379954,0.0048923753,0.004459088,0.00077464245,0.0018423005,2.4806237e-05,-5.8458263e-05,-0.00059875334,0.38931534,1.7203346,-0.044514913,1.5603013,0.6718789,0.0,0.101034276,0.035690725,0.016602678,0.06752555,0.0322202,inf,inf,inf,inf,1,1,1,1,2,1,1,1,3,0,0,1
407888496,0,0.0,0.0,0.017466085,-0.001189623,-0.100410566,-0.035031028,-0.02340852,0.3379954,0.008776968,0.0045988513,-0.0020126149,-0.00093789905,2.4806237e-05,-5.8458263e-05,-0.00059875334,2.996885,0.9624653,0.99065125,1.563995,0.6718789,0.0,0.1010847,0.03557519,0.016602682,0.067267634,0.032220185,inf,inf,inf,inf,1,1,1,1,2,1,1,1,3,0,0,1
407908480,0,0.0,0.0,0.017454674,-0.0011777802,-0.10042057,-0.035031028,-0.02340852,0.3379954,0.0058588525,-0.0025180543,-0.0073778713,-0.0062959716,2.4806237e-05,-5.8458263e-05,-0.00059875334,0.51941675,-0.2724147,-0.5451214,1.5618253,0.6718789,0.0,0.10109471,0.03546599,0.016602686,0.06703763,0.032220267,inf,inf,inf,inf,1,1,1,1,2,1,1,1,3,0,0,1
407928465,0,0.0,0.0,0.017421698,-0.0011398902,-0.10044465,-0.035031028,-0.02340852,0.3379954,-0.005617848,-0.0007681041,0.0001759518,0.0012653647,2.4806237e-05,-5.8458263e-05,-0.00059875334,-3.4990094,1.2870167,0.14387843,1.5612459,0.6718789,0.0,0.10111879,0.03536275,0.016602688,0.06680826,0.032220203,inf,inf,inf,inf,1,1,1,1,2,1,1,1,3,0,0,1
407948451,0,0.0,0.0,0.017312838,-0.0010722113,-0.10047204,-0.035031028,-0.02340852,0.3379954,0.007883889,0.0057712053,-0.0044066925,-0.0033095123,2.4806237e-05,-5.8458263e-05,-0.00059875334,2.28716,0.6489933,0.12696102,1.564037,0.6718789,0.0,0.10114618,0.03526509,0.01660269,0.06659308,0.032220196,inf,inf,inf,inf,1,1,1,1,2,1,1,1,3,0,0,1
407968436,0,0.0,0.0,0.017258938,-0.001041349,-0.10049683,-0.035031028,-0.02340852,0.3379954,0.008805727,-0.0015808252,0.0021108934,0.0032159043,2.4806237e-05,-5.8458263e-05,-0.00059875334,3.312928,-0.25726455,0.836309,1.5598154,0.6718789,0.0,0.101170965,0.03631365,0.016602693,0.06769346,0.03222025,inf,inf,inf,inf,1,1,1,1,2,1,1,1,3,0,0,1
407988421,0,0.0,0.0,0.017262923,-0.0009806353,-0.10051514,-0.035031028,-0.02340852,0.3379954,-0.0075016967,-0.0028097185,-0.0073943962,-0.0062813773,2.4806237e-05,-5.8458263e-05,-0.00059875334,-3.4584968,0.08795457,-0.020527234,1.5654117,0.6718789,0.0,0.10118928,0.03618362,0.016602695,0.06741113,0.032220244,inf,inf,inf,inf,1,1,1,1,2,1,1,1,3,0,0,1
408008406,0,0.0,0.0,0.017205687,-0.0009674937,-0.10050609,-0.035031028,-0.02340852,0.3379954,-0.0017739572,0.00073257764,0.00082945527,0.001950724,2.4806237e-05,-5.8458263e-05,-0.00059875334,-0.51927733,1.6132066,-0.123697765,1.5588979,0.6718789,0.0,0.101180226,0.03602674,0.0166027,0.06709208,0.032220207,inf,inf,inf,inf,1,1,1,1,2,1,1,1,3,0,0,1
408028391,0,0.0,0.0,0.017182188,-0.0009179031,-0.1005284,-0.035031028,-0.02340852,0.3379954,0.014334732,-0.0029459745,-0.004182104,-0.0030520628,2.4806237e-05,-5.8458263e-05,-0.00059875334,3.0708628,-1.7484088,0.1548535,1.5656497,0.6718789,0.0,0.10120253,0.03587867,0.016602704,0.06677821,0.032220226,inf,inf,inf,inf,1,1,1,1,2,1,1,1,3,0,0,1
408048378,0,0.0,0.0,0.017125076,-0.0009348921,-0.10052284,-0.035031028,-0.02340852,0.3379954,0.0009248882,-0.004514771,-0.0010696686,6.9365735e-05,2.4806237e-05,-5.8458263e-05,-0.00059875334,-0.08072866,-0.3888761,-0.07347482,1.5592383,0.6718789,0.0,0.101196975,0.036937606,0.01660271,0.06787226,0.03222025,inf,inf,inf,inf,1,1,1,1,2,1,1,1,3,0,0,1
408068363,0,0.0,0.0,0.017113626,-0.0008906477,-0.10057128,-0.035031028,-0.02340852,0.3379954,-0.010366903,0.00019032253,-0.0045356434,-0.0033874654,2.4806237e-05,-5.8458263e-05,-0.00059875334,-3.3730257,1.3220078,0.6149323,1.564841,0.6718789,0.0,0.10124542,0.036756627,0.016602712,0.067504935,0.032220222,inf,inf,inf,inf,1,1,1,1,2,1,1,1,3,0,0,1
408088347,0,0.0,0.0,0.017060341,-0.000823567,-0.10054487,-0.035031028,-0.02340852,0.3379954,0.006951554,0.0025596034,-0.0058175083,-0.0046598515,2.4806237e-05,-5.8458263e-05,-0.00059875334,1.5267777,0.021333458,-0.80982727,1.5604869,0.6718789,0.0,0.101219006,0.036586,0.016602715,0.06716851,0.032220248,inf,inf,inf,inf,1,1,1,1,2,1,1,1,3,0,0,1
408108332,0,0.0,0.0,0.017011637,-0.00077604037,-0.100588605,-0.035031028,-0.02340852,0.3379954,0.0065625147,-0.0077592707,0.0005976236,0.0017651403,2.4806237e-05,-5.8458263e-05,-0.00059875334,0.8323282,-2.6968577,0.7188333,1.5629083,0.6718789,0.0,0.10126274,0.036424957,0.01660272,0.066851415,0.032220233,inf,inf,inf,inf,1,1,1,1,2,1,1,1,3,0,0,1
408128319,0,0.0,0.0,0.016965516,-0.00076951465,-0.10055964,-0.035031028,-0.02340852,0.3379954,-0.0014181015,0.0015985608,-0.005046746,-0.003868955,2.4806237e-05,-5.8458263e-05,-0.00059875334,-1.8686157,0.7222456,-0.4884382,1.5628623,0.6718789,0.0,0.10123377,0.036238994,0.016602721,0.06649215,0.032220215,inf,inf,inf,inf,1,1,1,1,2,1,1,1,3,0,0,1
408148304,0,0.0,0.0,0.01694477,-0.0007614809,-0.10058761,-0.035031028,-0.02340852,0.3379954,-0.010451398,-0.0020658507,-0.00074304437,0.0004455497,2.4806237e-05,-5.8458263e-05,-0.00059875334,-2.5028484,1.126217,0.5437276,1.5608854,0.6718789,0.0,0.10126174,0.037296806,0.016602725,0.06755163,0.032220244,inf,inf,inf,inf,1,1,1,1,2,1,1,1,3,0,0,1
408168288,0,0.0,0.0,0.016885793,-0.0006778074,-0.10054655,-0.035031028,-0.02340852,0.3379954,0.008420488,0.0031394814,-0.003958536,-0.0027586091,2.4806237e-05,-5.8458263e-05,-0.00059875334,1.0791814,-1.6147231,-0.42299804,1.5646822,0.6718789,0.0,0.10122068,0.037078623,0.016602727,0.067141406,0.03222029,inf,inf,inf,inf,1,1,1,1,2,1,1,1,3,0,0,1
408188273,0,0.0,0.0,0.016787201,-0.00065772684,-0.10056357,-0.035031028,-0.02340852,0.3379954,0.004296235,-0.0031497586,0.0010121737,0.0022237813,2.4806237e-05,-5.8458263e-05,-0.00059875334,1.4018857,-1.3555708,0.44296125,1.5594174,0.6718789,0.0,0.10123771,0.036837976,0.016602729,0.06670328,0.032220226,inf,inf,inf,inf,1,1,1,1,2,1,1,1,3,0,0,1
408208259,0,0.0,0.0,0.016763268,-0.00063311565,-0.10057364,-0.035031028,-0.02340852,0.3379954,-0.004145825,-0.0017583198,-0.007736344,-0.006513158,2.4806237e-05,-5.8458263e-05,-0.00059875334,-2.6882157,0.16180016,-0.47327006,1.5653298,0.6718789,0.0,0.10124777,0.036612257,0.01660273,0.066286065,0.0322202,inf,inf,inf,inf,1,1,1,1,2,1,1,1,3,0,0,1
408228244,0,0.0,0.0,0.0167002,-0.0006130672,-0.100558706,-0.035031028,-0.02340852,0.3379954,-0.0030489357,-0.000141842,-0.0035194973,-0.002284605,2.4806237e-05,-5.8458263e-05,-0.00059875334,-1.475837,0.21914883,-0.8506071,1.5594747,0.6718789,0.0,0.10123284,0.03640023,0.016602732,0.06590801,0.032220274,inf,inf,inf,inf,1,1,1,1,2,1,1,1,3,0,0,1
408248230,0,0.0,0.0,0.016639564,-0.0005892915,-0.100605935,-0.035031028,-0.02340852,0.3379954,0.0063319444,0.0005064061,-0.002818865,-0.0015720413,2.4806237e-05,-5.8458263e-05,-0.00059875334,1.2079437,-1.5689495,0.23476328,1.5644383,0.6718789,0.0,0.10128007,0.036201037,0.016602734,0.065540195,0.032220263,inf,inf,inf,inf,1,1,1,1,2,1,1,1,3,0,0,1
408268215,0,0.0,0.0,0.016576646,-0.0005951304,-0.10055447,-0.035031028,-0.02340852,0.3379954,0.008048214,-0.0003361768,-0.0034751864,-0.0022161684,2.4806237e-05,-5.8458263e-05,-0.00059875334,0.93074477,-0.5667082,-1.0509466,1.5612392,0.6718789,0.0,0.10122861,0.03601366,0.016602734,0.06521655,0.032220196,inf,inf,inf,inf,1,1,1,1,2,1,1,1,3,0,0,1
408288200,0,0.0,0.0,0.01654338,-0.0005657362,-0.10059465,-0.035031028,-0.02340852,0.3379954,-0.00718871,-0.0036673418,-0.001655785,-0.00038412545,2.4806237e-05,-5.8458263e-05,-0.00059875334,-3.9463325,-0.15197565,0.4402262,1.5621623,0.6718789,0.0,0.10126878,0.035837337,0.016602734,0.06489718,0.0322202,inf,inf,inf,inf,1,1,1,1,2,1,1,1,3,0,0,1
408308186,0,0.0,0.0,0.016425062,-0.0005263878,-0.100546196,-0.035031028,-0.02340852,0.3379954,-0.00094270904,0.010778881,-0.0041687354,-0.0028843035,2.4806237e-05,-5.8458263e-05,-0.00059875334,-0.7624693,1.8148656,-0.6026822,1.5633126,0.6718789,0.0,0.10122033,0.03567133,0.016602734,0.06461168,0.032220315,inf,inf,inf,inf,1,1,1,1,2,1,1,1,3,0,0,1
408328173,0,0.0,0.0,0.016342303,-0.0005021789,-0.100558944,-0.035031028,-0.02340852,0.3379954,0.0005704433,0.003684711,-0.0007203101,0.00057711994,2.4806237e-05,-5.8458263e-05,-0.00059875334,1.863959,-0.050265018,-0.12338849,1.5607582,0.6718789,0.0,0.10123308,0.036690753,0.016602736,0.065631054,0.03222023,inf,inf,inf,inf,1,1,1,1,2,1,1,1,3,0,0,1
408348156,0,0.0,0.0,0.01627977,-0.0004890435,-0.10056664,-0.035031028,-0.02340852,0.3379954,0.009834171,-0.0036784762,-0.0046052444,-0.0032947545,2.4806237e-05,-5.8458263e-05,-0.00059875334,1.5334485,-2.0714393,-0.15599777,1.5641024,0.6718789,0.0,0.10124078,0.03649505,0.016602736,0.06530292,0.032220185,inf,inf,inf,inf,1,1,1,1,2,1,1,1,3,0,0,1
408368141,0,0.0,0.0,0.016205676,-0.0005141902,-0.100562364,-0.035031028,-0.02340852,0.3379954,0.004527633,-0.0026891956,-0.0013134021,1.02764825e-05,2.4806237e-05,-5.8458263e-05,-0.00059875334,-0.93278694,-0.32290992,-0.18171054,1.5601789,0.6718789,0.0,0.1012365,0.036311,0.016602736,0.06498845,0.03222022,inf,inf,inf,inf,1,1,1,1,2,1,1,1,3,0,0,1
408388128,0,0.0,0.0,0.0161541,-0.00052103336,-0.10058888,-0.035031028,-0.02340852,0.3379954,-0.0037363912,0.005412736,-0.0043594623,-0.0030225804,2.4806237e-05,-5.8458263e-05,-0.00059875334,-1.7331749,2.210878,-0.11335765,1.5636618,0.6718789,0.0,0.10126302,0.03610522,0.016602736,0.06463209,0.032220267,inf,inf,inf,inf,1,1,1,1,2,1,1,1,3,0,0,1
408408112,0,0.0,0.0,0.016051855,-0.000492677,-0.10056551,-0.035031028,-0.02340852,0.3379954,0.0014207423,0.006641949,-0.00092017814,0.00042958502,2.4806237e-05,-5.8458263e-05,-0.00059875334,0.7271735,0.90759814,-0.2346612,1.5617226,0.6718789,0.0,0.101239644,0.035911765,0.016602736,0.0643166,0.032220207,inf,inf,inf,inf,1,1,1,1,2,1,1,1,3,0,0,1
408428097,0,0.0,0.0,0.015965704,-0.00045879863,-0.10058032,-0.035031028,-0.02340852,0.3379954,0.0071905446,0.0022059004,0.0010045274,0.002367075,2.4806237e-05,-5.8458263e-05,-0.00059875334,2.7552183,-0.9696257,0.67344254,1.5621297,0.6718789,0.0,0.101254456,0.035729922,0.016602736,0.06400346,0.032220177,inf,inf,inf,inf,1,1,1,1,2,1,1,1,3,0,0,1
408448083,0,0.0,0.0,0.015891386,-0.00046781288,-0.1005639,-0.035031028,-0.02340852,0.3379954,0.0066341637,-0.0016647107,-0.004494966,-0.003119735,2.4806237e-05,-5.8458263e-05,-0.00059875334,0.7898126,-0.080716565,-0.3389366,1.5632153,0.6718789,0.0,0.101238035,0.03555879,0.016602738,0.06373126,0.032220203,inf,inf,inf,inf,1,1,1,1,2,1,1,1,3,0,0,1
408468068,0,0.0,0.0,0.015807007,-0.00045430887,-0.10054836,-0.035031028,-0.02340852,0.3379954,-0.001525849,0.00021367286,0.00044263777,0.0018306158,2.4806237e-05,-5.8458263e-05,-0.00059875334,-1.4709321,0.95505816,0.051954966,1.5606788,0.6718789,0.0,0.10122249,0.035397768,0.016602738,0.06345675,0.03222022,inf,inf,inf,inf,1,1,1,1,2,1,1,1,3,0,0,1
408488053,0,0.0,0.0,0.015726108,-0.00043096015,-0.10054337,-0.035031028,-0.02340852,0.3379954,-0.0071116015,0.00898025,-0.0021447309,-0.0007441114,2.4806237e-05,-5.8458263e-05,-0.00059875334,-1.4765369,2.593661,0.42331654,1.5641359,0.6718789,0.0,0.10121751,0.036394533,0.01660274,0.06446638,0.03222024,inf,inf,inf,inf,1,1,1,1,2,1,1,1,3,0,0,1
408508037,0,0.0,0.0,0.01562886,-0.00042188322,-0.10051895,-0.035031028,-0.02340852,0.3379954,0.0010604272,0.006149527,-0.0007141853,0.00069874607,2.4806237e-05,-5.8458263e-05,-0.00059875334,2.1402123,1.2418417,-0.034857385,1.5609875,0.6718789,0.0,0.101193085,0.03620532,0.01660274,0.064160205,0.032220174,inf,inf,inf,inf,1,1,1,1,2,1,1,1,3,0,0,1
408528023,0,0.0,0.0,0.015563808,-0.00039034616,-0.10050575,-0.035031028,-0.02340852,0.3379954,0.00903306,-5.517254e-05,-0.0005046528,0.00092028745,2.4806237e-05,-5.8458263e-05,-0.00059875334,3.625655,-1.1214802,0.34199587,1.5630807,0.6718789,0.0,0.10117988,0.03602744,0.016602743,0.06387416,0.03222016,inf,inf,inf,inf,1,1,1,1,2,1,1,1,3,0,0,1
408548008,0,0.0,0.0,0.015499899,-0.00037676992,-0.10048844,-0.035031028,-0.02340852,0.3379954,0.0050510126,-0.0026258368,-0.0014937453,-5.7128622e-05,2.4806237e-05,-5.8458263e-05,-0.00059875334,0.74384123,-1.0058292,0.1400825,1.5621216,0.6718789,0.0,0.101162575,0.035828553,0.016602743,0.063560724,0.03222021,inf,inf,inf,inf,1,1,1,1,2,1,1,1,3,0,0,1
408567993,0,0.0,0.0,0.015440777,-0.00035885436,-0.10047793,-0.035031028,-0.02340852,0.3379954,-0.0010142121,-0.001457718,-0.0009941417,0.0004538298,2.4806237e-05,-5.8458263e-05,-0.00059875334,-1.3084198,1.318308,0.1878027,1.5615293,0.6718789,0.0,0.10115206,0.03564171,0.016602745,0.06325807,0.032220222,inf,inf,inf,inf,1,1,1,1,2,1,1,1,3,0,0,1
408587978,0,0.0,0.0,0.015357883,-0.00034706644,-0.10047793,-0.035031028,-0.02340852,0.3379954,-0.007259144,0.0052681565,-0.0026122257,-0.0011532231,2.4806237e-05,-5.8458263e-05,-0.00059875334,-1.3116384,2.3105998,0.11408785,1.5635688,0.6718789,0.0,0.10115206,0.03546597,0.016602747,0.06298982,0.032220166,inf,inf,inf,inf,1,1,1,1,2,1,1,1,3,0,0,1
408607965,0,0.0,0.0,0.015249007,-0.0003224431,-0.100460455,-0.035031028,-0.02340852,0.3379954,-0.0053755417,0.005422366,0.0009842011,0.002453888,2.4806237e-05,-5.8458263e-05,-0.00059875334,1.1813426,1.3561122,0.46565303,1.5609646,0.6718789,0.0,0.10113459,0.035300694,0.016602747,0.062729575,0.032220133,inf,inf,inf,inf,1,1,1,1,2,1,1,1,3,0,0,1
408627949,0,0.0,0.0,0.015193807,-0.0002581683,-0.100436635,-0.035031028,-0.02340852,0.3379954,0.00362933,0.00011530474,-0.0020844033,-0.00060420966,2.4806237e-05,-5.8458263e-05,-0.00059875334,2.0883405,-1.2955941,0.21168453,1.5636095,0.6718789,0.0,0.10111077,0.03514519,0.016602749,0.062491357,0.032220148,inf,inf,inf,inf,1,1,1,1,2,1,1,1,3,0,0,1
408647934,0,0.0,0.0,0.015149127,-0.0002475727,-0.100421995,-0.035031028,-0.02340852,0.3379954,0.005118176,-0.0041812616,-0.0014515471,3.8741975e-05,2.4806237e-05,-5.8458263e-05,-0.00059875334,1.569833,-1.4389246,0.024335822,1.5612836,0.6718789,0.0,0.10109613,0.034998767,0.01660275,0.06227139,0.0322202,inf,inf,inf,inf,1,1,1,1,2,1,1,1,3,0,0,1
408667919,0,0.0,0.0,0.0151034705,-0.00023467373,-0.10039906,-0.035031028,-0.02340852,0.3379954,-0.0007698518,-0.007166597,-0.0022367286,-0.00073680637,2.4806237e-05,-5.8458263e-05,-0.00059875334,-1.1207315,-0.73358905,0.00038315848,1.5622543,0.6718789,0.0,0.1010732,0.034860935,0.01660275,0.062063172,0.032220207,inf,inf,inf,inf,1,1,1,1,2,1,1,1,3,0,0,1
408687905,0,0.0,0.0,0.0150351655,-0.00020412586,-0.10037248,-0.035031028,-0.02340852,0.3379954,-0.006574958,0.0010545334,-0.0013268132,0.00018220766,2.4806237e-05,-5.8458263e-05,-0.00059875334,-2.471789,0.95351326,0.160218,1.5627278,0.6718789,0.0,0.101046614,0.03473111,0.01660275,0.061873116,0.032220133,inf,inf,inf,inf,1,1,1,1,2,1,1,1,3,0,0,1
408707890,0,0.0,0.0,0.01496892,-0.00016731751,-0.10035518,-0.035031028,-0.02340852,0.3379954,-0.01144858,0.0038017055,-0.001047118,0.00047046386,2.4806237e-05,-5.8458263e-05,-0.00059875334,-2.0231802,1.5038893,0.35293278,1.5612184,0.6718789,0.0,0.101029314,0.034608826,0.01660275,0.061691083,0.03222011,inf,inf,inf,inf,1,1,1,1,2,1,1,1,3,0,0,1
408727875,0,0.0,0.0,0.014903767,-0.00012749183,-0.10032376,-0.035031028,-0.02340852,0.3379954,-0.0014392141,0.004327111,-0.0029765225,-0.0014509032,2.4806237e-05,-5.8458263e-05,-0.00059875334,1.3051089,0.045719076,-0.14622298,1.5637062,0.6718789,0.0,0.100997895,0.035567813,0.01660275,0.062658474,0.032220118,inf,inf,inf,inf,1,1,1,1,2,1,1,1,3,0,0,1
408747863,0,0.0,0.0,0.014850215,-0.00010851001,-0.10030787,-0.035031028,-0.02340852,0.3379954,0.002123431,-0.0034994297,-0.0015335893,-1.8131686e-07,2.4806237e-05,-5.8458263e-05,-0.00059875334,1.7175555,-2.4394498,-0.06349099,1.5609558,0.6718789,0.0,0.100982,0.03541927,0.01660275,0.062438536,0.032220166,inf,inf,inf,inf,1,1,1,1,2,1,1,1,3,0,0,1
408767846,0,0.0,0.0,0.0148342,-8.446319e-05,-0.1002948,-0.035031028,-0.02340852,0.3379954,0.004795049,-0.006771365,-0.0027823425,-0.0012413239,2.4806237e-05,-5.8458263e-05,-0.00059875334,-0.00071948336,-2.5920615,-0.12743695,1.5627844,0.6718789,0.0,0.100968935,0.0352794,0.01660275,0.06223016,0.032220192,inf,inf,inf,inf,1,1,1,1,2,1,1,1,3,0,0,1
408787831,0,0.0,0.0,0.014779039,-7.261062e-05,-0.100255504,-0.035031028,-0.02340852,0.3379954,-0.0011122627,-0.0014757956,-0.0019587511,-0.0004105506,2.4806237e-05,-5.8458263e-05,-0.00059875334,-1.6911027,-0.27661833,-0.3280546,1.5620302,0.6718789,0.0,0.10092964,0.0351476,0.01660275,0.062036715,0.032220125,inf,inf,inf,inf,1,1,1,1,2,1,1,1,3,0,0,1
408807816,0,0.0,0.0,0.014719803,-4.7576923e-05,-0.10022212,-0.035031028,-0.02340852,0.3379954,-0.0080265915,0.0019384633,-0.0016486496,-9.387352e-05,2.4806237e-05,-5.8458263e-05,-0.00059875334,-2.668303,1.0156121,-0.27065837,1.5615218,0.6718789,0.0,0.100896254,0.034994505,0.01660275,0.061806925,0.032220095,inf,inf,inf,inf,1,1,1,1,2,1,1,1,3,0,0,1
408827801,0,0.0,0.0,0.014655348,-2.0507056e-05,-0.10020232,-0.035031028,-0.02340852,0.3379954,-0.005631068,0.0069953413,-0.002516739,-0.00095603964,2.4806237e-05,-5.8458263e-05,-0.00059875334,-1.5482314,0.959528,-0.11984023,1.5635192,0.6718789,0.0,0.10087646,0.03595924,0.01660275,0.06276211,0.032220103,inf,inf,inf,inf,1,1,1,1,2,1,1,1,3,0,0,1
408847786,0,0.0,0.0,0.01462081,1.2351697e-05,-0.10018436,-0.035031028,-0.02340852,0.3379954,-0.0015058476,0.0070893536,-0.001505716,6.0584334e-05,2.4806237e-05,-5.8458263e-05,-0.00059875334,0.70942235,0.021486904,-0.04445364,1.5611167,0.6718789,0.0,0.100858495,0.03577972,0.01660275,0.062492944,0.03222012,inf,inf,inf,inf,1,1,1,1,2,1,1,1,3,0,0,1
408867772,0,0.0,0.0,0.014594078,4.2488908e-05,-0.10016378,-0.035031028,-0.02340852,0.3379954,0.00795351,0.003243784,-0.002028915,-0.00045731736,2.4806237e-05,-5.8458263e-05,-0.00059875334,2.5019665,-1.2251512,-0.2727268,1.563523,0.6718789,0.0,0.100837916,0.035610802,0.01660275,0.062246367,0.032220166,inf,inf,inf,inf,1,1,1,1,2,1,1,1,3,0,0,1
408887757,0,0.0,0.0,0.014553241,5.1443545e-05,-0.10013234,-0.035031028,-0.02340852,0.3379954,0.010275108,3.2353055e-05,-0.00026692697,0.0013094237,2.4806237e-05,-5.8458263e-05,-0.00059875334,2.487095,-1.3238236,-0.33138904,1.5614731,0.6718789,0.0,0.100806475,0.035451837,0.01660275,0.062014554,0.03222017,inf,inf,inf,inf,1,1,1,1,2,1,1,1,3,0,0,1
408907743,0,0.0,0.0,0.014545963,7.349611e-05,-0.10014398,-0.035031028,-0.02340852,0.3379954,0.0058814813,-0.0033829955,-0.0010746787,0.0005057111,2.4806237e-05,-5.8458263e-05,-0.00059875334,0.18383998,-0.82617444,0.4188304,1.5622658,0.6718789,0.0,0.10081811,0.035302196,0.01660275,0.06180298,0.032220114,inf,inf,inf,inf,1,1,1,1,2,1,1,1,3,0,0,1
408927728,0,0.0,0.0,0.014524736,7.263024e-05,-0.1001041,-0.035031028,-0.02340852,0.3379954,0.0020119303,0.0028649936,-0.0006877537,0.00089602126,2.4806237e-05,-5.8458263e-05,-0.00059875334,-0.82147914,1.5706848,-0.13309647,1.5629972,0.6718789,0.0,0.10077824,0.035161298,0.01660275,0.061604362,0.032220088,inf,inf,inf,inf,1,1,1,1,2,1,1,1,3,0,0,1
408947714,0,0.0,0.0,0.014501416,9.3151066e-05,-0.10008888,-0.035031028,-0.02340852,0.3379954,-0.0065053063,0.005937696,0.0017616721,0.003348226,2.4806237e-05,-5.8458263e-05,-0.00059875334,-1.7530417,2.7906039,0.51227915,1.561097,0.6718789,0.0,0.100763015,0.035028618,0.01660275,0.06141687,0.032220084,inf,inf,inf,inf,1,1,1,1,2,1,1,1,3,0,0,1
408967699,0,0.0,0.0,0.014461578,0.00012183892,-0.100068696,-0.035031028,-0.02340852,0.3379954,-0.005248387,0.008531711,-0.0026252663,-0.0010365715,2.4806237e-05,-5.8458263e-05,-0.00059875334,-0.10632321,2.4176168,0.17922154,1.5640775,0.6718789,0.0,0.10074283,0.03487524,0.01660275,0.06119837,0.032220136,inf,inf,inf,inf,1,1,1,1,2,1,1,1,3,0,0,1
408987684,0,0.0,0.0,0.0144364275,0.0001358803,-0.10002421,-0.035031028,-0.02340852,0.3379954,-0.0031911277,0.005937926,0.0028138224,0.0044040047,2.4806237e-05,-5.8458263e-05,-0.00059875334,1.0373157,0.9874612,0.25992316,1.5611012,0.6718789,0.0,0.100698344,0.034730796,0.01660275,0.06099556,0.032220177,inf,inf,inf,inf,1,1,1,1,2,1,1,1,3,0,0,1
409007669,0,0.0,0.0,0.014443551,0.00018643156,-0.10002437,-0.035031028,-0.02340852,0.3379954,0.0036339955,0.0008895456,-0.0016967794,-0.000105833125,2.4806237e-05,-5.8458263e-05,-0.00059875334,2.5068998,-1.2246163,0.61454237,1.5634174,0.6718789,0.0,0.10069851,0.034594756,0.01660275,0.06080692,0.032220174,inf,inf,inf,inf,1,1,1,1,2,1,1,1,3,0,0,1
409027656,0,0.0,0.0,0.014467317,0.000203712,-0.09997371,-0.035031028,-0.02340852,0.3379954,0.005096392,-0.0039276597,-0.0026193513,-0.0010282554,2.4806237e-05,-5.8458263e-05,-0.00059875334,1.711014,-1.7464461,-0.50516605,1.5620756,0.6718789,0.0,0.100647844,0.03553819,0.01660275,0.06174552,0.032220118,inf,inf,inf,inf,1,1,1,1,2,1,1,1,3,0,0,1
409047641,0,0.0,0.0,0.014469072,0.0002193532,-0.09996582,-0.035031028,-0.02340852,0.3379954,0.0037717388,-0.0064359144,0.00040352065,0.001993916,2.4806237e-05,-5.8458263e-05,-0.00059875334,0.59042513,-1.364922,0.3253076,1.5615824,0.6718789,0.0,0.100639954,0.035376884,0.01660275,0.06151943,0.032220095,inf,inf,inf,inf,1,1,1,1,2,1,1,1,3,0,0,1
409067625,0,0.0,0.0,0.014472774,0.00022012558,-0.09991513,-0.035031028,-0.02340852,0.3379954,-0.001254152,-0.0033289916,-0.0029360787,-0.001347148,2.4806237e-05,-5.8458263e-05,-0.00059875334,-1.7527435,0.024861015,-0.26000214,1.5635929,0.6718789,0.0,0.10058927,0.03519601,0.01660275,0.061265863,0.032220088,inf,inf,inf,inf,1,1,1,1,2,1,1,1,3,0,0,1
409087611,0,0.0,0.0,0.014483455,0.00025607183,-0.09988834,-0.035031028,-0.02340852,0.3379954,-0.0068157096,-0.00012420662,-0.00043009658,0.0011570654,2.4806237e-05,-5.8458263e-05,-0.00059875334,-2.8958287,0.96000737,-0.040336356,1.5604866,0.6718789,0.0,0.100562476,0.035025902,0.01660275,0.06102018,0.032220103,inf,inf,inf,inf,1,1,1,1,2,1,1,1,3,0,0,1
409107595,0,0.0,0.0,0.014483872,0.00029354193,-0.09987364,-0.035031028,-0.02340852,0.3379954,-0.011231811,0.005876349,-0.002820822,-0.0012357578,2.4806237e-05,-5.8458263e-05,-0.00059875334,-2.8350003,1.3329233,0.07990844,1.5643284,0.6718789,0.0,0.100547776,0.034865797,0.01660275,0.060806487,0.032220148,inf,inf,inf,inf,1,1,1,1,2,1,1,1,3,0,0,1
409127581,0,0.0,0.0,0.014463476,0.00031245695,-0.09984592,-0.035031028,-0.02340852,0.3379954,-0.00408648,0.006664969,-0.0024532373,-0.0008706577,2.4806237e-05,-5.8458263e-05,-0.00059875334,-0.31924543,0.9323723,-0.14499846,1.561014,0.6718789,0.0,0.10052006,0.03471513,0.01660275,0.06060214,0.03222018,inf,inf,inf,inf,1,1,1,1,2,1,1,1,3,0,0,1
409147567,0,0.0,0.0,0.014487789,0.0003581203,-0.0998699,-0.035031028,-0.02340852,0.3379954,0.00031053304,0.0036965793,-0.0014825357,9.688575e-05,2.4806237e-05,-5.8458263e-05,-0.00059875334,1.1206229,-1.1971364,0.43871802,1.5632552,0.6718789,0.0,0.100544035,0.03457335,0.01660275,0.060411654,0.0322202,inf,inf,inf,inf,1,1,1,1,2,1,1,1,3,0,0,1
409167551,0,0.0,0.0,0.014524752,0.00038211397,-0.09981404,-0.035031028,-0.02340852,0.3379954,0.00869349,0.0001855904,-0.0033418871,-0.0017663293,2.4806237e-05,-5.8458263e-05,-0.00059875334,1.8263856,-2.282243,-0.7972831,1.5623823,0.6718789,0.0,0.10048818,0.034439817,0.01660275,0.060245343,0.032220133,inf,inf,inf,inf,1,1,1,1,2,1,1,1,3,0,0,1
409187536,0,0.0,0.0,0.014545663,0.0004104466,-0.099824496,-0.035031028,-0.02340852,0.3379954,0.0059559727,-0.005024305,0.0008780901,0.0024492322,2.4806237e-05,-5.8458263e-05,-0.00059875334,0.6164054,-2.6867816,0.3338026,1.5612328,0.6718789,0.0,0.10049863,0.034314197,0.01660275,0.060076747,0.032220103,inf,inf,inf,inf,1,1,1,1,2,1,1,1,3,0,0,1
409207521,0,0.0,0.0,0.014564161,0.00043925943,-0.09979444,-0.035031028,-0.02340852,0.3379954,0.0040205372,0.0011964648,-0.0028518615,-0.0012856463,2.4806237e-05,-5.8458263e-05,-0.00059875334,-1.208877,-0.48736975,-0.26540768,1.563961,0.6718789,0.0,0.100468576,0.0341959,0.01660275,0.05993702,0.032220095,inf,inf,inf,inf,1,1,1,1,2,1,1,1,3,0,0,1
409227506,0,0.0,0.0,0.014596693,0.00045798247,-0.09977015,-0.035031028,-0.02340852,0.3379954,-0.00096673047,0.0042833188,7.615144e-05,0.0016370122,2.4806237e-05,-5.8458263e-05,-0.00059875334,-2.1806808,1.5400972,-0.2300954,1.5602621,0.6718789,0.0,0.10044429,0.034084562,0.01660275,0.05979548,0.03222011,inf,inf,inf,inf,1,1,1,1,2,1,1,1,3,0,0,1
409247493,0,0.0,0.0,0.014626448,0.000484382,-0.099793926,-0.035031028,-0.02340852,0.3379954,-0.0043042907,0.011737697,-0.0034978406,-0.0019428586,2.4806237e-05,-5.8458263e-05,-0.00059875334,-1.75359,2.4924142,-0.0109463,1.5644922,0.6718789,0.0,0.10046806,0.033979774,0.01660275,0.05967191,0.03222015,inf,inf,inf,inf,1,1,1,1,2,1,1,1,3,0,0,1
409267477,0,0.0,0.0,0.0146256555,0.00053107104,-0.09974139,-0.035031028,-0.02340852,0.3379954,-0.0032555505,0.012241004,0.000515184,0.0020635545,2.4806237e-05,-5.8458263e-05,-0.00059875334,-0.12653476,1.6252619,-0.6100571,1.5607803,0.6718789,0.0,0.10041553,0.033881146,0.01660275,0.05955662,0.032220207,inf,inf,inf,inf,1,1,1,1,2,1,1,1,3,0,0,1
409287462,0,0.0,0.0,0.014642639,0.0005926079,-0.09977646,-0.035031028,-0.02340852,0.3379954,0.0024982286,0.008415977,-0.00069139805,0.00084991805,2.4806237e-05,-5.8458263e-05,-0.00059875334,1.5752199,-0.43275645,0.55239505,1.5635501,0.6718789,0.0,0.1004506,0.03378837,0.01660275,0.059446085,0.0322202,inf,inf,inf,inf,1,1,1,1,2,1,1,1,3,0,0,1
409307447,0,0.0,0.0,0.014668254,0.0006025647,-0.099723406,-0.035031028,-0.02340852,0.3379954,0.01023695,0.0028068526,-0.0014228364,0.000111002555,2.4806237e-05,-5.8458263e-05,-0.00059875334,3.0706692,-1.1901854,-0.5607572,1.5620205,0.6718789,0.0,0.10039754,0.03370108,0.01660275,0.059355773,0.03222016,inf,inf,inf,inf,1,1,1,1,2,1,1,1,3,0,0,1
409327433,0,0.0,0.0,0.014720504,0.0006301151,-0.09973479,-0.035031028,-0.02340852,0.3379954,0.011012365,-0.002009003,0.0007441733,0.002269861,2.4806237e-05,-5.8458263e-05,-0.00059875334,1.9429516,-1.6654229,0.20115364,1.5617439,0.6718789,0.0,0.10040893,0.033619016,0.01660275,0.0592528,0.03222011,inf,inf,inf,inf,1,1,1,1,2,1,1,1,3,0,0,1
409347419,0,0.0,0.0,0.014776509,0.0006387737,-0.09973757,-0.035031028,-0.02340852,0.3379954,0.0074584195,0.0017668535,-0.0021523747,-0.0006354306,2.4806237e-05,-5.8458263e-05,-0.00059875334,0.21115018,0.41985863,0.07011677,1.5634494,0.6718789,0.0,0.100411706,0.033541806,0.01660275,0.059177198,0.03222009,inf,inf,inf,inf,1,1,1,1,2,1,1,1,3,0,0,1
409367404,0,0.0,0.0,0.014806116,0.00067014893,-0.09970945,-0.035031028,-0.02340852,0.3379954,0.00044258565,0.003955307,0.0017136198,0.003221374,2.4806237e-05,-5.8458263e-05,-0.00059875334,-1.2196946,1.6102871,0.02559002,1.5602297,0.6718789,0.0,0.10038359,0.03444784,0.01660275,0.06008631,0.0322201,inf,inf,inf,inf,1,1,1,1,2,1,1,1,3,0,0,1
409387389,0,0.0,0.0,0.014851606,0.000711423,-0.099718146,-0.035031028,-0.02340852,0.3379954,-0.00092853553,0.009209122,-0.0025028426,-0.001004756,2.4806237e-05,-5.8458263e-05,-0.00059875334,-1.2168677,2.5558922,0.2404494,1.5645573,0.6718789,0.0,0.10039228,0.03434716,0.01660275,0.05996248,0.032220136,inf,inf,inf,inf,1,1,1,1,2,1,1,1,3,0,0,1
409407377,0,0.0,0.0,0.014882336,0.0007240314,-0.09967663,-0.035031028,-0.02340852,0.3379954,-0.0039450936,0.008591515,0.0035930823,0.005081124,2.4806237e-05,-5.8458263e-05,-0.00059875334,-0.77025706,2.5243363,0.29244706,1.5599581,0.6718789,0.0,0.10035077,0.03425227,0.01660275,0.05985359,0.03222019,inf,inf,inf,inf,1,1,1,1,2,1,1,1,3,0,0,1
409427359,0,0.0,0.0,0.014933366,0.00076819427,-0.09968062,-0.035031028,-0.02340852,0.3379954,-0.0018487659,0.009676729,-0.0016888217,-0.00021109087,2.4806237e-05,-5.8458263e-05,-0.00059875334,0.52611184,0.9317513,0.4805758,1.564559,0.6718789,0.0,0.10035475,0.034136657,0.01660275,0.059690688,0.032220203,inf,inf,inf,inf,1,1,1,1,2,1,1,1,3,0,0,1
409447344,0,0.0,0.0,0.014967994,0.0007857186,-0.09963721,-0.035031028,-0.02340852,0.3379954,0.004814871,0.008101431,0.00021252438,0.0016795552,2.4806237e-05,-5.8458263e-05,-0.00059875334,2.8776674,0.6333537,-0.19387406,1.5609055,0.6718789,0.0,0.10031135,0.034027494,0.01660275,0.059564352,0.032220162,inf,inf,inf,inf,1,1,1,1,2,1,1,1,3,0,0,1
409467330,0,0.0,0.0,0.015026551,0.0008445237,-0.09964537,-0.035031028,-0.02340852,0.3379954,0.008414852,0.0017793006,0.0014992134,0.0029553815,2.4806237e-05,-5.8458263e-05,-0.00059875334,2.9012957,-1.1904894,0.7106192,1.5629432,0.6718789,0.0,0.100319505,0.03392462,0.01660275,0.059419952,0.032220133,inf,inf,inf,inf,1,1,1,1,2,1,1,1,3,0,0,1
409487315,0,0.0,0.0,0.015100464,0.00084594294,-0.09962093,-0.035031028,-0.02340852,0.3379954,0.007711811,-0.0040636845,-0.0023873742,-0.0009422932,2.4806237e-05,-5.8458263e-05,-0.00059875334,1.6810386,-1.3398336,0.10048133,1.5624963,0.6718789,0.0,0.10029507,0.03483886,0.01660275,0.0603405,0.03222009,inf,inf,inf,inf,1,1,1,1,2,1,1,1,3,0,0,1
409507300,0,0.0,0.0,0.015158871,0.0008438024,-0.09960039,-0.035031028,-0.02340852,0.3379954,0.0048705637,-0.0060432293,0.0024498112,0.0038836342,2.4806237e-05,-5.8458263e-05,-0.00059875334,0.1745298,-0.84466964,0.32098502,1.5609057,0.6718789,0.0,0.100274526,0.03471181,0.016602753,0.060172223,0.03222009,inf,inf,inf,inf,1,1,1,1,2,1,1,1,3,0,0,1
409527285,0,0.0,0.0,0.0152408825,0.00086271483,-0.099589296,-0.035031028,-0.02340852,0.3379954,0.0015172495,0.0014029536,-0.0026915849,-0.0012690686,2.4806237e-05,-5.8458263e-05,-0.00059875334,-1.5886583,0.7723346,0.16824916,1.5642177,0.6718789,0.0,0.10026343,0.03456481,0.016602753,0.05996778,0.032220107,inf,inf,inf,inf,1,1,1,1,2,1,1,1,3,0,0,1
409547271,0,0.0,0.0,0.015299775,0.00087865646,-0.09956358,-0.035031028,-0.02340852,0.3379954,-0.0052137836,0.0012716512,0.002962253,0.004373362,2.4806237e-05,-5.8458263e-05,-0.00059875334,-2.305813,1.7485256,0.48406702,1.5596882,0.6718789,0.0,0.10023771,0.035493836,0.016602753,0.060878996,0.03222016,inf,inf,inf,inf,1,1,1,1,2,1,1,1,3,0,0,1
409567256,0,0.0,0.0,0.015341015,0.0009185082,-0.099545,-0.035031028,-0.02340852,0.3379954,-0.0069970037,0.0080598155,-0.002548259,-0.0011483943,2.4806237e-05,-5.8458263e-05,-0.00059875334,-1.6279488,1.8114722,0.14672709,1.5653434,0.6718789,0.0,0.10021914,0.03532218,0.016602753,0.060640294,0.03222021,inf,inf,inf,inf,1,1,1,1,2,1,1,1,3,0,0,1
409587241,0,0.0,0.0,0.015356426,0.0009351275,-0.09950014,-0.035031028,-0.02340852,0.3379954,-0.008792458,0.008516834,0.0011085194,0.0024971615,2.4806237e-05,-5.8458263e-05,-0.00059875334,-0.91415006,1.981159,-0.15321943,1.5594848,0.6718789,0.0,0.10017428,0.035160426,0.016602755,0.060433246,0.032220215,inf,inf,inf,inf,1,1,1,1,2,1,1,1,3,0,0,1
409607227,0,0.0,0.0,0.015389529,0.0010052165,-0.0994867,-0.035031028,-0.02340852,0.3379954,-0.0028595547,0.00799175,0.00023829371,0.0016158284,2.4806237e-05,-5.8458263e-05,-0.00059875334,0.56125414,-0.12919617,0.545774,1.5649494,0.6718789,0.0,0.10016084,0.035008185,0.016602756,0.06022754,0.03222017,inf,inf,inf,inf,1,1,1,1,2,1,1,1,3,0,0,1
409627212,0,0.0,0.0,0.01544331,0.001008661,-0.09944013,-0.035031028,-0.02340852,0.3379954,0.0023485413,0.0004342164,-0.0033123125,-0.0019457134,2.4806237e-05,-5.8458263e-05,-0.00059875334,1.6878238,-0.96582496,-0.6123529,1.5603439,0.6718789,0.0,0.10011426,0.034864727,0.016602756,0.060058214,0.032220107,inf,inf,inf,inf,1,1,1,1,2,1,1,1,3,0,0,1
409647198,0,0.0,0.0,0.015523118,0.0010216387,-0.09945044,-0.035031028,-0.02340852,0.3379954,0.005994231,-0.004476006,0.00033570803,0.001691465,2.4806237e-05,-5.8458263e-05,-0.00059875334,1.8569533,-2.6475744,0.43688238,1.5634034,0.6718789,0.0,0.100124575,0.034702316,0.016602756,0.05983922,0.032220103,inf,inf,inf,inf,1,1,1,1,2,1,1,1,3,0,0,1
409667182,0,0.0,0.0,0.015613529,0.0010119559,-0.099395715,-0.035031028,-0.02340852,0.3379954,0.009110328,-0.005347775,-0.0048509,-0.003506122,2.4806237e-05,-5.8458263e-05,-0.00059875334,1.0765045,-2.82214,-0.90922153,1.5622252,0.6718789,0.0,0.10006985,0.03562898,0.016602758,0.06074252,0.032220103,inf,inf,inf,inf,1,1,1,1,2,1,1,1,3,0,0,1
409687167,0,0.0,0.0,0.015677981,0.0010379292,-0.099404566,-0.035031028,-0.02340852,0.3379954,0.007408287,-0.007116087,0.0047452725,0.006078902,2.4806237e-05,-5.8458263e-05,-0.00059875334,0.65928555,-2.2728102,0.786119,1.5611343,0.6718789,0.0,0.1000787,0.036578946,0.016602758,0.0616447,0.032220136,inf,inf,inf,inf,1,1,1,1,2,1,1,1,3,0,0,1
409707153,0,0.0,0.0,0.01573617,0.0010533856,-0.09933852,-0.035031028,-0.02340852,0.3379954,0.004299525,-0.0043612462,-0.006268473,-0.00494614,2.4806237e-05,-5.8458263e-05,-0.00059875334,-0.9693454,-1.0957633,-0.81857157,1.5641844,0.6718789,0.0,0.10001265,0.037552066,0.016602758,0.06254311,0.03222017,inf,inf,inf,inf,1,1,1,1,2,1,1,1,3,0,0,1
409727138,0,0.0,0.0,0.015772603,0.0010673892,-0.09932253,-0.035031028,-0.02340852,0.3379954,0.0033784418,-0.00498019,0.004516841,0.005827508,2.4806237e-05,-5.8458263e-05,-0.00059875334,-1.1719953,-0.6003819,0.19031812,1.5593572,0.6718789,0.0,0.1,0.037224457,0.016602758,0.062096037,0.032220226,inf,inf,inf,inf,1,1,1,1,2,1,1,1,3,0,0,1
409747123,0,0.0,0.0,0.015844086,0.0010910205,-0.099299625,-0.035031028,-0.02340852,0.3379954,0.0019092796,0.0016398698,-0.002267909,-0.00096912874,2.4806237e-05,-5.8458263e-05,-0.00059875334,-2.3393846,0.77549744,0.18705954,1.5656167,0.6718789,0.0,0.1,0.036918953,0.01660276,0.06168374,0.032220226,inf,inf,inf,inf,1,1,1,1,2,1,1,1,3,0,0,1
409767109,0,0.0,0.0,0.01586502,0.0011006525,-0.099252306,-0.035031028,-0.02340852,0.3379954,-0.0042090467,0.00010245282,0.0011821546,0.0024688938,2.4806237e-05,-5.8458263e-05,-0.00059875334,-2.8910203,0.8198962,-0.39755,1.5587529,0.6718789,0.0,0.1,0.036633644,0.01660276,0.06132293,0.03222018,inf,inf,inf,inf,1,1,1,1,2,1,1,1,3,0,0,1
409787094,0,0.0,0.0,0.015886119,0.001126597,-0.099260435,-0.035031028,-0.02340852,0.3379954,-0.0051367157,0.0059109977,-0.002601908,-0.0013273198,2.4806237e-05,-5.8458263e-05,-0.00059875334,-2.4652166,0.9136115,0.18454793,1.5657948,0.6718789,0.0,0.1,0.03633618,0.01660276,0.060930092,0.032220174,inf,inf,inf,inf,1,1,1,1,2,1,1,1,3,0,0,1
409807079,0,0.0,0.0,0.015907686,0.0011626596,-0.09919668,-0.035031028,-0.02340852,0.3379954,-0.0042095454,0.0074252095,-0.00024788495,0.0010146594,2.4806237e-05,-5.8458263e-05,-0.00059875334,-2.620537,1.5383835,-0.77942055,1.5591663,0.6718789,0.0,0.1,0.03605848,0.01660276,0.06059099,0.032220133,inf,inf,inf,inf,1,1,1,1,2,1,1,1,3,0,0,1
